     2.11           OBSERVATION DATA    G (GPS)             RINEX VERSION / TYPE
teqc  2018Jun8      NGS Web             20191128 00:20:45UTCPGM / RUN BY / DATE
Linux 2.4.21-27.ELsmp|Opteron|gcc|Linux 64|=+               COMMENT
teqc  2019Feb25     CORS-ADM Account    20191031 18:47:58UTCCOMMENT
teqc  2019Feb25     NOAA/NOS/NGS/CORS   20190930 04:34:57UTCCOMMENT
teqc  2018Dec12     gpsops              20190929 00:58:19UTCCOMMENT
Linux 2.6.32-573.12.1.x86_64|x86_64|gcc -static|Linux 64|=+ COMMENT
BIT 2 OF LLI FLAGS DATA COLLECTED UNDER A/S CONDITION       COMMENT
                                                            COMMENT
This data is provided as a public service by NASA/JPL.      COMMENT
No warranty is expressed or implied regarding suitability   COMMENT
for use.  For further information, contact:                 COMMENT
Dave Stowers, NASA/JPL m/s 238-600                          COMMENT
4800 Oak Grove Drive, Pasadena CA 91109 USA                 COMMENT
                                                            COMMENT
 SNR is mapped to RINEX snr flag value [0-9]                COMMENT
  L1 & L2: min(max(int(snr_dBHz/6), 0), 9)                  COMMENT
teqc.e edited: all SBAS satellites excluded                 COMMENT
teqc.e edited: all QZSS satellites excluded                 COMMENT
Forced Modulo Decimation to 30 seconds                      COMMENT
GODE                                                        MARKER NAME
40451M123                                                   MARKER NUMBER
GGN                 NASA GODDARD SPACE FLIGHT CENTER        OBSERVER / AGENCY
3013928             SEPT POLARX5TR      0.0.0-181002        REC # / TYPE / VERS
129                 AOAD/M_T        JPLA                    ANT # / TYPE
  1130774.4390 -4831255.0710  3994200.5580                  APPROX POSITION XYZ
        0.0614        0.0000        0.0000                  ANTENNA: DELTA H/E/N
     1     1                                                WAVELENGTH FACT L1/2
     8    L1    L2    P1    P2    C1    C2    S1    S2      # / TYPES OF OBSERV
    30.0000                                                 INTERVAL
teqc.w windowed: start @ 2019 Sep 29 16:00:00.000           COMMENT
teqc.w windowed:  end  @ 2019 Sep 30 04:00:00.000           COMMENT
teqc.w edited: all GLONASS satellites excluded              COMMENT
teqc.w edited: all SBAS satellites excluded                 COMMENT
teqc.w edited: all Galileo satellites excluded              COMMENT
teqc.w edited: all Beidou satellites excluded               COMMENT
teqc.w edited: all QZSS satellites excluded                 COMMENT
  2019     9    29    16     0    0.0000000     GPS         TIME OF FIRST OBS
    18                                                      LEAP SECONDS
                                                            END OF HEADER
 19  9 29 16  0  0.0000000  0 10G13G19G12G05G02G15G09G06G29G25
 122059052.528 7  95110950.80743  23227060.158    23227060.543    23227060.609
                        42.500          23.750
                                                                  25488199.618
                        19.500
 125144688.332 7  97515324.188 5  23814245.516    23814245.442    23814245.958
  23814246.005          43.000          34.250
 105445073.820 8  82165001.339 8  20065524.192    20065523.357    20065524.482
  20065523.604          52.250          48.500
 111223585.042 8  86667729.87846  21165141.643    21165139.175    21165142.640
                        48.750          40.750
 132025719.094 6 102877196.385 5  25123658.776    25123660.025    25123658.811
  25123660.108          39.500          33.500
 129952255.834 6 101261509.529 5  24729090.346    24729094.020    24729090.855
  24729093.789          36.500          34.000
 124094147.853 6  96696736.735 6  23614333.517    23614336.870    23614333.914
  23614338.144          40.500          38.500
 116731643.682 8  90959726.838 6  22213290.107    22213289.556    22213290.580
  22213289.833          48.250          40.750
 122631841.470 6  95557285.771 6  23336063.182    23336065.783    23336063.991
  23336067.166          40.250          38.250
 19  9 29 16  0 30.0000000  0 10G13G19G12G05G02G15G09G06G29G25
 121954771.650 7  95029693.03943  23207215.948    23207216.153    23207216.435
                        42.000          22.750
                                                                  25509976.831
                        18.750
 125241155.194 7  97590493.103 5  23832602.703    23832602.016    23832603.136
  23832603.867          43.250          35.250
 105439008.857 8  82160275.390 8  20064370.035    20064369.249    20064370.325
  20064369.589          52.250          48.500
 111238830.137 8  86679609.16546  21168042.568    21168040.162    21168043.569
                        49.000          41.000
 131907503.241 6 102785080.144 5  25101162.815    25101164.351    25101162.837
  25101164.798          39.500          34.250
 130036887.034 6 101327455.865 5  24745195.886    24745198.712    24745196.337
  24745199.113          36.250          34.000
 124169094.601 6  96755136.715 6  23628595.623    23628598.645    23628596.043
  23628599.434          41.250          38.500
 116648079.198 8  90894611.645 6  22197388.161    22197387.747    22197388.639
  22197388.244          48.250          40.250
 122686053.101 6  95599528.550 6  23346379.581    23346382.451    23346380.421
  23346383.439          39.750          38.000
 19  9 29 16  1  0.0000000  0  9G13G12G05G02G15G09G06G29G25
 121850641.631 7  94948552.80243  23187401.418    23187401.311    23187401.936
                        42.000          23.000
 125337719.973 7  97665738.355 6  23850978.378    23850978.936    23850978.775
  23850979.064          43.000          36.000
 105433398.814 8  82155903.915 8  20063302.429    20063301.694    20063302.715
  20063302.167          52.500          48.750
 111254291.460 8  86691656.94846  21170984.936    21170982.177    21170985.933
                        49.000          40.750
 131789226.011 6 102692916.115 5  25078656.026    25078657.020    25078656.093
  25078657.326          39.500          35.000
 130121855.010 6 101393664.577 5  24761364.642    24761367.697    24761365.138
  24761367.467          36.750          33.000
 124244165.608 6  96813633.557 6  23642880.568    23642884.411    23642881.019
  23642885.132          40.500          39.000
 116564834.940 7  90829746.012 6  22181547.400    22181546.890    22181547.887
  22181547.117          47.500          40.500
 122740676.731 6  95642092.406 6  23356773.877    23356777.113    23356774.695
  23356778.042          41.000          38.000
 19  9 29 16  1 30.0000000  0 10G13G19G12G05G02G15G09G06G29G25
 121746665.700 6  94867532.64143  23167614.874    23167615.227    23167615.379
                        41.750          23.000
                                                                  25553468.709
                        21.250
 125434379.034 7  97741057.031 5  23869372.198    23869373.041    23869372.595
  23869372.670          42.750          35.000
 105428242.965 8  82151886.370 8  20062321.322    20062320.580    20062321.608
  20062320.878          52.500          48.500
 111269969.608 8  86703873.68046  21173968.457    21173965.742    21173969.454
                        49.000          40.750
 131670889.840 6 102600706.149 5  25056137.057    25056138.224    25056137.186
  25056139.481          40.500          34.750
 130207157.091 6 101460133.744 5  24777596.835    24777600.344    24777597.349
  24777600.056          38.000          31.500
 124319360.806 6  96872227.159 6  23657190.271    23657193.947    23657190.713
  23657194.502          40.750          39.000
 116481913.302 8  90765131.764 6  22165767.893    22165767.665    22165768.366
  22165767.315          48.250          40.500
 122795709.752 6  95684975.222 6  23367246.101    23367249.309    23367246.950
  23367250.252          40.000          37.500
 19  9 29 16  2  0.0000000  0  9G13G12G05G02G15G09G06G29G25
 121642847.042 6  94786635.04143  23147858.442    23147858.748    23147858.938
                        41.750          23.000
 125531129.653 7  97816447.096 5  23887783.078    23887783.086    23887783.453
  23887783.941          42.500          34.500
 105423540.009 8  82148221.727 8  20061426.309    20061425.638    20061426.595
  20061425.862          52.500          48.500
 111285865.114 8  86716259.77546  21176993.164    21176990.741    21176994.165
                        48.750          40.750
 131552497.129 6 102508452.123 5  25033607.462    25033609.197    25033607.618
  25033609.603          41.500          34.750
 130292790.904 6 101526861.371 5  24793892.570    24793895.903    24793893.070
  24793897.184          39.750          31.000
 124394680.112 6  96930917.466 6  23671522.750    23671527.027    23671523.197
  23671527.244          40.000          39.500
 116399317.029 8  90700771.044 6  22150050.190    22150049.746    22150050.663
  22150050.152          48.500          40.500
 122851149.396 6  95728174.939 6  23377796.331    23377799.682    23377797.140
  23377800.368          40.250          38.250
 19  9 29 16  2 30.0000000  0  9G13G12G05G02G15G09G06G29G25
 121539188.791 7  94705862.42644  23128133.148    23128133.223    23128133.639
                        42.750          24.000
 125627968.621 7  97891905.949 5  23906210.649    23906210.773    23906211.060
  23906212.267          42.750          34.500
 105419289.412 8  82144909.569 8  20060617.625    20060616.802    20060617.906
  20060617.107          52.250          48.750
 111301978.688 8  86728815.79946  21180059.493    21180057.008    21180060.490
                        48.750          40.750
 131434050.615 6 102416156.256 5  25011067.942    25011069.635    25011068.165
  25011069.211          41.250          35.250
 130378753.840 6 101593845.435 5  24810250.962    24810254.010    24810251.534
  24810255.257          40.500          32.000
 124470123.409 6  96989704.414 6  23685879.283    23685883.279    23685879.716
  23685883.822          40.500          39.000
 116317048.773 8  90636665.920 6  22134395.147    22134394.788    22134395.620
  22134394.934          48.250          41.000
 122906993.070 6  95771689.443 6  23388422.335    23388426.051    23388423.153
  23388426.644          40.000          37.750
 19  9 29 16  3  0.0000000  0  9G13G12G05G02G15G09G06G29G25
 121435694.076 7  94625217.23243  23108438.821    23108438.954    23108439.308
                        42.250          23.500
 125724892.609 7  97967431.080 5  23924654.727    23924654.914    23924655.147
  23924655.675          42.250          33.500
 105415490.142 8  82141949.088 8  20059894.684    20059893.786    20059894.965
  20059894.312          52.250          48.750
 111318310.767 8  86741542.08746  21183167.543    21183164.911    21183168.540
                        49.000          40.750
 131315552.693 6 102323820.327 5  24988518.288    24988520.208    24988518.453
  24988520.689          41.250          35.000
 130465043.444 6 101661084.076 5  24826671.530    24826674.399    24826672.093
  24826674.473          40.500          32.250
 124545690.577 6  97048587.871 6  23700259.555    23700262.402    23700259.984
  23700264.042          41.500          38.750
 116235110.989 8  90572818.310 6  22118803.071    22118802.531    22118803.549
  22118802.820          48.500          41.500
 122963237.961 6  95815516.605 6  23399126.018    23399128.955    23399126.822
  23399130.035          39.500          38.750
 19  9 29 16  3 30.0000000  0  9G13G12G05G02G15G09G06G29G25
 121332365.839 6  94544701.77043  23088775.866    23088776.590    23088776.335
                        41.000          22.250
 125821898.422 7  98043020.012 5  23943114.269    23943114.756    23943114.675
  23943115.101          43.000          34.250
 105412141.685 8  82139339.900 8  20059257.426    20059256.571    20059257.707
  20059256.839          52.500          48.500
 111334862.229 8  86754439.32446  21186317.020    21186314.543    21186318.012
                        49.000          40.500
 131197005.657 6 102231446.172 5  24965959.285    24965961.114    24965959.459
  24965961.065          40.500          35.000
 130551657.103 6 101728575.234 5  24843153.970    24843156.227    24843154.443
  24843157.282          40.750          30.750
 124621381.565 6  97107567.802 6  23714663.234    23714666.438    23714663.685
  23714667.328          41.250          38.750
 116153506.685 8  90509230.560 6  22103274.093    22103273.654    22103274.571
  22103274.219          48.500          41.000
 123019881.435 6  95859654.335 6  23409904.431    23409908.186    23409905.240
  23409908.866          40.000          38.250
 19  9 29 16  4  0.0000000  0  9G13G12G05G02G15G09G06G29G25
 121229207.476 7  94464318.67443  23069145.576    23069146.087    23069146.058
                        43.000          23.750
 125918983.365 7  98118670.530 5  23961589.096    23961589.587    23961589.467
  23961589.846          43.250          34.500
 105409242.913 8  82137081.118 8  20058705.779    20058704.956    20058706.060
  20058705.431          52.750          48.750
 111351633.785 8  86767508.05546  21189508.649    21189506.012    21189509.641
                        49.000          40.750
 131078411.788 6 102139035.566 5  24943392.059    24943392.848    24943392.215
  24943393.675          41.750          34.750
 130638592.343 6 101796316.930 5  24859696.940    24859700.001    24859697.400
  24859700.175          41.250          33.250
 124697196.244 6  97166644.122 6  23729089.419    23729093.757    23729089.852
  23729094.819          40.250          39.000
 116072238.390 8  90445904.624 6  22087809.194    22087808.874    22087809.667
  22087809.248          48.750          41.000
 123076920.764 6  95904100.525 6  23420759.097    23420762.580    23420759.897
  23420763.050          40.000          39.000
 19  9 29 16  4 30.0000000  0  9G13G12G05G02G15G09G06G29G25
 121126222.139 7  94384070.38744  23049548.010    23049548.499    23049548.483
                        43.500          24.500
 126016143.334 7  98194379.534 5  23980078.736    23980078.861    23980079.084
  23980078.892          42.500          33.750
 105406792.577 8  82135171.758 8  20058239.346    20058238.655    20058239.632
  20058239.010          52.500          48.500
 111368625.988 8  86780748.71846  21192742.049    21192739.532    21192743.041
                        49.250          40.500
 130959773.756 6 102046590.478 5  24920815.728    24920816.100    24920815.942
  24920816.461          41.250          34.250
 130725846.554 6 101864307.218 5  24876300.619    24876303.632    24876301.070
  24876303.881          39.750          32.000
 124773134.517 6  97225816.744 6  23743540.772    23743544.713    23743541.183
  23743545.121          41.000          38.250
 115991308.655 8  90382842.500 6  22072408.822    22072408.338    22072409.304
  22072408.340          48.750          41.000
 123134353.181 6  95948853.032 6  23431688.134    23431691.016    23431688.894
  23431692.098          40.500          38.250
 19  9 29 16  5  0.0000000  0  9G13G12G05G02G15G09G06G29G25
 121023412.671 7  94303959.13044  23029984.121    23029984.390    23029984.586
                        43.250          24.250
 126113375.685 6  98270144.961 5  23998581.603    23998581.876    23998581.947
  23998581.460          41.000          33.250
 105404790.454 8  82133611.670 8  20057858.511    20057857.687    20057858.797
  20057858.163          52.750          48.750
 111385839.397 8  86794161.75346  21196017.808    21196015.201    21196018.800
                        49.000          40.750
 130841094.169 6 101954113.081 5  24898231.896    24898232.335    24898232.177
  24898233.201          41.500          34.000
 130813417.233 6 101932544.085 5  24892965.284    24892968.068    24892965.726
  24892967.304          40.000          31.500
 124849196.284 6  97285085.624 6  23758014.707    23758018.242    23758015.122
  23758019.051          40.750          39.000
 115910720.366 8  90320046.435 6  22057073.322    22057073.061    22057073.800
  22057073.419          49.000          41.000
 123192175.925 6  95993909.701 6  23442691.414    23442694.601    23442692.169
  23442695.310          40.000          38.750
 19  9 29 16  5 30.0000000  0  9G13G12G05G02G15G09G06G29G25
 120920782.831 7  94223987.84643  23010454.218    23010454.489    23010454.696
                        43.000          23.250
 126210677.545 6  98345964.534 5  24017096.700    24017096.866    24017097.102
  24017097.100          40.750          32.250
 105403234.727 8  82132399.412 8  20057562.517    20057561.679    20057562.807
  20057562.073          52.500          48.750
 111403274.918 8  86807747.87046  21199335.551    21199333.042    21199336.552
                        49.000          40.500
 130722375.521 6 101861605.139 5  24875640.112    24875641.425    24875640.469
  24875641.381          41.250          33.750
 130901301.821 6 102001025.589 5  24909688.447    24909691.994    24909688.916
  24909690.891          39.500          31.500
 124925381.440 6  97344450.595 6  23772511.918    23772515.703    23772512.333
  23772517.213          41.750          39.000
 115830475.969 8  90257518.363 6  22041803.590    22041802.832    22041804.059
  22041803.340          48.750          41.250
 123250386.269 6  96039268.373 6  23453768.421    23453772.434    23453769.216
  23453772.051          40.000          38.500
 19  9 29 16  6  0.0000000  0  9G13G12G05G02G15G09G06G29G25
 120818335.019 7  94144158.40844  22990959.154    22990959.404    22990959.645
                        42.750          24.000
 126308045.317 6  98421835.513 5  24035625.335    24035624.574    24035625.777
  24035625.370          40.500          31.750
 105402124.628 8  82131534.389 8  20057351.123    20057350.453    20057351.413
  20057350.949          52.500          48.750
 111420932.977 8  86821507.38846  21202695.884    21202693.154    21202696.876
                        48.750          40.500
 130603620.082 6 101769068.569 5  24853041.465    24853042.762    24853041.813
  24853043.114          40.500          34.250
 130989497.786 6 102069749.663 4  24926471.326    24926475.277    24926471.715
  24926474.466          39.750          29.500
 125001689.823 6  97403911.636 6  23787033.858    23787037.583    23787034.264
  23787037.355          41.750          38.500
 115750578.223 8  90195260.379 6  22026599.342    22026598.868    22026599.815
  22026599.210          48.750          41.000
 123308981.444 6  96084926.903 6  23464919.470    23464922.049    23464920.261
  23464922.873          39.250          37.500
 19  9 29 16  6 30.0000000  0  9G13G12G05G02G15G09G06G29G25
 120716072.615 7  94064473.45844  22971499.296    22971499.422    22971499.801
                        43.250          24.500
 126405476.134 6  98497755.575 5  24054165.856    24054166.273    24054166.204
  24054166.619          41.250          33.750
 105401459.693 8  82131016.258 8  20057224.626    20057223.861    20057224.916
  20057224.131          52.500          48.750
 111438814.200 8  86835440.79846  21206098.496    21206095.893    21206099.488
                        48.500          40.250
 130484830.452 6 101676505.340 5  24830436.820    24830437.404    24830437.124
  24830438.292          40.500          34.000
 131078002.495 6 102138714.397 4  24943313.280    24943316.579    24943313.798
  24943316.993          37.750          29.000
 125078121.381 6  97463468.654 6  23801578.305    23801582.170    23801578.743
  23801582.414          40.750          38.750
 115671029.765 8  90133274.578 6  22011462.105    22011461.352    22011462.565
  22011461.649          48.500          41.500
 123367958.631 6  96130883.140 6  23476141.306    23476145.683    23476142.119
  23476145.712          39.750          38.500
 19  9 29 16  7  0.0000000  0  9G13G12G05G02G15G09G06G29G25
 120613998.919 7  93984935.52144  22952075.320    22952075.476    22952075.807
                        43.750          24.500
 126502966.764 6  98573722.254 5  24072718.327    24072718.820    24072718.626
  24072717.913          40.500          33.250
 105401238.803 8  82130844.134 8  20057182.410    20057181.864    20057182.696
  20057182.320          52.500          48.750
 111456919.521 8  86849548.83346  21209543.928    21209541.256    21209544.916
                        49.000          40.500
 130366009.158 6 101583917.378 5  24807826.123    24807826.466    24807826.359
  24807827.502          41.000          34.250
 131166813.462 6 102207917.718 4  24960214.670    24960216.277    24960215.108
  24960217.719          36.500          28.250
 125154676.027 6  97523121.553 6  23816145.343    23816149.514    23816145.745
  23816150.291          41.000          38.500
 115591833.350 8  90071563.084 6  21996391.075    21996390.871    21996391.531
  21996391.063          49.000          41.750
 123427315.045 6  96177134.843 6  23487437.242    23487440.362    23487438.046
  23487440.695          39.750          38.250
 19  9 29 16  7 30.0000000  0  9G13G12G05G02G15G09G06G29G25
 120512117.210 7  93905547.18244  22932687.930    22932687.750    22932688.377
                        43.000          24.500
 126600513.888 6  98649732.927 5  24091279.970    24091281.299    24091280.390
  24091282.360          41.500          32.750
 105401460.838 8  82131017.149 8  20057224.735    20057224.125    20057225.025
  20057224.436          52.250          49.000
 111475249.389 8  86863831.83946  21213031.774    21213029.189    21213032.762
                        48.750          40.500
 130247158.588 6 101491306.653 5  24785209.025    24785210.448    24785209.217
  24785210.396          40.750          35.250
 131255928.137 6 102277357.640 5  24977172.413    24977174.243    24977172.833
  24977175.308          37.750          30.250
 125231353.567 6  97582870.238 6  23830736.910    23830740.825    23830737.294
  23830742.060          40.750          38.500
 115512991.552 8  90010127.938 6  21981388.043    21981387.866    21981388.512
  21981387.898          49.250          41.500
 123487047.912 6  96223679.899 6  23498803.854    23498807.106    23498804.627
  23498807.493          39.000          38.000
 19  9 29 16  8  0.0000000  0  9G13G12G05G02G15G09G06G29G25
 120410430.278 7  93826310.64444  22913337.006    22913337.452    22913337.488
                        43.000          24.750
 126698114.878 6  98725785.612 5  24109853.182    24109853.946    24109853.709
  24109853.551          40.000          32.000
 105402124.731 8  82131534.472 8  20057351.208    20057350.462    20057351.498
  20057350.926          52.500          48.500
 111493804.435 8  86878290.31146  21216562.636    21216560.210    21216563.619
                        48.750          40.500
 130128281.501 6 101398675.261 5  24762587.185    24762588.563    24762587.305
  24762588.431          40.250          35.000
 131345343.882 6 102347032.265 5  24994187.043    24994189.353    24994187.405
  24994191.434          36.000          30.250
 125308153.939 6  97642714.622 6  23845351.818    23845355.040    23845352.215
  23845355.827          41.500          37.750
 115434506.979 8  89948971.140 6  21966452.983    21966452.576    21966453.448
  21966452.784          48.750          41.250
 123547154.376 6  96270516.076 6  23510241.829    23510244.989    23510242.611
  23510245.855          40.000          38.500
 19  9 29 16  8 30.0000000  0  9G13G12G05G02G15G09G06G29G25
 120308941.379 7  93747228.41344  22894024.817    22894024.890    22894025.290
                        43.500          25.500
 126795766.197 6  98801877.539 5  24128435.802    24128436.498    24128436.378
  24128436.768          41.250          32.250
 105403229.517 8  82132395.342 8  20057561.459    20057560.588    20057561.754
  20057561.154          52.500          48.750
 111512585.654 8  86892925.02146  21220136.800    21220134.261    21220137.783
                        48.500          40.500
 130009380.438 6 101306025.140 5  24739961.322    24739962.121    24739961.456
  24739961.955          40.000          34.750
 131435058.128 5 102416939.406 5  25011260.472    25011261.735    25011260.655
  25011262.097          34.500          31.000
 125385077.021 6  97702654.620 6  23859989.968    23859993.138    23859990.330
  23859995.312          41.000          38.250
 115356382.296 8  89888094.758 6  21951586.385    21951585.803    21951586.841
  21951586.042          49.000          41.500
 123607631.613 6  96317641.170 6  23521750.215    23521753.765    23521750.961
  23521754.237          39.250          38.500
 19  9 29 16  9  0.0000000  0  9G13G12G05G02G15G09G06G29G25
 120207653.732 7  93668302.99544  22874750.168    22874750.287    22874750.659
                        43.750          25.250
 126893464.764 6  98878006.242 5  24147026.538    24147027.466    24147027.074
  24147028.563          41.750          33.500
 105404773.892 8  82133598.746 8  20057855.409    20057854.503    20057855.704
  20057855.025          53.000          48.500
 111531593.453 8  86907736.29146  21223753.758    21223751.335    21223754.737
                        49.250          40.250
 129890457.772 6 101213358.189 5  24717330.953    24717331.883    24717331.149
  24717331.733          40.250          34.500
 131525068.341 5 102487077.180 5  25028387.444    25028390.227    25028387.716
  25028391.634          35.500          31.750
 125462122.711 6  97762690.164 6  23874651.145    23874655.839    23874651.516
  23874655.487          41.500          38.750
 115278620.408 8  89827501.081 6  21936788.851    21936788.158    21936789.307
  21936788.468          49.500          41.250
 123668476.798 6  96365052.993 6  23533329.153    23533331.748    23533329.922
  23533332.368          39.500          36.500
 19  9 29 16  9 30.0000000  0  9G13G12G05G02G15G09G06G29G25
 120106570.310 7  93589536.71244  22855514.475    22855514.865    22855514.948
                        43.250          24.750
 126991207.806 6  98954169.565 5  24165627.754    24165627.564    24165628.286
  24165627.953          38.750          33.750
 105406757.312 8  82135144.265 8  20058232.794    20058232.025    20058233.089
  20058232.253          52.750          48.750
 111550828.557 8  86922724.67746  21227414.289    21227411.599    21227415.268
                        48.750          40.250
 129771516.139 6 101120676.484 5  24694696.903    24694697.576    24694697.171
  24694698.101          40.250          33.500
 131615371.903 5 102557443.573 5  25045571.710    25045574.543    25045572.005
  25045574.078          35.000          31.250
 125539290.857 7  97822821.135 6  23889335.821    23889340.701    23889336.196
  23889340.570          42.250          37.750
 115201223.510 8  89767191.826 6  21922060.654    21922060.105    21922061.105
  21922060.370          49.250          41.250
 123729687.095 6  96412749.274 6  23544976.431    23544979.744    23544977.218
  23544981.051          40.500          38.250
 19  9 29 16 10  0.0000000  0  9G13G12G05G02G15G09G06G29G25
 120005694.426 7  93510932.15844  22836318.544    22836318.708    22836319.031
                        43.000          24.750
 127088991.939 6  99030364.947 5  24184234.934    24184235.023    24184235.416
  24184234.891          38.750          32.000
 105409178.464 8  82137030.877 8  20058693.604    20058692.870    20058693.899
  20058693.131          52.250          48.500
 111570291.404 8  86937890.52546  21231117.840    21231115.194    21231118.819
                        48.750          40.500
 129652558.300 6 101027982.092 5  24672059.289    24672059.652    24672059.633
  24672061.044          40.750          34.000
 131705966.216 5 102628036.516 5  25062811.740    25062814.155    25062811.963
  25062814.525          34.250          31.000
 125616581.337 6  97883047.423 6  23904043.798    23904047.577    23904044.146
  23904047.834          41.500          36.500
 115124194.600 8  89707169.307 6  21907402.496    21907402.108    21907402.952
  21907402.184          49.000          41.250
 123791259.622 6  96460727.830 6  23556693.491    23556697.005    23556694.260
  23556697.092          38.000          37.750
 19  9 29 16 10 30.0000000  0  9G13G12G05G02G15G09G06G29G25
 119905029.394 7  93432491.88744  22817162.883    22817162.908    22817163.361
                        42.750          25.500
 127186813.750 6  99106589.634 5  24202849.796    24202849.404    24202850.252
  24202851.238          38.000          33.250
 105412036.457 8  82139257.871 8  20059237.390    20059236.700    20059237.680
  20059237.124          52.250          49.000
 111589983.025 8  86953234.63446  21234864.868    21234862.503    21234865.851
                        48.500          40.750
 129533586.366 6 100935276.739 5  24649419.760    24649420.274    24649420.086
  24649422.344          39.750          33.750
 131796848.729 5 102698854.026 5  25080105.896    25080108.509    25080106.191
  25080108.816          33.500          30.500
 125693994.010 6  97943368.931 6  23918775.527    23918778.260    23918775.884
  23918779.138          40.750          36.000
 115047536.245 8  89647435.527 6  21892814.722    21892814.593    21892815.191
  21892814.602          48.750          41.750
 123853191.529 6  96508986.456 6  23568478.620    23568482.123    23568479.384
  23568482.439          40.250          38.000
 19  9 29 16 11  0.0000000  0  9G13G12G05G02G15G09G06G29G25
 119804578.208 7  93354218.25944  22798047.557    22798047.669    22798048.026
                        44.000          26.750
 127284670.727 6  99182841.762 5  24221471.110    24221471.669    24221471.566
  24221471.862          38.500          34.250
 105415330.135 8  82141824.372 8  20059864.231    20059863.425    20059864.521
  20059863.956          52.500          48.500
 111609903.859 8  86968757.35546  21238655.922    21238653.348    21238656.901
                        48.500          40.500
 129414603.278 6 100842562.734 5  24626778.785    24626778.271    24626779.066
  24626779.930          40.250          33.500
 131888016.877 5 102769894.052 5  25097454.414    25097457.371    25097454.816
  25097457.968          33.750          30.750
 125771528.795 6  98003785.621 6  23933529.350    23933533.237    23933529.716
  23933534.236          41.250          37.500
 114971250.869 8  89587992.385 6  21878298.119    21878297.819    21878298.597
  21878298.358          49.250          41.750
 123915479.965 6  96557522.825 6  23580332.196    23580335.120    23580332.938
  23580336.144          37.500          38.000
 19  9 29 16 11 30.0000000  0  9G13G12G05G02G15G09G06G29G25
 119704343.709 7  93276113.48544  22778973.481    22778973.476    22778973.954
                        43.500          25.250
 127382559.522 6  99259118.666 5  24240099.246    24240099.970    24240099.746
  24240099.967          37.500          33.750
 105419058.347 8  82144729.475 8  20060573.636    20060572.884    20060573.926
  20060573.217          52.500          49.000
 111630054.525 8  86984459.16146  21242490.402    21242487.737    21242491.390
                        48.750          40.500
 129295611.355 6 100749841.762 5  24604134.972    24604135.276    24604135.200
  24604135.839          40.000          34.000
 131979467.996 5 102841154.620 5  25114856.663    25114860.077    25114857.123
  25114861.369          33.750          30.500
 125849185.537 6  98064297.279 5  23948306.869    23948310.832    23948307.235
  23948311.734          40.000          35.750
 114895341.485 8  89528842.220 6  21863853.202    21863852.542    21863853.684
  21863852.881          49.000          41.750
 123978122.002 6  96606334.783 6  23592252.111    23592255.969    23592252.875
  23592256.531          38.750          38.250
 19  9 29 16 12  0.0000000  0  9G13G12G05G02G15G09G06G29G25
 119604329.261 7  93198180.16344  22759941.141    22759941.342    22759941.610
                        43.750          24.500
 127480477.126 6  99335418.032 5  24258732.842    24258733.006    24258733.289
  24258734.228          39.500          34.000
 105423219.838 8  82147972.190 8  20061365.524    20061364.763    20061365.814
  20061365.180          52.750          48.750
 111650435.708 8  87000340.59246  21246368.762    21246366.172    21246369.750
                        49.000          40.500
 129176613.326 6 100657116.091 5  24581490.841    24581490.684    24581491.028
  24581491.565          40.500          33.500
 132071199.575 5 102912633.690 4  25132312.649    25132316.361    25132312.930
  25132317.380          33.000          29.750
 125926964.101 6  98124903.928 6  23963107.866    23963111.035    23963108.263
  23963111.928          41.000          36.500
 114819810.530 8  89469986.939 6  21849480.120    21849479.522    21849480.598
  21849479.906          49.500          41.250
 124041114.782 6  96655420.038 6  23604239.333    23604243.325    23604240.079
  23604243.280          39.500          37.500
 19  9 29 16 12 30.0000000  0  9G13G12G05G02G15G09G06G29G25
 119504538.497 7  93120421.13644  22740951.889    22740951.833    22740952.349
                        44.250          26.000
 127578420.377 6  99411737.378 5  24277369.308    24277370.626    24277369.755
  24277371.529          38.750          33.250
 105427814.194 8  82151552.208 8  20062239.738    20062239.037    20062240.033
  20062239.227          52.500          48.250
 111671048.320 8  87016402.35646  21250291.246    21250288.716    21250292.238
                        48.750          40.250
 129057611.694 6 100564387.575 5  24558845.279    24558845.122    24558845.448
  24558847.041          40.250          34.250
 132163208.952 5 102984329.365 4  25149822.483    25149825.245    25149822.898
  25149825.754          33.000          28.250
 126004864.404 6  98185605.378 6  23977931.950    23977936.230    23977932.334
  23977936.861          40.750          37.250
 114744660.441 8  89411428.443 6  21835179.375    21835178.974    21835179.862
  21835179.558          49.250          41.750
 124104455.404 6  96704776.327 6  23616292.939    23616296.011    23616293.694
  23616296.877          38.750          37.250
 19  9 29 16 13  0.0000000  0  9G13G12G05G02G15G09G06G29G25
 119404973.885 7  93042838.34044  22722005.343    22722005.541    22722005.794
                        44.250          27.000
 127676386.121 6  99488074.250 5  24296012.358    24296013.541    24296012.733
  24296013.101          38.500          33.500
 105432839.888 8  82155468.332 8  20063196.055    20063195.396    20063196.350
  20063195.848          53.000          48.750
 111691892.598 8  87032644.64246  21254257.772    21254255.246    21254258.769
                        48.750          40.250
 128938609.099 6 100471658.281 5  24536199.586    24536199.962    24536199.720
  24536200.659          39.500          34.250
 132255493.627 5 103056239.441 4  25167384.322    25167386.711    25167384.791
  25167386.186          31.000          29.000
 126082886.228 6  98246401.582 6  23992778.780    23992783.336    23992779.173
  23992783.598          41.250          37.500
 114669893.963 8  89353168.862 6  21820952.027    21820951.532    21820952.505
  21820951.583          49.500          41.500
 124168140.885 6  96754401.348 6  23628412.164    23628415.419    23628412.919
  23628415.853          38.500          37.500
 19  9 29 16 13 30.0000000  0  9G13G12G05G02G15G09G06G29G25
 119305638.611 7  92965434.27444  22703102.381    22703102.490    22703102.814
                        44.000          26.000
 127774371.608 6  99564426.522 5  24314658.935    24314659.603    24314659.337
  24314660.309          40.250          32.750
 105438295.854 8  82159719.727 8  20064234.417    20064233.672    20064234.712
  20064234.181          52.500          48.750
 111712969.516 8  87049068.20946  21258268.676    21258266.135    21258269.673
                        48.500          40.000
 128819608.001 6 100378930.198 5  24513554.844    24513554.682    24513554.937
  24513556.078          40.750          33.250
 132348051.036 5 103128362.079 4  25184996.565    25184999.731    25184997.132
  25184999.974          30.250          25.750
 126161029.484 6  98307292.371 6  24007648.812    24007653.046    24007649.218
  24007653.285          40.500          36.500
 114595513.803 8  89295210.292 6  21806797.967    21806797.407    21806798.440
  21806797.683          49.500          41.750
 124232168.429 6  96804292.913 6  23640595.841    23640599.048    23640596.623
  23640599.739          39.250          36.500
 19  9 29 16 14  0.0000000  0  9G13G12G05G02G15G09G06G29G25
 119206536.147 7  92888211.59644  22684243.766    22684244.084    22684244.204
                        44.750          26.750
 127872373.537 6  99640791.552 5  24333307.871    24333308.773    24333308.273
  24333308.633          38.000          32.750
 105444181.165 8  82164305.681 8  20065354.174    20065353.652    20065354.473
  20065354.136          52.500          48.750
 111734279.582 8  87065673.44746  21262323.801    21262321.226    21262324.807
                        48.500          40.250
 128700611.086 6 100286205.340 5  24490910.583    24490910.032    24490910.703
  24490911.577          41.250          33.500
 132440878.457 4 103200695.105 4  25202660.473    25202663.869    25202661.201
  25202665.795          27.500          26.500
 126239294.065 6  98368277.701 6  24022542.246    24022546.210    24022542.648
  24022547.206          40.500          36.500
 114521522.687 8  89237554.900 7  21792717.779    21792717.381    21792718.257
  21792717.159          49.250          42.000
 124296535.018 6  96854448.672 6  23652844.532    23652847.707    23652845.372
  23652848.376          38.500          38.250
 19  9 29 16 14 30.0000000  0  9G13G12G05G02G15G09G06G29G25
 119107669.680 7  92811172.79644  22665430.050    22665430.076    22665430.479
                        44.500          26.250
 127970388.917 6  99717167.164 5  24351959.436    24351960.287    24351959.802
  24351962.076          38.500          33.000
 105450494.097 8  82169224.844 8  20066555.577    20066554.931    20066555.881
  20066555.337          52.500          48.750
 111755823.642 8  87082461.01446  21266423.594    21266420.971    21266424.600
                        48.750          40.250
 128581620.733 6 100193485.642 5  24468266.953    24468267.747    24468267.136
  24468267.684          41.500          34.500
 132533973.331 4                                                  25220378.404
                        24.500
 126317679.784 6  98429357.426 6  24037459.070    24037462.908    24037459.472
  24037462.927          41.000          36.750
 114447923.022 8  89180204.518 7  21778712.427    21778711.758    21778712.905
  21778712.276          49.500          42.000
 124361237.738 6  96904866.326 6  23665157.241    23665160.740    23665158.077
  23665160.790          39.000          37.250
                            4  1
RINEX FILE SPLICE; other post-header comments skipped       COMMENT
 19  9 29 16 15  0.0000000  0  9G13G12G05G02G15G09G06G29G25
 119009042.010 7  92734320.08944  22646662.124    22646661.742    22646662.562
                        44.000          26.500
 128068414.731 6  99793550.848 5  24370614.200    24370613.821    24370614.517
  24370614.858          37.500          34.000
 105457233.641 8  82174476.435 8  20067837.998    20067837.411    20067838.297
  20067837.849          52.500          48.500
 111777602.357 8  87099431.42846  21270567.798    21270565.427    21270568.808
                        48.750          40.000
 128462639.935 6 100100773.335 5  24445625.231    24445626.827    24445625.490
  24445627.155          40.750          34.750
 132627333.046 4 103345984.397 4                                  25238141.794
  25238144.684          27.000          25.000
 126396186.460 6  98490531.435 6  24052398.601    24052402.228    24052399.003
  24052402.645          41.500          36.000
 114374717.507 8  89123161.265 7  21764781.551    21764781.125    21764782.033
  21764781.574          49.500          42.000
 124426273.675 6  96955543.639 6  23677532.727    23677536.309    23677533.567
  23677537.414          38.500          36.750
 19  9 29 16 15 30.0000000  0  9G13G12G05G02G15G09G06G29G25
 118910656.366 7  92657655.97244  22627939.581    22627939.970    22627939.996
                        44.000          26.500
 128166448.046 6  99869940.378 5  24389268.154    24389269.310    24389268.408
  24389269.555          38.000          33.250
 105464398.979 8  82180059.810 8  20069201.743    20069200.911    20069202.042
  20069201.321          52.500          48.750
 111799616.461 8  87116585.27246  21274757.016    21274754.452    21274758.031
                        48.750          39.750
 128343671.164 6 100008070.417 5  24422986.993    24422988.071    24422987.212
  24422988.285          40.000          34.750
 132720954.946 4 103418936.545 4                                  25255954.383
  25255960.719          25.750          24.750
 126474813.998 6  98551799.572 6  24067360.385    24067363.839    24067360.769
  24067365.095          39.750          36.250
 114301908.624 8  89066427.067 6  21750926.490    21750926.106    21750926.981
  21750926.239          49.750          41.750
 124491639.773 6  97006478.230 6  23689971.936    23689975.111    23689972.727
  23689976.480          39.000          37.000
 19  9 29 16 16  0.0000000  0  9G13G12G05G02G15G09G06G29G25
 118812515.861 7  92581182.87644  22609264.245    22609264.601    22609264.669
                        44.250          26.750
 128264485.680 5  99946333.313 5  24407925.557    24407925.263    24407925.798
  24407925.515          33.500          34.000
 105471989.331 8  82185974.367 8  20070646.389    20070645.286    20070646.688
  20070645.743          52.250          48.750
 111821866.144 8  87133922.68146  21278991.030    21278988.412    21278992.045
                        49.000          40.000
 128224716.850 6  99915378.763 5  24400350.530    24400351.143    24400350.686
  24400350.925          39.250          34.750
                 103492090.981 4                                  25273832.033
  25273826.709          22.750          25.750
 126553562.226 6  98613161.779 6  24082345.537    24082349.632    24082345.934
  24082350.828          39.000          36.500
 114229499.163 8  89010004.112 7  21737147.567    21737147.155    21737148.058
  21737147.338          49.500          42.000
 124557333.214 6  97057667.887 6  23702472.416    23702475.925    23702473.229
  23702476.949          38.500          37.750
 19  9 29 16 16 30.0000000  0  9G13G12G05G02G15G09G06G29G25
 118714623.599 7  92504903.19944  22590636.013    22590636.090    22590636.446
                        44.750          26.500
 128362524.561 6 100022727.126 5  24426580.605    24426581.468    24426580.882
  24426582.059          37.750          33.500
 105480003.038 8  82192218.811 8  20072171.075    20072170.248    20072171.370
  20072170.752          53.000          48.500
 111844352.393 8  87151444.42946  21283269.981    21283267.567    21283271.000
                        49.250          40.000
 128105779.780 6  99822700.572 6  24377717.424    24377718.356    24377717.576
  24377719.319          39.500          36.000
                                                                  25291745.840
  25291741.417          18.000          22.500
 126632431.001 6  98674617.935 5  24097354.478    24097358.057    24097354.844
  24097358.400          40.750          34.750
 114157491.657 8  88953894.381 7  21723444.871    21723444.529    21723445.358
  21723444.741          50.000          42.250
 124623350.959 6  97109110.243 6  23715035.454    23715039.396    23715036.281
  23715039.619          39.000          38.500
 19  9 29 16 17  0.0000000  0  9G13G12G05G02G15G09G06G29G25
 118616982.892 7  92428819.54644  22572055.329    22572055.617    22572055.789
                        44.500          26.500
 128460561.720 6 100099119.639 5  24445237.152    24445237.296    24445237.406
  24445238.360          37.250          34.000
 105488439.098 8  82198792.365 8  20073776.344    20073775.556    20073776.639
  20073775.949          52.500          48.500
 111867075.922 8  87169151.06746  21287593.819    21287591.559    21287594.838
                        48.750          39.750
 127986862.607 6  99730037.935 5  24355087.781    24355089.746    24355087.865
  24355089.727          39.250          34.750
                                                                  25309703.362
  25309705.267          21.750          22.500
 126711420.168 6  98736167.877 5  24112385.259    24112388.790    24112385.634
  24112389.227          40.500          35.000
 114085888.492 8  88898099.706 7  21709819.217    21709818.807    21709819.699
  21709819.087          49.750          42.000
 124689690.018 6  97160802.997 6  23727659.466    23727662.832    23727660.293
  23727663.252          39.000          36.250
 19  9 29 16 17 30.0000000  0  9G13G12G05G02G15G09G06G29G25
 118519596.832 7  92352934.32544  22553523.440    22553523.720    22553523.918
                        44.500          27.000
 128558594.244 6 100175508.577 5  24463891.755    24463892.212    24463892.081
  24463892.873          37.500          34.750
 105497296.004 8  82205693.849 8  20075461.841    20075460.906    20075462.136
  20075461.392          52.250          48.500
 111890037.343 8  87187043.08046  21291963.574    21291961.005    21291964.593
                        48.500          39.500
 127867968.109 6  99637392.949 5  24332463.967    24332464.467    24332464.056
  24332464.611          39.500          34.500
                                                                  25327757.641
  25327712.844          22.250          20.000
 126790529.562 6  98797811.549 5  24127439.456    24127442.793    24127439.840
  24127443.658          40.500          35.500
 114014692.549 8  88842622.353 7  21696271.229    21696270.595    21696271.707
  21696271.148          49.750          42.000
 124756347.423 6  97212743.792 6  23740343.783    23740347.416    23740344.574
  23740348.245          38.250          38.000
 19  9 29 16 18  0.0000000  0  9G13G12G05G02G15G09G06G29G25
 118422468.548 7  92277249.96644  22535040.912    22535040.433    22535041.385
                        44.750          27.250
 128656618.965 6 100251891.400 5  24482545.276    24482545.402    24482545.606
  24482546.477          38.000          34.750
 105506572.271 8  82212922.107 8  20077226.986    20077226.173    20077227.276
  20077226.619          52.500          48.750
 111913236.983 8  87205120.71146  21296378.203    21296375.816    21296379.222
                        48.750          40.000
 127749098.762 6  99544767.559 5  24309843.161    24309844.022    24309843.295
  24309844.074          39.750          34.750
                                                                  25345781.397
  25345779.299          21.250          19.500
 126869759.027 6  98859548.746 6  24142516.525    24142520.488    24142516.905
  24142521.201          41.000          36.250
 113943906.211 8  88787464.179 7  21682800.943    21682800.454    21682801.421
  21682800.857          50.000          42.500
 124823320.251 6  97264930.347 6  23753088.353    23753091.952    23753089.117
  23753092.652          38.750          37.750
 19  9 29 16 18 30.0000000  0  8G13G12G05G02G15G06G29G25
 118325600.976 7  92201768.76544  22516606.813    22516607.283    22516607.309
                        44.250          27.250
 128754633.132 6 100328266.009 6  24501196.790    24501197.300    24501197.138
  24501197.713          38.250          36.250
 105516267.412 8  82220476.761 8  20079071.853    20079071.182    20079072.134
  20079071.612          52.000          48.750
 111936675.876 8  87223384.76946  21300838.671    21300836.085    21300839.690
                        48.250          40.000
 127630257.158 6  99452163.830 5  24287228.566    24287229.024    24287228.726
  24287229.308          38.750          33.750
 126949108.380 6  98921379.348 5  24157615.937    24157620.204    24157616.308
  24157619.958          40.250          34.250
 113873532.270 8  88732627.343 7  21669409.118    21669408.803    21669409.614
  21669408.801          49.500          42.500
 124890605.406 6  97317360.302 6  23765892.583    23765896.166    23765893.334
  23765896.597          39.000          38.000
 19  9 29 16 19  0.0000000  0  8G13G12G05G02G15G06G29G25
 118228997.452 7  92126493.32044  22498224.110    22498224.241    22498224.619
                        43.750          26.750
 128852633.496 6 100404629.835 6  24519845.224    24519846.850    24519845.586
  24519846.466          37.750          36.750
 105526380.046 8  82228356.728 8  20080996.220    20080995.536    20080996.501
  20080995.918          52.000          48.500
 111960354.568 8  87241835.68646  21305344.344    21305342.027    21305345.363
                        48.500          40.000
 127511445.764 6  99359583.653 5  24264619.511    24264619.423    24264619.600
  24264619.634          38.500          33.500
 127028577.503 6  98983303.272 5  24172738.535    24172741.229    24172738.910
  24172742.704          40.000          33.750
 113803572.879 8  88678113.546 7  21656096.516    21656096.005    21656096.998
  21656096.347          49.500          42.500
 124958199.917 6  97370031.326 6  23778755.636    23778758.900    23778756.387
  23778759.921          39.250          37.500
 19  9 29 16 19 30.0000000  0  8G13G12G05G02G15G06G29G25
 118132661.315 7  92051426.20544  22479892.442    22479891.653    22479892.951
                        45.500          28.000
 128950617.241 6 100480980.734 6  24538491.201    24538491.992    24538491.558
  24538492.622          40.250          37.000
 105536908.989 8  82236561.101 8  20082999.897    20082999.042    20083000.169
  20082999.581          52.250          48.500
 111984273.666 8  87260473.93646  21309896.136    21309893.719    21309897.155
                        48.750          40.000
 127392667.355 6  99267029.159 5  24242017.266    24242016.046    24242017.301
  24242016.925          38.500          33.500
 127108166.170 6  99045320.381 5  24187884.157    24187887.129    24187884.546
  24187887.247          40.000          34.500
 113734030.969 8  88623925.054 7  21642863.128    21642862.537    21642863.619
  21642862.892          49.750          42.250
 125026100.799 6  97422941.072 6  23791676.891    23791680.172    23791677.673
  23791680.710          38.000          37.750
 19  9 29 16 20  0.0000000  0  8G13G12G05G02G15G06G29G25
 118036595.252 7  91976569.55444  22461611.428    22461611.343    22461611.919
                        44.750          28.000
 129048581.397 6 100557316.345 6  24557133.661    24557134.732    24557134.045
  24557135.085          40.250          37.000
 105547852.792 8  82245088.736 8  20085082.396    20085081.598    20085082.668
  20085082.035          52.250          48.500
 112008433.846 8  87279300.03646  21314493.723    21314491.294    21314494.738
                        48.750          40.000
 127273924.457 6  99174502.305 5  24219420.304    24219419.734    24219420.375
  24219420.966          40.000          34.250
 127187874.243 6  99107430.542 5  24203052.370    24203056.294    24203052.750
  24203055.921          40.250          35.750
 113664908.923 8  88570063.729 7  21629709.652    21629709.032    21629710.139
  21629709.628          50.000          42.500
 125094305.022 6  97476087.157 6  23804655.215    23804658.726    23804656.006
  23804659.450          39.000          37.000
 19  9 29 16 20 30.0000000  0  8G13G12G05G02G15G06G29G25
 117940802.577 7  91901925.93244  22443382.380    22443382.532    22443382.867
                        44.250          27.000
 129146522.812 6 100633634.263 6  24575770.445    24575771.882    24575770.842
  24575772.539          41.000          36.500
 105559210.241 8  82253938.690 8  20087243.686    20087242.970    20087243.958
  20087243.238          52.250          48.500
 112032835.910 8  87298314.62046  21319137.087    21319134.792    21319138.106
                        48.750          40.000
 127155220.352 6  99082005.742 5  24196831.365    24196831.632    24196831.490
  24196832.576          39.000          34.750
 127267701.521 6  99169633.550 5  24218242.017    24218247.161    24218242.379
  24218246.239          39.500          34.000
 113596209.498 8  88516531.708 7  21616636.462    21616635.948    21616636.944
  21616636.531          49.750          42.500
 125162809.595 6  97529467.319 6  23817691.291    23817695.048    23817692.078
  23817695.772          39.750          38.250
 19  9 29 16 21  0.0000000  0  8G13G12G05G02G15G06G29G25
 117845286.105 7  91827497.51944  22425205.864    22425206.026    22425206.369
                        44.500          26.750
 129244438.752 7 100709932.320 6  24594403.333    24594404.825    24594403.708
  24594405.084          42.500          36.250
 105570980.205 8  82263110.084 8  20089483.316    20089482.721    20089483.584
  20089483.098          52.500          48.500
 112057480.188 8  87317517.94646  21323826.775    21323824.505    21323827.794
                        48.500          40.000
 127036556.789 6  98989540.733 5  24174250.111    24174251.204    24174250.285
  24174251.690          38.250          34.500
 127347647.848 6  99231929.352 5  24233455.375    24233459.312    24233455.746
  24233460.243          40.250          34.500
 113527934.844 8  88463330.692 7  21603644.190    21603643.716    21603644.677
  21603644.016          50.000          42.500
 125231611.445 6  97583079.060 6  23830783.411    23830788.058    23830784.193
  23830788.188          38.500          38.000
 19  9 29 16 21 30.0000000  0  8G13G12G05G02G15G06G29G25
 117750049.166 7  91753286.94244  22407083.094    22407082.946    22407083.594
                        44.000          27.500
 129342326.242 6 100786208.211 6  24613031.250    24613031.758    24613031.603
  24613032.055          41.750          36.000
 105583161.457 8  82272601.958 8  20091801.407    20091800.712    20091801.679
  20091800.961          52.500          48.500
 112082367.653 8  87336910.76846  21328562.937    21328560.279    21328563.956
                        48.500          39.500
 126917936.771 6  98897109.632 5  24151678.174    24151678.833    24151678.339
  24151678.519          37.250          34.500
 127427713.092 6  99294317.787 5  24248692.089    24248694.873    24248692.455
  24248696.564          38.000          34.000
 113460087.750 8  88410462.838 7  21590733.440    21590732.912    21590733.931
  21590733.390          49.250          42.750
 125300707.557 6  97636920.129 6  23843932.353    23843936.582    23843933.153
  23843936.958          38.000          36.750
 19  9 29 16 22  0.0000000  0  8G13G12G05G02G15G06G29G25
 117655094.846 7  91679296.61044  22389014.278    22389014.246    22389014.756
                        45.000          28.500
 129440182.245 7 100862459.577 6  24631653.769    24631653.414    24631654.158
  24631654.011          42.000          36.000
 105595752.855 8  82282413.425 8  20094197.495    20094196.777    20094197.767
  20094197.124          52.500          48.500
 112107498.741 8  87356493.43046  21333345.281    21333342.626    21333346.296
                        49.000          40.250
 126799363.008 6  98804714.593 5  24129114.573    24129114.628    24129114.698
  24129115.165          37.250          35.000
 127507896.996 6  99356798.726 5  24263950.036    24263954.548    24263950.416
  24263955.479          38.750          35.000
 113392670.834 8  88357930.165 7  21577904.294    21577903.912    21577904.781
  21577904.210          50.000          42.750
 125370094.896 6  97690988.165 6  23857136.539    23857140.170    23857137.299
  23857141.024          39.250          38.000
 19  9 29 16 22 30.0000000  0  8G13G12G05G02G15G06G29G25
 117560426.402 7  91605529.01444  22370999.511    22370999.309    22370999.984
                        44.750          28.000
 129538004.139 7 100938684.368 5  24650268.338    24650268.305    24650268.704
  24650268.802          43.000          35.250
 105608752.800 8  82292543.252 8  20096671.206    20096670.648    20096671.478
  20096670.942          52.500          48.500
 112132874.126 8  87376266.45346  21338173.839    21338171.464    21338174.854
                        48.500          39.750
 126680838.460 6  98712357.837 5  24106558.957    24106560.010    24106559.091
  24106560.747          39.000          34.500
 127588199.405 6  99419371.960 5  24279231.327    24279236.412    24279231.733
  24279236.390          38.750          34.750
 113325686.536 8  88305734.618 7  21565157.688    21565157.181    21565158.175
  21565157.425          50.000          42.500
 125439770.460 6  97745280.764 6  23870395.722    23870398.934    23870396.495
  23870400.103          38.750          37.750
 19  9 29 16 23  0.0000000  0  8G13G12G05G02G15G06G29G25
 117466046.719 7  91531986.42444  22353039.620    22353038.898    22353040.080
                        45.000          27.500
 129635788.212 7 101014879.658 5  24668875.642    24668876.381    24668875.986
  24668876.548          42.000          35.250
 105622160.122 8  82302990.507 8  20099222.752    20099221.919    20099223.024
  20099222.338          52.250          48.250
 112158494.486 8  87396230.36846  21343049.303    21343046.785    21343050.322
                        48.500          39.750
 126562365.242 6  98620041.112 5  24084014.358    24084015.287    24084014.501
  24084015.414          40.250          34.750
 127668620.099 6  99482037.383 5  24294534.418    24294538.882    24294534.789
  24294539.941          40.250          32.500
 113259137.492 8  88253878.215 7  21552493.846    21552493.317    21552494.337
  21552493.676          49.750          42.500
 125509731.160 6  97799795.572 6  23883709.106    23883711.875    23883709.825
  23883712.803          39.000          36.500
 19  9 29 16 23 30.0000000  0  8G13G12G05G02G15G06G29G25
 117371959.134 7  91458671.45844  22335135.045    22335134.866    22335135.514
                        44.750          28.000
 129733532.100 7 101091043.656 5  24687475.516    24687476.721    24687475.878
  24687477.495          43.000          35.500
 105635973.857 8  82313754.443 8  20101851.289    20101850.563    20101851.561
  20101850.946          52.250          48.500
 112184360.514 8  87416385.70746  21347971.446    21347969.008    21347972.461
                        48.500          39.750
 126443946.334 6  98527766.677 5  24061479.515    24061480.559    24061479.765
  24061481.325          41.000          33.000
 127749158.882 6  99544794.898 5  24309860.529    24309864.398    24309860.909
  24309865.537          39.500          32.000
 113193025.962 8  88202362.749 7  21539913.176    21539912.671    21539913.663
  21539913.182          49.750          42.500
 125579973.946 6  97854530.144 6  23897075.224    23897078.798    23897075.984
  23897079.486          37.750          37.500
 19  9 29 16 24  0.0000000  0  8G13G12G05G02G15G06G29G25
 117278166.398 7  91385586.24744  22317286.776    22317286.769    22317287.236
                        45.750          28.500
 129831232.787 7 101167173.995 5  24706067.239    24706067.711    24706067.641
  24706069.115          42.750          34.250
 105650192.564 8  82324833.952 8  20104556.959    20104556.306    20104557.231
  20104556.625          52.500          48.250
 112210472.706 8  87436732.85846  21352940.413    21352937.934    21352941.419
                        48.500          39.500
 126325584.519 6  98435536.716 5  24038956.798    24038956.638    24038957.075
  24038957.103          40.750          33.000
 127829815.578 6  99607644.221 5  24325209.961    24325212.992    24325210.385
  24325214.357          39.000          33.500
 113127354.372 8  88151190.076 7  21527416.333    21527415.801    21527416.820
  21527416.182          50.250          42.500
 125650495.765 6  97909482.160 6  23910495.818    23910498.661    23910496.573
  23910499.790          39.000          36.750
 19  9 29 16 24 30.0000000  0  8G13G12G05G02G15G06G29G25
 117184672.149 7  91312733.63044  22299495.434    22299495.288    22299495.899
                        44.500          28.250
 129928887.404 6 101243268.420 5  24724650.756    24724651.787    24724651.136
  24724652.381          41.500          35.500
 105664814.405 8  82336227.583 8  20107339.481    20107338.778    20107339.753
  20107339.117          52.500          48.250
 112236831.870 8  87457272.45746  21357956.330    21357954.021    21357957.345
                        48.500          39.750
 126207282.203 6  98343353.106 5  24016444.413    24016444.312    24016444.708
  24016446.521          41.000          34.000
 127910590.034 6  99670585.330 5  24340579.591    24340583.855    24340580.073
  24340585.393          38.000          33.750
 113062125.172 8  88100362.133 7  21515003.577    21515003.140    21515004.068
  21515003.262          50.000          42.750
 125721293.556 6  97964649.205 6  23923967.822    23923971.592    23923968.559
  23923971.440          39.000          37.500
 19  9 29 16 25  0.0000000  0  8G13G12G05G02G15G06G29G25
 117091478.958 7  91240115.60344  22281761.149    22281761.391    22281761.609
                        45.000          28.500
 130026493.028 7 101319324.686 5  24743224.771    24743225.812    24743225.142
  24743225.672          42.250          34.250
 105679838.671 8  82347934.792 8  20110198.425    20110197.826    20110198.702
  20110198.291          52.500          48.250
 112263438.674 8  87478005.01646  21363019.672    21363017.119    21363020.691
                        48.500          39.750
 126089042.219 6  98251218.074 5  23993943.663    23993944.637    23993943.953
  23993944.496          41.250          34.250
 127991482.020 6  99733618.000 5  24355973.262    24355977.442    24355973.655
  24355978.633          37.750          34.000
 112997341.290 8  88049881.186 7  21502675.750    21502675.190    21502676.232
  21502675.321          50.000          42.750
 125792364.195 6  98020028.901 6  23937491.953    23937495.049    23937492.699
  23937496.127          39.250          36.500
 19  9 29 16 25 30.0000000  0  8G13G12G05G02G15G06G29G25
 116998590.112 7  91167734.72844  22264084.971    22264084.996    22264085.427
                        44.750          28.500
 130124046.890 6 101395340.583 5  24761788.405    24761788.653    24761788.843
  24761790.208          40.500          33.500
 105695264.080 8  82359954.586 8  20113133.927    20113133.142    20113134.204
  20113133.713          52.250          48.500
 112290293.346 8  87498930.72346  21368129.848    21368127.414    21368130.867
                        48.500          39.500
 125970867.427 6  98159133.828 5  23971455.558    23971456.516    23971455.835
  23971457.694          41.750          33.750
 128072491.331 6  99796742.102 5  24371388.834    24371393.991    24371389.276
  24371394.767          36.500          35.750
 112933004.720 8  87999748.802 7  21490432.833    21490432.339    21490433.324
  21490432.819          49.750          42.750
 125863704.709 6  98075618.846 6  23951067.454    23951070.971    23951068.241
  23951071.796          38.750          38.000
 19  9 29 16 26  0.0000000  0  8G13G12G05G02G15G06G29G25
 116906008.487 7  91095593.24944  22246467.400    22246467.375    22246467.851
                        45.250          29.000
 130221545.864 6 101471313.701 5  24780341.866    24780342.372    24780342.313
  24780344.543          41.000          34.000
 105711089.661 8  82372286.196 8  20116145.315    20116144.641    20116145.592
  20116145.177          52.000          48.500
 112317396.939 8  87520050.39146  21373287.578    21373285.077    21373288.593
                        48.750          39.500
 125852760.355 6  98067102.397 5  23948980.846    23948981.623    23948981.163
  23948982.721          41.000          34.500
 128153617.775 6  99859957.413 5  24386827.331    24386832.206    24386827.791
  24386832.001          36.750          35.500
 112869118.229 8  87949967.129 7  21478275.511    21478275.241    21478275.989
  21478275.630          50.000          43.250
 125935311.924 6  98131416.604 6  23964693.911    23964697.534    23964694.680
  23964698.938          38.500          36.250
 19  9 29 16 26 30.0000000  0  8G13G12G05G02G15G06G29G25
 116813737.182 7  91023693.58944  22228908.515    22228908.414    22228908.975
                        44.500          28.500
 130318987.245 6 101547241.960 5  24798884.601    24798885.824    24798885.057
  24798885.524          40.500          34.000
 105727313.421 8  82384928.092 8  20119232.630    20119231.970    20119232.902
  20119232.410          52.250          48.500
 112344749.776 8  87541364.28146  21378492.546    21378489.992    21378493.565
                        48.250          39.500
 125734723.602 6  97975125.712 5  23926519.215    23926519.464    23926519.559
  23926520.351          40.750          33.500
 128234861.057 6  99923263.842 5  24402286.640    24402291.124    24402287.105
  24402291.598          38.250          34.750
 112805684.079 8  87900537.926 7  21466204.496    21466203.935    21466204.974
  21466204.188          50.000          42.750
 126007182.826 6  98187419.840 6  23978370.787    23978375.052    23978371.551
  23978375.539          39.250          37.250
 19  9 29 16 27  0.0000000  0  8G13G12G05G02G15G06G29G25
 116721779.266 7  90952038.12144  22211409.622    22211409.340    22211410.082
                        45.750          29.250
 130416368.382 6 101623123.303 5  24817415.410    24817416.465    24817415.906
  24817416.486          40.000          31.250
 105743934.075 8  82397879.236 8  20122395.586    20122394.803    20122395.854
  20122395.234          52.000          48.500
 112372352.547 8  87562872.92446  21383745.145    21383742.830    21383746.155
                        48.500          39.500
 125616760.272 6  97883206.236 5  23904071.468    23904071.771    23904071.807
  23904072.097          41.000          34.000
 128316221.019 6  99986661.173 5  24417769.414    24417772.690    24417769.874
  24417774.792          36.750          35.000
 112742704.954 8  87851463.304 7  21454219.767    21454219.356    21454220.245
  21454219.596          50.000          43.250
 126079314.303 6  98243626.133 6  23992097.287    23992101.024    23992098.091
  23992102.109          39.500          36.500
 19  9 29 16 27 30.0000000  0  8G13G12G05G02G15G06G29G25
 116630137.856 7  90880629.27644  22193970.678    22193970.795    22193971.129
                        44.500          28.750
 130513685.850 6 101698954.989 5  24835933.626    24835934.871    24835934.193
  24835935.389          40.500          32.000
 105760950.409 8  82411138.715 8  20125633.632    20125632.915    20125633.900
  20125633.357          52.500          48.500
 112400205.996 8  87584576.89146  21389045.335    21389043.245    21389046.350
                        48.500          39.500
 125498872.513 7  97791345.670 5  23881638.252    23881639.072    23881638.582
  23881639.946          42.250          34.250
 128397697.470 6 100050149.228 5  24433273.888    24433277.693    24433274.411
  24433279.225          37.000          35.000
 112680183.153 8  87802745.018 7  21442322.320    21442321.942    21442322.807
  21442322.297          50.250          43.500
 126151703.267 6  98300033.075 6  24005872.111    24005876.242    24005872.911
  24005876.717          39.500          36.250
 19  9 29 16 28  0.0000000  0  8G13G12G05G02G15G06G29G25
 116538816.247 7  90809469.63444  22176592.753    22176592.773    22176593.213
                        45.500          29.000
 130610937.448 6 101774735.430 5  24854440.929    24854441.576    24854441.496
  24854440.766          38.750          30.750
 105778360.938 8  82424705.361 8  20128946.577    20128945.994    20128946.849
  20128946.288          52.500          48.250
 112428310.976 8  87606476.86146  21394393.573    21394391.319    21394394.574
                        48.750          39.250
 125381063.359 7  97699546.362 5  23859220.236    23859220.901    23859220.531
  23859220.672          42.250          33.500
 128479290.169 6 100113727.908 5  24448800.463    24448804.660    24448800.963
  24448805.725          37.500          35.250
 112618121.068 8  87754384.965 7  21430512.467    21430512.002    21430512.958
  21430512.188          50.250          43.250
 126224346.623 6  98356638.238 6  24019696.194    24019700.053    24019697.003
  24019700.355          38.500          36.250
 19  9 29 16 28 30.0000000  0  8G13G12G05G02G15G06G29G25
 116447817.117 7  90738561.26544  22159276.293    22159276.012    22159276.744
                        46.000          29.500
 130708119.777 6 101850461.815 5  24872934.375    24872934.798    24872934.947
  24872935.001          37.750          30.250
 105796164.753 8  82438578.455 8  20132334.652    20132333.981    20132334.920
  20132334.467          52.500          48.000
 112456667.850 8  87628573.10946  21399789.983    21399787.446    21399790.989
                        48.250          39.250
 125263335.322 7  97607810.234 5  23836816.984    23836818.420    23836817.265
  23836818.141          42.250          34.250
 128560998.881 6 100177396.988 6  24464350.123    24464353.967    24464350.628
  24464354.090          36.250          36.000
 112556521.233 8  87706385.105 7  21418790.433    21418789.774    21418790.924
  21418790.195          50.000          42.750
 126297241.330 6  98413439.267 6  24033567.150    24033570.771    24033567.959
  24033571.871          38.500          36.000
 19  9 29 16 29  0.0000000  0  8G13G12G05G02G15G06G29G25
 116357143.622 7  90667906.64044  22142021.751    22142021.300    22142022.198
                        45.750          29.750
 130805230.125 6 101926132.144 5  24891413.449    24891414.512    24891413.972
  24891415.607          38.750          31.250
 105814360.419 8  82452756.889 8  20135797.118    20135796.528    20135797.390
  20135797.058          52.500          48.500
 112485277.066 8  87650865.98446  21405234.085    21405231.753    21405235.086
                        48.500          39.250
 125145691.446 7  97516139.700 5  23814430.264    23814431.685    23814430.532
  23814431.039          42.250          35.250
 128642823.359 6 100241156.272 5  24479919.490    24479923.880    24479919.999
  24479924.436          37.500          34.750
 112495385.668 8  87658747.000 7  21407156.691    21407156.020    21407157.178
  21407156.518          50.000          43.000
 126370384.214 6  98470433.639 5  24047486.202    24047489.582    24047487.011
  24047489.624          39.000          35.250
 19  9 29 16 29 30.0000000  0  8G13G12G05G02G15G06G29G25
 116266798.852 7  90597508.16345  22124829.745    22124829.288    22124830.196
                        45.750          30.000
 130902265.659 6 102001744.178 5  24909879.367    24909880.233    24909879.809
  24909881.125          38.000          31.000
 105832946.272 8  82467239.369 8  20139333.996    20139333.345    20139334.273
  20139333.665          52.250          48.500
 112514138.923 8  87673355.72446  21410726.407    21410723.966    21410727.408
                        48.500          39.250
 125028134.491 7  97424536.911 5  23792059.976    23792060.582    23792060.226
  23792061.613          42.750          35.000
 128724763.459 6 100305005.638 6  24495512.398    24495516.718    24495512.907
  24495518.526          37.250          36.000
 112434717.314 8  87611472.963 7  21395611.698    21395611.355    21395612.185
  21395611.671          50.250          43.250
 126443772.202 6  98527619.073 5  24061451.298    24061455.188    24061452.125
  24061456.153          38.500          35.250
                            4  1
RINEX FILE SPLICE; other post-header comments skipped       COMMENT
 19  9 29 16 30  0.0000000  0  8G13G12G05G02G15G06G29G25
 116176785.662 7  90527368.06545  22107700.668    22107700.318    22107701.128
                        46.000          30.250
 130999223.538 6 102077295.633 4  24928329.303    24928330.863    24928329.700
  24928331.798          38.000          29.000
 105851921.219 8  82482025.039 8  20142944.776    20142944.095    20142945.048
  20142944.602          52.000          48.000
 112543254.918 8  87696043.49346  21416266.837    21416264.534    21416267.843
                        48.250          39.500
 124910666.461 7  97333003.416 5  23769706.562    23769707.155    23769706.807
  23769707.964          43.000          35.000
 128806818.851 6 100368944.826 5  24511126.875    24511131.508    24511127.433
  24511132.002          36.250          35.000
 112374518.252 8  87564564.600 7  21384156.221    21384155.886    21384156.703
  21384156.296          50.000          43.000
 126517402.213 6  98584993.034 6  24075461.927    24075466.534    24075462.772
  24075467.314          38.000          37.250
 19  9 29 16 30 30.0000000  0  8G13G12G05G02G15G06G29G25
 116087107.640 7  90457489.11045  22090635.354    22090635.211    22090635.810
                        45.750          30.500
 131096101.287 6 102152784.709 5  24946765.491    24946766.384    24946765.884
  24946767.984          37.250          30.000
 105871283.447 8  82497112.489 8  20146629.318    20146628.569    20146629.590
  20146628.927          52.250          48.250
 112572625.211 8  87718929.41646  21421855.907    21421853.669    21421856.904
                        48.500          39.250
 124793290.515 7  97241541.694 5  23747370.488    23747371.302    23747370.751
  23747370.935          43.250          35.500
 128888989.343 6 100432973.737 5  24526763.969    24526768.195    24526764.559
  24526768.132          36.750          34.750
 112314790.850 8  87518023.776 7  21372790.633    21372790.018    21372791.102
  21372790.293          50.000          43.000
 126591271.114 6  98642553.158 6  24089519.977    24089523.169    24089520.786
  24089523.886          39.250          36.000
 19  9 29 16 31  0.0000000  0  8G13G12G05G02G15G06G29G25
 115997767.228 7  90387873.25245  22073634.366    22073634.339    22073634.831
                        45.500          30.250
 131192895.794 5 102228208.909 4  24965184.797    24965186.030    24965185.110
  24965185.844          35.500          29.500
 105891031.894 8  82512500.884 8  20150387.405    20150386.597    20150387.677
  20150386.904          52.000          48.250
 112602250.577 8  87742014.09946  21427493.404    21427491.048    21427494.396
                        48.250          39.250
 124676009.502 7  97150153.907 5  23725052.303    23725052.768    23725052.566
  23725053.521          44.250          35.000
 128971274.637 5 100497092.088 5  24542422.699    24542426.632    24542423.226
  24542426.910          35.250          35.250
 112255537.594 8  87471852.408 7  21361514.972    21361514.482    21361515.441
  21361514.559          50.000          43.000
 126665375.773 6  98700297.007 5  24103620.187    24103624.834    24103621.032
  24103626.087          38.750          35.000
 19  9 29 16 31 30.0000000  0  8G13G12G05G02G15G06G29G25
 115908767.389 7  90318522.77245  22056698.050    22056698.038    22056698.515
                        46.250          30.500
 131289604.460 6 102303566.239 4  24983587.782    24983589.006    24983588.077
  24983590.154          36.500          27.500
 105911165.215 8  82528189.181 8  20154218.612    20154217.839    20154218.884
  20154218.278          52.250          48.250
 112632131.329 8  87765297.78446  21433179.572    21433177.168    21433180.573
                        48.250          39.250
 124558826.316 7  97058842.389 5  23702753.102    23702753.757    23702753.352
  23702754.257          44.500          34.750
 129053674.582 5 100561299.755 5  24558101.684    24558107.092    24558102.198
  24558107.517          35.750          35.000
 112196760.790 8  87426052.299 7  21350330.068    21350329.698    21350330.537
  21350330.045          50.250          43.250
 126739713.123 6  98758222.151 6  24117767.290    24117770.892    24117768.126
  24117771.804          37.500          36.000
 19  9 29 16 32  0.0000000  0  8G13G12G05G02G15G06G29G25
 115820111.376 7  90249440.19945  22039827.611    22039827.335    22039828.089
                        46.250          30.500
 131386224.215 5 102378854.181 5  25001973.039    25001975.241    25001973.325
  25001975.346          34.750          30.000
 105931682.036 8  82544176.314 8  20158122.786    20158122.111    20158123.063
  20158122.363          52.250          48.250
 112662267.974 8  87788780.86146  21438914.725    21438912.028    21438915.722
                        48.500          39.250
 124441743.135 7  96967608.795 5  23680473.232    23680473.937    23680473.491
  23680473.679          43.750          35.500
 129136188.845 6 100625596.527 5  24573804.801    24573809.056    24573805.346
  24573809.794          37.000          33.250
 112138462.845 8  87380625.331 7  21339236.567    21339235.978    21339237.040
  21339236.170          50.500          43.250
 126814280.056 6  98816326.184 5  24131955.995    24131960.419    24131956.844
  24131961.537          37.000          35.250
 19  9 29 16 32 30.0000000  0  8G13G12G05G02G15G06G29G25
 115731802.009 7  90180627.73345  22023023.014    22023022.516    22023023.483
                        46.250          31.000
 131482752.802 6 102454071.123 4  25020342.919    25020344.134    25020343.111
  25020343.900          36.250          26.750
 105952580.990 8  82560461.201 8  20162099.709    20162099.109    20162099.981
  20162099.446          52.000          48.000
 112692661.423 8  87812464.05146  21444698.134    21444695.777    21444699.135
                        48.250          39.250
 124324763.120 7  96876455.615 5  23658212.304    23658212.819    23658212.599
  23658212.658          43.750          34.750
 129218817.264 5 100689982.234 5  24589527.832    24589532.663    24589528.337
  24589533.307          35.750          32.500
 112080646.125 8  87335573.358 7  21328234.302    21328233.855    21328234.780
  21328233.979          50.000          43.250
 126889073.354 6  98874606.663 5  24146189.633    24146193.384    24146190.442
  24146194.966          37.750          34.500
 19  9 29 16 33  0.0000000  0  8G13G12G05G02G15G06G29G25
 115643842.421 7  90112087.82445  22006284.636    22006284.589    22006285.114
                        47.000          31.750
 131579187.063 5 102529214.670 4  25038693.936    25038695.221    25038694.168
  25038695.165          34.000          26.250
 105973860.635 8  82577042.734 7  20166149.290    20166148.445    20166149.562
  20166148.951          51.750          47.750
 112723312.251 8  87836347.79646  21450530.658    21450528.351    21450531.650
                        48.250          39.500
 124207888.813 7  96785384.773 5  23635971.390    23635972.251    23635971.720
  23635973.151          43.500          35.250
 129301559.511 5 100754456.667 5  24605274.553    24605277.930    24605275.009
  24605279.075          34.000          30.750
 112023312.759 8  87290898.008 7  21317324.016    21317323.561    21317324.494
  21317323.788          50.250          43.500
 126964090.020 6  98933061.151 5  24160464.032    24160468.940    24160464.783
  24160469.367          36.750          34.500
 19  9 29 16 33 30.0000000  0  8G13G12G05G02G15G06G29G25
 115556235.553 7  90043822.74945  21989613.515    21989613.330    21989613.988
                        46.750          31.250
 131675524.117 5 102604282.372 4  25057024.711    25057027.778    25057025.256
  25057026.093          34.000          24.750
 105995519.685 8  82593919.909 8  20170270.843    20170270.002    20170271.111
  20170270.465          52.250          48.250
 112754221.012 8  87860432.52246  21456412.825    21456410.350    21456413.817
                        48.250          39.250
 124091122.933 7  96694398.421 5  23613751.916    23613752.401    23613752.255
  23613752.890          43.500          35.750
 129384415.310 5 100819019.633 5  24621039.884    24621044.921    24621040.295
  24621044.846          33.500          30.000
 111966465.082 8  87246601.118 7  21306506.246    21306505.883    21306506.711
  21306506.114          50.250          43.500
 127039326.860 6  98991687.212 5  24174782.443    24174786.074    24174783.180
  24174787.268          37.000          34.750
 19  9 29 16 34  0.0000000  0  8G13G12G05G02G15G06G29G25
 115468984.306 7  89975834.78245  21973010.165    21973009.824    21973010.647
                        46.500          31.500
 131771761.219 5 102679264.2374   25075339.032    25075340.942    25075339.559
                        32.500           2.500
 106017556.756 8  82611091.645 8  20174464.167    20174463.575    20174464.435
  20174464.066          52.250          48.250
 112785388.279 8  87884718.69246  21462343.549    21462341.122    21462344.541
                        48.500          39.250
 123974468.385 7  96603498.805 6  23591553.260    23591554.234    23591553.581
  23591554.245          43.750          36.500
 129467384.513 5 100883670.868 5  24636830.064    24636833.406    24636830.448
  24636834.245          34.000          32.000
 111910105.319 8  87202684.436 7  21295781.229    21295780.866    21295781.698
  21295781.410          50.250          43.500
 127114780.747 6  99050482.390 5  24189140.627    24189144.418    24189141.369
  24189145.143          36.250          33.250
 19  9 29 16 34 30.0000000  0  8G13G12G05G02G15G06G29G25
 115382091.891 7  89908126.43145  21956475.058    21956474.926    21956475.549
                        46.500          31.500
 131867895.866 5                                                  25093635.316
  25093638.790          30.000          23.500
 106039970.547 8  82628556.924 8  20178729.471    20178728.814    20178729.739
  20178729.062          52.000          48.000
 112816814.558 8  87909206.69046  21468323.680    21468321.416    21468324.677
                        48.750          39.250
 123857927.869 7  96512688.063 6  23569376.482    23569377.338    23569376.808
  23569377.471          44.000          37.000
 129550466.726 5 100948410.196 5  24652638.675    24652643.481    24652639.046
  24652644.404          33.000          31.500
 111854235.783 8  87159149.718 7  21285149.778    21285149.325    21285150.247
  21285149.594          50.500          43.750
 127190448.547 6  99109444.287 5  24203539.083    24203543.508    24203539.798
  24203544.486          36.250          33.500
 19  9 29 16 35  0.0000000  0  8G13G12G05G02G15G06G29G25
 115295561.128 7  89840699.88145  21940009.027    21940008.811    21940009.509
                        46.500          32.250
 131963925.115 4                                                  25111907.042
  25111907.886          27.500          23.250
 106062758.955 8  82646314.120 8  20183065.969    20183065.314    20183066.237
  20183065.718          52.000          48.000
 112848500.408 8  87933896.94346  21474353.187    21474351.032    21474354.184
                        48.250          39.000
 123741504.271 7  96421968.422 6  23547221.536    23547222.613    23547221.916
  23547223.123          43.750          37.250
 129633661.722 5 101013237.336 5  24668470.682    24668475.148    24668471.039
  24668475.280          31.500          31.500
 111798858.970 8  87115998.974 7  21274611.872    21274611.477    21274612.345
  21274611.799          50.000          43.250
 127266327.190 6  99168570.425 5  24217979.318    24217983.227    24217979.961
  24217984.126          36.500          34.000
 19  9 29 16 35 30.0000000  0  8G13G12G05G02G15G06G29G25
 115209394.887 7  89773557.37545  21923612.143    21923611.859    21923612.616
                        46.500          32.000
 132059846.540 4                                                  25130157.818
  25130160.356          27.250          22.250
 106085920.962 8  82664362.426 8  20187473.662    20187472.907    20187473.930
  20187473.132          51.750          48.000
 112880446.394 8  87958789.90746  21480432.468    21480430.078    21480433.474
                        48.500          39.000
 123625200.043 7  96331341.825 6  23525089.558    23525090.522    23525089.960
  23525089.792          44.000          37.500
 129716969.207 5 101078152.210 5  24684322.964    24684328.133    24684323.250
  24684329.077          30.250          30.500
 111743976.865 8  87073233.684 7  21264168.302    21264167.850    21264168.775
  21264168.295          50.500          43.750
 127342413.501 6  99227858.406 5  24232457.218    24232461.764    24232457.875
  24232461.412          36.750          33.750
 19  9 29 16 36  0.0000000  0  8G13G12G05G02G15G06G29G25
 115123596.235 7  89706701.29045  21907285.152    21907284.668    21907285.630
                        47.250          32.250
                                                                  25148391.608
  25148392.011          25.750          21.500
 106109455.380 8  82682700.932 8  20191952.165    20191951.335    20191952.424
  20191951.560          52.000          48.000
 112912653.404 8  87983886.25246  21486561.384    21486559.040    21486562.390
                        48.500          39.250
 123509018.003 7  96240810.386 6  23502980.846    23502981.537    23502981.261
  23502982.161          43.250          37.000
 129800389.000 5 101143154.487 4  24700199.156    24700202.495    24700199.495
  24700201.901          30.250          29.750
 111689591.780 8  87030855.698 7  21253819.030    21253818.557    21253819.503
  21253818.984          50.500          43.500
 127418704.337 6  99287305.790 5  24246974.985    24246979.160    24246975.673
  24246978.344          36.000          32.500
 19  9 29 16 36 30.0000000  0  8G13G12G05G02G15G06G29G25
 115038167.929 7  89640133.79745  21891028.634    21891028.505    21891029.112
                        47.500          33.000
 132251421.933 5                                                  25166605.238
  25166605.354          33.000          24.250
 106133360.737 8  82701328.471 8  20196500.980    20196500.393    20196501.243
  20196500.561          52.000          48.000
 112945121.653 8  88009186.16746  21492739.901    21492737.477    21492740.911
                        48.500          39.250
 123392960.934 7  96150376.362 6  23480896.646    23480896.462    23480897.026
  23480896.738          43.250          37.000
 129883920.717 4 101208244.063 4                                  24716092.574
  24716099.072          28.250          29.750
 111635706.156 8  86988866.911 7  21243565.005    21243564.474    21243565.474
  21243564.748          50.750          43.500
 127495196.595 5  99346910.066 5  24261532.137    24261534.765    24261532.754
  24261535.569          35.500          31.750
 19  9 29 16 37  0.0000000  0  8G13G12G05G02G15G06G29G25
 114953113.078 7  89573857.30145  21874843.175    21874842.904    21874843.657
                        47.250          33.000
 132347003.036 5                                                  25184792.192
  25184793.030          33.250          23.500
 106157635.306 8  82720243.706 7  20201120.280    20201119.633    20201120.548
  20201120.073          52.000          47.750
 112977851.715 8  88034690.09446  21498967.885    21498965.879    21498968.900
                        48.750          39.250
 123277031.663 7  96060041.930 6  23458835.253    23458835.971    23458835.615
  23458836.374          44.750          37.000
 129967564.060 5 101273420.605 5  24732011.102    24732016.006    24732011.343
  24732016.725          30.250          31.000
 111582322.200 8  86947269.024 7  21233406.456    21233405.891    21233406.929
  21233406.255          50.250          44.000
 127571887.121 5  99406668.890 5  24276125.051    24276128.585    24276125.685
  24276130.086          34.750          32.500
 19  9 29 16 37 30.0000000  0  8G13G12G05G02G15G06G29G25
 114868434.407 7  89507873.93145  21858729.494    21858729.184    21858729.963
                        47.250          33.000
 132442465.300 5                                                  25202958.657
  25202961.072          32.250          26.000
 106182277.817 8  82739445.655 7  20205809.712    20205808.961    20205809.984
  20205809.472          52.000          47.750
 113010844.187 8  88060398.49146  21505246.484    21505244.087    21505247.503
                        48.750          39.000
 123161232.879 7  95969809.166 6  23436799.139    23436800.262    23436799.505
  23436800.272          44.500          37.500
 130051318.828 4 101338683.926 5  24747950.662    24747954.376    24747950.582
  24747952.175          28.500          30.250
 111529441.758 8  86906063.499 7  21223343.403    21223343.050    21223343.863
  21223343.425          50.500          43.750
 127648772.841 5  99466579.763 5  24290755.534    24290759.265    24290756.227
  24290759.867          34.750          30.750
 19  9 29 16 38  0.0000000  0  8G13G12G05G02G15G06G29G25
 114784135.013 7  89442186.10745  21842687.635    21842687.667    21842688.104
                        47.250          33.000
 132537805.994 5                                                  25221101.624
  25221103.875          30.750          25.250
 106207287.181 8  82758933.464 8  20210568.787    20210568.087    20210569.055
  20210568.332          52.000          48.000
 113044099.844 8  88086311.97146  21511574.594    21511572.448    21511575.609
                        48.500          39.000
 123045567.326 7  95879680.210 6  23414789.042    23414790.118    23414789.377
  23414790.045          43.750          38.250
                 101404033.896 5                                  24763907.905
  24763912.102          30.250          30.250
 111477067.354 8  86865252.275 7  21213376.947    21213376.389    21213377.407
  21213376.924          51.000          43.500
 127725850.580 5  99526640.237 5  24305423.351    24305426.643    24305424.111
  24305428.120          34.000          31.500
 19  9 29 16 38 30.0000000  0  8G13G12G05G02G15G06G29G25
 114700217.840 7  89376796.11745  21826718.722    21826718.671    21826719.195
                        47.250          33.000
 132633022.632 5                                                  25239220.089
  25239221.262          32.500          22.000
 106232661.483 8  82778705.639 8  20215397.450    20215396.683    20215397.722
  20215397.086          52.000          48.000
 113077618.902 8  88112430.69146  21517953.393    21517950.940    21517954.408
                        48.250          39.000
 122930037.537 7  95789657.071 6  23392804.326    23392805.148    23392804.607
  23392805.496          43.500          38.750
                 101469470.131 5                                  24779890.123
  24779893.361          32.000          31.250
 111425201.120 8  86824837.036 7  21203506.996    21203506.736    21203507.469
  21203506.920          50.250          44.250
 127803117.117 5  99586847.867 5  24320127.886    24320130.035    24320128.704
  24320131.108          33.750          30.000
 19  9 29 16 39  0.0000000  0  8G13G12G05G02G15G06G29G25
 114616685.522 7  89311706.01345  21810823.067    21810822.863    21810823.554
                        47.250          33.000
 132728112.339 5                                                  25257315.328
  25257311.404          31.250          20.000
 106258399.523 8  82798761.247 7  20220295.165    20220294.443    20220295.451
  20220294.997          52.000          47.750
 113111402.181 8  88138755.30546  21524382.036    21524379.814    21524383.046
                        48.500          39.000
 122814646.579 7  95699742.125 6  23370845.941    23370847.049    23370846.231
  23370847.156          44.500          38.250
                 101534992.482 5                                  24795890.054
  24795894.859          32.000          32.500
 111373844.949 8  86784819.241 7  21193734.303    21193734.031    21193734.768
  21193734.359          50.500          44.000
 127880569.448 5  99647200.315 4  24334864.714    24334868.602    24334865.550
  24334869.103          34.250          29.500
 19  9 29 16 39 30.0000000  0  8G13G12G05G02G15G06G29G25
 114533541.119 7  89246918.18145  21795001.233    21795000.961    21795001.711
                        47.250          33.250
 132823072.831 4                                                  25275384.790
  25275386.605          27.000          21.500
 106284499.684 8  82819099.028 7  20225261.873    20225261.136    20225262.168
  20225261.496          51.750          47.750
 113145450.173 8  88165286.17846  21530861.070    21530858.775    21530862.085
                        48.500          39.000
 122699397.234 7  95609937.471 6  23348914.837    23348915.520    23348915.154
  23348916.175          44.500          38.000
                 101600600.658 5                                  24811912.338
  24811918.195          33.000          30.500
 111323001.258 8  86745200.783 7  21184059.050    21184058.782    21184059.519
  21184059.142          50.500          43.750
 127958204.390 5  99707695.048 4  24349638.171    24349642.154    24349638.944
  24349642.825          32.000          29.500
 19  9 29 16 40  0.0000000  0  8G13G12G05G02G15G06G29G25
 114450787.401 7  89182434.77145  21779253.620    21779253.315    21779254.093
                        47.250          33.250
 132917901.320 5                                                  25293429.792
  25293434.338          31.500          26.750
 106310960.686 8  82839717.981 7  20230297.303    20230296.604    20230297.598
  20230296.947          51.250          47.500
 113179763.365 8  88192023.70746  21537390.685    21537388.453    21537391.700
                        48.000          38.750
 122584292.005 7  95520245.147 6  23327011.288    23327011.648    23327011.574
  23327011.652          43.750          38.000
 130471788.983 5 101666294.410 4  24827955.597    24827960.347    24827955.614
  24827960.229          33.000          29.500
 111272672.335 8  86705983.443 7  21174481.787    21174481.322    21174482.247
  21174481.716          50.000          43.500
 128036018.816 5  99768329.586 5  24364445.466    24364449.847    24364446.199
  24364451.326          32.750          30.750
 19  9 29 16 40 30.0000000  0  8G13G12G05G02G15G06G29G25
 114368427.246 7  89118258.03245  21763581.181    21763580.810    21763581.646
                        47.500          33.500
 133012595.016 5                                                  25311450.792
  25311452.329          31.000          26.000
 106337781.112 8  82860617.007 7  20235401.091    20235400.384    20235401.381
  20235400.658          51.750          47.750
 113214342.269 8  88218968.29246  21543971.009    21543968.468    21543972.019
                        48.000          38.750
 122469333.829 7  95430667.400 6  23305135.047    23305135.415    23305135.319
  23305136.086          43.750          38.250
 130556205.685 5 101732073.569 4  24844019.791    24844023.127    24844019.550
  24844023.061          33.250          28.250
 111222860.037 8  86667168.672 7  21165002.938    21165002.520    21165003.407
  21165002.900          50.250          44.000
 128114009.534 5  99829101.541 5  24379287.365    24379291.024    24379288.120
  24379292.958          32.750          30.500
 19  9 29 16 41  0.0000000  0  9G13G12G05G02G15G21G06G29G25
 114286463.581 7  89054390.25345  21747983.902    21747983.562    21747984.362
                        47.000          33.750
 133107151.258 5                                                  25329444.186
  25329447.838          32.750          26.000
 106364959.168 8  82881794.709 7  20240572.835    20240572.156    20240573.130
  20240572.436          51.250          47.500
 113249187.284 8  88246120.23346  21550601.630    21550599.424    21550602.636
                        48.000          39.000
 122354525.590 7  95341206.504 6  23283287.992    23283288.235    23283288.269
  23283288.998          43.750          38.000
 135398333.117 5                                                  25765445.724
                        34.250
 130640731.699 5 101797937.878 5  24860103.220    24860107.598    24860103.291
  24860108.860          31.750          30.000
 111173566.371 8  86628758.026 7  21155622.625    21155622.245    21155623.098
  21155622.346          50.000          44.000
 128192173.536 5  99890008.470 5  24394160.372    24394165.286    24394161.132
  24394167.287          32.750          31.250
 19  9 29 16 41 30.0000000  0  9G13G12G05G02G15G21G06G29G25
 114204899.254 7  88990833.63745  21732462.725    21732462.426    21732463.194
                        47.000          33.250
 133201567.382 4                                                  25347410.127
  25347413.990          29.250          24.750
 106392493.794 8  82903250.251 7  20245812.508    20245811.766    20245812.803
  20245812.086          51.750          47.500
 113284299.180 8  88273480.13446  21557283.300    21557281.029    21557284.310
                        48.250          38.750
 122239869.988 7  95251864.515 6  23261469.721    23261470.312    23261469.989
  23261470.933          43.250          38.500
 135322191.237 5 105445854.02941  25750955.937    25750955.982    25750955.981
                        32.750           7.000
 130725366.560 4 101863887.035 4  24876207.384    24876213.081    24876207.527
  24876214.245          27.500          29.000
 111124793.480 8  86590753.173 7  21146341.373    21146341.075    21146341.842
  21146341.467          50.250          44.000
 128270507.526 5  99951047.853 5  24409067.976    24409071.762    24409068.637
  24409072.296          31.500          31.750
 19  9 29 16 42  0.0000000  0  9G13G12G05G02G15G21G06G29G25
 114123737.154 7  88927590.45845  21717017.779    21717017.974    21717018.244
                        47.500          34.000
 133295840.838 5                                                  25365350.090
  25365351.197          30.750          27.000
 106420383.324 8  82924982.351 7  20251119.612    20251118.929    20251119.902
  20251119.412          51.500          47.750
 113319678.282 8  88301048.25046  21564015.757    21564013.518    21564016.772
                        48.000          38.750
 122125369.521 7  95162643.421 6  23239680.800    23239682.027    23239681.036
  23239682.279          43.000          39.250
 135245991.496 5 105386477.53441  25736456.030    25736455.498    25736456.083
                        33.500           8.250
 130810110.099 4 101929920.848 4  24892334.819    24892338.950    24892335.310
  24892341.381          26.000          27.500
 111076543.441 8  86553155.741 7  21137159.753    21137159.269    21137160.222
  21137159.499          50.250          44.000
 128349008.505 5 100012217.410 5  24424007.746    24424010.125    24424008.385
  24424011.048          34.500          32.750
 19  9 29 16 42 30.0000000  0  9G13G12G05G02G15G21G06G29G25
 114042979.923 7  88864662.75845  21701650.766    21701650.439    21701651.231
                        47.500          34.250
 133389969.032 5                                                  25383260.614
  25383264.195          30.000          24.000
 106448626.197 8  82946989.774 7  20256494.193    20256493.426    20256494.483
  20256494.043          51.750          47.500
 113355325.119 8  88328824.97746  21570799.026    21570796.768    21570800.036
                        48.500          38.500
 122011027.121 7  95073545.507 6  23217922.001    23217923.340    23217922.260
  23217923.011          43.750          38.250
 135169733.940 5 105327056.13041  25721944.852    25721943.629    25721944.981
                        32.750           7.250
                 101996039.013 4
  24908487.682                          28.250
 111028818.712 8  86515967.639 7  21128077.997    21128077.636    21128078.462
  21128078.164          50.500          44.000
 128427673.228 5 100073514.507 5  24438976.311    24438979.565    24438976.941
  24438980.922          34.250          30.250
 19  9 29 16 43  0.0000000  0  9G13G12G05G02G15G21G06G29G25
 113962630.347 7  88802052.70945  21686360.462    21686360.262    21686360.935
                        47.250          34.000
 133483949.684 5                                                  25401148.309
  25401149.290          32.250          23.500
 106477221.112 8  82969271.520 7  20261935.510    20261934.966    20261935.809
  20261935.309          51.500          47.250
 113391240.519 8  88356810.98746  21577633.726    21577631.303    21577634.741
                        48.000          38.750
 121896845.628 7  94984572.973 6  23196193.877    23196194.934    23196194.154
  23196194.792          43.750          38.500
 135093418.785 5 105267589.83841  25707421.126    25707421.338    25707421.371
                        34.500          10.750
                                                                  24924653.695
                        27.500
 110981621.129 8  86479190.300 7  21119096.658    21119096.311    21119097.123
  21119096.627          50.250          44.000
 128506498.599 5 100134936.777 4  24453977.386    24453979.485    24453978.025
  24453980.490          34.250          29.750
 19  9 29 16 43 30.0000000  0  9G13G12G05G02G15G21G06G29G25
 113882691.445 7  88739762.66845  21671148.626    21671148.522    21671149.095
                        47.500          34.500
 133577779.971 5                                                  25419002.347
  25419004.283          33.250          24.250
 106506166.715 8  82991826.528 7  20267443.696    20267443.129    20267444.000
  20267443.541          51.500          47.500
 113427424.904 8  88385006.59846  21584519.278    21584517.079    21584520.288
                        48.250          38.750
 121782827.763 7  94895727.935 6  23174497.240    23174497.888    23174497.521
  23174498.319          44.000          39.000
 135017046.275 6 105208078.78342  25692888.702    25692888.202    25692888.970
                        36.500          14.500
                                                                  24940839.224
  24940846.249          27.500          23.500
 110934952.496 8  86442825.141 7  21110216.027    21110215.508    21110216.487
  21110215.718          50.250          44.250
 128585481.472 5 100196481.858 5  24469006.405    24469009.677    24469007.151
  24469011.065          35.500          31.750
 19  9 29 16 44  0.0000000  0  9G13G12G05G02G15G21G06G29G25
 113803165.991 8  88677794.79545  21656015.057    21656015.210    21656015.526
                        48.250          34.250
 133671457.640 4                                                  25436829.927
  25436834.529          29.500          24.500
 106535461.323 8  83014653.484 7  20273018.245    20273017.632    20273018.540
  20273018.038          51.750          47.500
 113463878.425 8  88413411.92546  21591456.184    21591453.947    21591457.194
                        48.250          38.750
 121668976.421 7  94807012.648 6  23152831.763    23152832.519    23152832.058
  23152832.859          44.000          39.000
 134940616.744 5 105148523.32142  25678344.437    25678344.491    25678344.754
                        35.750          14.750
                                                                  24957046.039
  24957057.902          21.500          18.500
 110888814.863 8  86406873.732 7  21101436.154    21101435.759    21101436.614
  21101436.203          50.750          44.000
 128664618.720 5 100258147.211 5  24484065.240    24484069.216    24484066.067
  24484069.350          33.500          31.750
 19  9 29 16 44 30.0000000  0  9G13G12G05G02G15G21G06G29G25
 113724056.701 7  88616151.19945  21640961.130    21640960.884    21640961.586
                        47.500          33.750
 133764979.803 4                                                  25454625.462
  25454627.115          28.250          24.250
 106565103.582 8  83037751.339 7  20278658.966    20278658.325    20278659.261
  20278658.873          51.500          47.250
 113500601.813 8  88442027.53746  21598444.370    21598442.141    21598445.371
                        48.250          38.500
 121555294.353 7  94718429.264 6  23131199.179    23131199.471    23131199.442
  23131199.683          43.750          38.500
 134864130.185 6 105088923.48742  25663789.385    25663789.324    25663789.836
                        36.000          14.000
                                                                  24973274.644
                        23.750
 110843210.436 8  86371337.830 7  21092757.851    21092757.547    21092758.316
  21092757.806          50.500          44.000
 128743907.239 5 100319930.405 5  24499153.620    24499157.508    24499154.451
  24499157.325          32.500          31.000
                            4  1
RINEX FILE SPLICE; other post-header comments skipped       COMMENT
 19  9 29 16 45  0.0000000  0  9G13G12G05G02G15G21G06G29G25
 113645366.097 7  88554833.85045  21625987.179    21625986.596    21625987.644
                        47.250          34.000

  25472396.015                          23.000
 106595091.954 8  83061118.904 7  20284365.459    20284364.920    20284365.754
  20284365.296          51.500          47.250
 113537595.864 8  88470854.05846  21605483.942    21605481.830    21605484.948
                        48.000          38.250
 121441783.956 7  94629979.650 6  23109598.755    23109598.972    23109599.032
  23109599.234          43.250          38.250
 134787587.345 5 105029279.72942  25649222.934    25649223.738    25649223.510
                        34.250          12.250
                                                                  24989524.230
  24989531.151          26.500          23.750
 110798141.038 8  86336218.824 7  21084181.522    21084181.042    21084181.982
  21084181.466          50.250          44.250
 128823343.852 5 100381828.990 4  24514270.980    24514273.788    24514271.793
  24514275.503          34.250          29.500
 19  9 29 16 45 30.0000000  0  9G13G12G05G02G15G21G06G29G25
 113567097.192 8  88493845.11245  21611092.934    21611092.691    21611093.407
                        48.000          34.500
                                                                  25490137.008
  25490129.370          25.500          20.500
 106625425.315 8  83084755.281 7  20290137.564    20290137.145    20290137.859
  20290137.573          51.750          47.250
 113574860.181 8  88499891.16746  21612575.516    21612572.956    21612576.522
                        48.000          38.500
 121328448.305 7  94541666.178 6  23088031.513    23088031.916    23088031.803
  23088032.409          43.750          38.750
 134710988.326 4 104969592.26141  25634646.339    25634647.433    25634647.054
                        29.500           8.000
                                                                  25005793.602
  25005800.734          28.500          26.000
 110753608.656 8  86301518.263 7  21075707.274    21075706.964    21075707.734
  21075707.170          50.750          44.500
 128902925.519 5 100443840.630 4  24529413.149    24529417.850    24529414.016
  24529418.702          34.250          29.750
 19  9 29 16 46  0.0000000  0  9G13G12G05G02G15G21G06G29G25
 113489252.784 8  88433187.14245  21596279.835    21596279.350    21596280.304
                        48.000          34.750
                                                                  25507838.207
                        25.500
 106656101.526 8  83108658.813 7  20295975.560    20295974.777    20295975.850
  20295975.145          51.750          47.500
 113612396.126 8  88529139.93446  21619718.451    21619715.948    21619719.457
                        48.250          38.250
 121215289.982 7  94453490.887 6  23066498.306    23066498.652    23066498.592
  23066499.096          44.500          39.000
 134634333.490 5 104909861.29441  25620060.980    25620060.683    25620061.780
                        32.250           9.000
                                                                  25022083.084
  25022088.235          27.000          26.500
 110709615.222 8  86267237.665 7  21067335.712    21067335.205    21067336.172
  21067335.507          50.750          44.250
 128982649.022 5 100505962.799 5  24544584.779    24544588.916    24544585.695
  24544589.484          34.000          30.250
 19  9 29 16 46 30.0000000  0  9G13G12G05G02G15G21G06G29G25
 113411835.424 8  88372861.94645  21581547.630    21581547.554    21581548.103
                        48.000          34.750

  25525508.266                          22.000
 106687119.510 8  83132828.670 7  20301878.005    20301877.337    20301878.300
  20301877.633          52.000          47.500
 113650203.857 8  88558600.48646  21626912.854    21626910.762    21626913.851
                        48.000          38.250
 121102311.919 7  94365456.066 6  23044998.973    23044999.605    23044999.294
  23044999.386          44.500          39.000
 134557623.326 5 104850087.20441  25605462.292    25605463.331    25605463.110
                        33.500          10.000
                                                                  25038392.455
  25038396.591          25.500          23.750
 110666162.820 8  86233378.644 7  21059066.966    21059066.496    21059067.431
  21059066.954          51.000          44.500
 129062511.336 4 100568193.071 4  24559781.189    24559786.137    24559782.181
  24559787.903          29.750          29.750
 19  9 29 16 47  0.0000000  0  9G13G12G05G02G15G21G06G29G25
 113334847.929 8  88312871.70845  21566897.250    21566897.391    21566897.728
                        48.250          35.000
                                                                  25543164.039
  25543150.749          25.250          21.000
 106718477.648 8  83157263.578 7  20307845.331    20307844.556    20307845.626
  20307844.930          51.750          47.250
 113688283.758 8  88588273.11846  21634159.299    21634156.924    21634160.296
                        48.000          38.000
 120989516.879 7  94277563.845 6  23023535.256    23023535.365    23023535.573
  23023536.042          44.000          38.750
 134480857.945 5 104790269.99441  25590855.189    25590855.434    25590856.302
                        32.500          10.500
                                                                  25054724.779
  25054727.279          26.500          26.750
 110623253.212 8  86199942.584 7  21050901.465    21050901.063    21050901.925
  21050901.297          50.750          44.000
 129142509.184 4 100630528.980 4  24575004.079    24575009.365    24575005.183
  24575010.488          27.750          28.250
 19  9 29 16 47 30.0000000  0  9G13G12G05G02G15G21G06G29G25
 113258292.886 8  88253218.44245  21552329.357    21552329.243    21552329.830
                        48.250          35.000
                                                                  25560782.737
                        24.000
 106750174.427 8  83181962.362 7  20313876.992    20313876.145    20313877.282
  20313876.590          52.000          47.250
 113726636.412 8  88618158.28646  21641457.598    21641455.059    21641458.595
                        48.500          38.000
 120876907.454 7  94189816.261 6  23002106.319    23002106.129    23002106.600
  23002106.494          44.750          38.250
 134404037.731 4 104730410.06741  25576236.090    25576236.975    25576237.413
                        27.250           6.500
                                                                  25071072.455
  25071072.897          24.250          24.000
 110580888.363 8  86166931.020 7  21042839.904    21042839.295    21042840.360
  21042839.478          51.250          44.500
 129222639.564 5 100692968.200 5  24590253.241    24590257.477    24590254.300
  24590259.362          30.750          30.000
 19  9 29 16 48  0.0000000  0  9G13G12G05G02G15G21G06G29G25
 113182173.198 8  88193904.41845  21537844.352    21537843.905    21537844.825
                        48.250          34.500

  25578344.037                          22.250
 106782208.438 8  83206923.918 7  20319972.706    20319971.972    20319973.001
  20319972.600          51.750          47.250
 113765262.349 8  88648256.40346  21648807.684    21648805.463    21648808.681
                        48.250          38.000
 120764486.816 7  94102215.811 6  22980713.205    22980713.185    22980713.509
  22980713.740          44.250          38.500
 134327163.004 4 104670507.80241  25561607.046    25561608.174    25561608.450
                        29.250           6.250
                                                                  25087436.590
  25087446.266          20.750          23.250
 110539070.318 8  86134345.535 7  21034882.031    21034881.632    21034882.491
  21034881.749          51.000          44.500
 129302899.315 4 100755508.185 5  24605526.231    24605530.469    24605527.214
  24605530.614          29.250          31.250
 19  9 29 16 48 30.0000000  0  9G13G12G05G02G15G21G06G29G25
 113106491.718 8  88134931.84145  21523442.661    21523442.132    21523443.121
                        48.750          35.500
                                                                  25595881.406
                        22.000
 106814578.520 8  83232147.356 7  20326132.757    20326131.905    20326133.052
  20326132.197          52.000          47.250
 113804162.006 8  88678567.80246  21656210.080    21656207.993    21656211.077
                        48.250          38.250
 120652257.315 7  94014764.264 6  22959356.895    22959356.666    22959357.194
  22959357.077          44.000          38.250
 134250234.301 4 104610563.4274   25546966.814    25546968.694    25546968.258
                        28.500           5.250

  25103834.307                          23.000
 110497800.639 8  86102187.349 7  21027028.759    21027028.188    21027029.219
  21027028.499          51.000          44.500
 129383285.312 4 100818146.533 4  24620822.662    24620827.778    24620823.672
  24620829.789          28.500          29.250
 19  9 29 16 49  0.0000000  0 10G13G12G05G02G15G21G06G29G30G25
 113031250.485 8  88076302.32745  21509124.628    21509124.390    21509125.088
                        48.500          35.500
                                                                  25613404.085
                        27.250
 106847282.866 8  83257631.263 7  20332356.072    20332355.420    20332356.367
  20332355.745          51.750          47.000
 113843335.924 8  88709092.92746  21663664.502    21663662.532    21663665.494
                        48.000          38.000
 120540221.952 7  93927463.991 6  22938037.118    22938037.253    22938037.390
  22938037.419          44.750          38.250
 134173251.869 5 104550577.2214   25532318.177    25532319.520    25532319.496
                        31.000           5.250

  25120244.571                          22.750
 110457081.196 8  86070457.919 7  21019279.926    21019279.465    21019280.386
  21019279.689          51.000          44.250


 129463794.314 4 100880880.818 4  24636143.552    24636147.893    24636144.589
  24636148.649          29.000          29.000
 19  9 29 16 49 30.0000000  0  9G13G05G02G15G21G06G29G30G25
 112956452.593 8  88018018.26945  21494891.006    21494890.710    21494891.466
                        48.750          35.750
 106880319.647 8  83283374.198 7  20338642.670    20338642.133    20338642.965
  20338642.392          51.750          47.000
 113882784.058 8  88739831.72346  21671171.286    21671168.964    21671172.283
                        48.000          37.500
 120428383.516 7  93840317.172 6  22916755.099    22916755.214    22916755.353
  22916755.652          45.000          38.750
 134096215.775 4 104490549.0374   25517658.415    25517659.914    25517659.805
                        29.500           4.250
                                                                  25136672.902
  25136671.162          19.250          21.250
 110416913.891 8  86039158.723 7  21011636.249    21011636.090    21011636.709
  21011636.261          51.000          44.500


                 100943708.597 5                                  24651488.040
  24651493.406          28.250          32.000
 19  9 29 16 50  0.0000000  0 10G13G12G05G02G15G21G06G29G30G25
 112882100.651 8  87960081.70845  21480742.226    21480742.170    21480742.691
                        48.000          35.500
                                                                  25648307.379
                        21.750
 106913687.967 8  83309375.485 7  20344992.601    20344991.846    20344992.896
  20344992.230          51.500          47.250
 113922507.186 7  88770784.79646  21678730.428    21678728.027    21678731.429
                        47.750          37.500
 120316744.620 7  93753325.864 6  22895510.688    22895510.808    22895510.969
  22895511.436          44.000          38.500
 134019126.898 5 104430479.8084   25502988.230    25502990.537    25502989.804
                        30.000           5.750
                                                                  25153114.056
  25153119.118          19.750          18.750
 110377300.306 8  86008291.004 7  21004098.165    21004097.757    21004098.621
  21004097.976          51.000          44.500


                 101006627.470 5                                  24666853.005
  24666857.966          27.250          33.250
 19  9 29 16 50 30.0000000  0  9G13G05G02G15G21G06G29G30G25
 112808197.090 8  87902494.52946  21466679.257    21466678.739    21466679.708
                        48.500          36.000
 106947385.785 8  83335633.515 7  20351404.983    20351404.251    20351405.273
  20351404.844          51.500          47.000
 113962505.787 8  88801952.52146  21686342.023    21686339.860    21686343.033
                        48.000          38.000
 120205308.136 7  93666492.263 6  22874304.991    22874305.220    22874305.308
  22874305.469          44.500          38.500
 133941985.275 5 104370369.57941  25488308.855    25488310.652    25488310.326
                        31.750           6.000
                                                                  25169586.288
  25169588.770          20.000          21.500
 110338242.494 8  85977856.350 7  20996665.742    20996665.218    20996666.202
  20996665.520          51.250          44.250
                                                                  25272760.343
                        28.000
                 101069634.994 5                                  24682241.441
  24682245.291          34.000          34.250
 19  9 29 16 51  0.0000000  0  9G13G05G02G15G21G06G29G30G25
 112734744.742 8  87845258.94446  21452701.441    21452701.095    21452701.892
                        49.000          36.000
 106981412.369 8  83362147.735 7  20357880.095    20357879.299    20357880.390
  20357879.889          52.000          47.000
 114002780.483 8  88833335.37046  21694006.208    21694003.855    21694007.214
                        48.000          37.500
 120094076.693 7  93579818.435 6  22853138.399    22853138.464    22853138.743
  22853138.986          45.500          38.250
 133864791.246 5 104310218.38141  25473619.371    25473620.964    25473620.971
                        33.000           6.000
                                                                  25186063.922
  25186073.764          19.750          19.250
 110299742.331 8  85947856.225 7  20989339.359    20989338.916    20989339.824
  20989339.279          51.500          44.750


 129787026.635 5 101132728.716 5  24697648.457    24697652.271    24697648.738
  24697653.875          34.750          32.500
 19  9 29 16 51 30.0000000  0  8G13G05G02G15G21G29G30G25
 112661746.183 8  87788376.96045  21438810.095    21438809.852    21438810.551
                        48.000          35.500
 107015765.601 8  83388916.476 7  20364417.246    20364416.583    20364417.541
  20364417.086          51.500          47.250
 114043331.354 7  88864933.42946  21701722.543    21701720.373    21701723.544
                        47.500          37.500
 119983053.394 7  93493306.789 6  22832011.292    22832011.318    22832011.636
  22832011.688          45.000          39.000
 133787545.424 5 104250026.8364   25458919.511    25458921.807    25458921.098
                        33.750           2.750
 110261801.406 8  85918291.870 7  20982119.414    20982119.142    20982119.879
  20982119.304          50.750          44.750


 129868104.709 5 101195906.328 5  24713076.562    24713080.983    24713077.416
  24713082.219          30.000          32.750
 19  9 29 16 52  0.0000000  0  8G13G05G02G15G21G29G30G25
 112589204.002 8  87731850.59046  21425006.070    21425005.667    21425006.521
                        48.250          36.000
 107050444.148 8  83415938.719 7  20371016.104    20371015.723    20371016.399
  20371016.080          51.250          47.000
 114084158.933 7  88896747.10246  21709491.964    21709489.549    21709492.961
                        47.250          37.250
 119872240.621 7  93406959.197 6  22810924.464    22810924.746    22810924.803
  22810924.924          44.500          39.000
 133710248.271 5 104189795.29541  25444211.379    25444212.632    25444212.783
                        33.750           6.750
 110224421.122 8  85889164.382 7  20975006.183    20975005.859    20975006.648
  20975006.111          50.750          44.500


 129949287.140 5 101259165.311 5  24728526.993    24728529.424    24728527.641
  24728529.674          32.500          30.750
 19  9 29 16 52 30.0000000  0  9G13G05G02G15G21G06G29G30G25
 112517120.790 8  87675681.86446  21411288.923    21411288.612    21411289.379
                        48.500          36.250
 107085446.352 8  83443213.156 7  20377677.076    20377676.442    20377677.384
  20377676.794          51.000          47.000
 114125263.619 7  88928776.71546  21717313.795    21717311.494    21717314.792
                        47.250          37.500
 119761641.312 7  93320777.930 6  22789877.770    22789878.299    22789878.096
  22789878.239          44.750          39.250
 133632900.032 5 104129523.98141  25429493.075    25429493.571    25429494.309
                        34.500           8.250

  25235650.344                          20.500
 110187603.617 8  85860475.439 7  20967999.943    20967999.574    20968000.408
  20967999.851          51.000          44.500


 130030570.970 5 101322503.291 5  24743993.717    24743997.352    24743994.356
  24743998.217          33.000          32.250
 19  9 29 16 53  0.0000000  0  8G13G05G02G15G21G29G30G25
 112445498.696 8  87619872.44746  21397659.824    21397659.455    21397660.280
                        48.250          36.250
 107120771.070 8  83470738.898 7  20384399.078    20384398.498    20384399.386
  20384398.880          51.000          47.000
 114166645.853 7  88961022.58446  21725188.269    21725186.567    21725189.270
                        47.250          37.250
 119651258.036 7  93234765.014 6  22768872.652    22768872.866    22768872.987
  22768873.127          45.000          38.500
 133555501.089 5 104069213.14341  25414764.194    25414764.847    25414765.454
                        34.500           7.750
 110151350.555 8  85832226.285 7  20961101.310    20961100.938    20961101.779
  20961101.138          50.750          44.750


 130111953.175 5 101385917.888 5  24759479.425    24759484.003    24759480.095
  24759485.377          30.000          32.500
 19  9 29 16 53 30.0000000  0  8G13G05G02G15G21G29G30G25
 112374340.639 8  87564424.62346  21384118.756    21384118.447    21384119.216
                        48.750          36.250
 107156416.436 8  83498514.507 7  20391182.170    20391181.583    20391182.478
  20391181.955          51.500          46.750
 114208305.950 7  88993484.98246  21733116.008    21733113.990    21733117.005
                        47.750          37.000
 119541093.815 7  93148922.800 6  22747908.985    22747909.117    22747909.306
  22747909.758          45.500          38.500
 133478051.786 5 104008863.02741  25400026.693    25400026.772    25400027.949
                        35.250          10.000
 110115663.324 8  85804418.060 7  20954310.255    20954309.925    20954310.720
  20954310.244          51.000          44.500


 130193430.384 4 101449406.599 5  24774984.610    24774988.741    24774985.356
  24774990.017          29.250          31.500
 19  9 29 16 54  0.0000000  0  8G13G05G02G15G21G29G30G25
 112303649.393 8  87509340.54846  21370666.804    21370666.564    21370667.255
                        48.250          36.500
 107192381.386 8  83526539.130 7  20398026.158    20398025.491    20398026.462
  20398025.978          51.250          46.750
 114250244.313 7  89026164.21246  21741096.953    21741094.669    21741097.950
                        47.000          37.000
 119431151.435 7  93063253.434 6  22726987.729    22726987.705    22726988.055
  22726987.626          45.000          38.500
 133400552.513 5 103948474.06641  25385277.270    25385279.312    25385278.611
                        33.500           8.750
 110080543.977 8  85777052.335 7  20947627.351    20947626.839    20947627.816
  20947627.108          50.750          44.500


 130274999.728 4 101512967.043 5  24790507.066    24790510.749    24790507.714
  24790512.043          28.250          31.500
 19  9 29 16 54 30.0000000  0  9G13G05G02G15G21G06G29G30G25
 112233427.200 8  87454621.96746  21357303.849    21357303.661    21357304.309
                        48.750          36.500
 107228664.379 8  83554811.588 7  20404930.518    20404929.859    20404930.826
  20404930.439          51.500          46.750
 114292461.508 7  89059060.70546  21749130.754    21749128.502    21749131.737
                        47.500          37.250
 119321433.606 7  92977759.060 6  22706108.857    22706109.158    22706109.187
  22706109.513          45.250          39.000
 133323004.096 5 103888046.74141  25370520.108    25370522.452    25370521.462
                        34.000           8.250
                                                                  25302013.333
                        21.250
 110045994.158 8  85750130.408 7  20941052.630    20941052.253    20941053.099
  20941052.692          50.750          44.500


 130356658.096 4 101576596.798 5  24806044.788    24806049.692    24806045.248
  24806050.924          26.250          31.500
 19  9 29 16 55  0.0000000  0  8G13G05G02G15G21G29G30G25
 112163676.522 8  87400270.80246  21344030.707    21344030.400    21344031.163
                        48.500          36.250
 107265263.562 8  83583330.429 7  20411895.091    20411894.403    20411895.399
  20411895.060          51.500          46.500
 114334957.925 7  89092174.77946  21757217.322    21757215.154    21757218.314
                        47.250          37.000
 119211942.879 7  92892441.628 6  22685273.480    22685273.727    22685273.819
  22685274.257          45.750          39.000
 133245406.779 5 103827581.32041  25355754.162    25355756.224    25355755.534
                        34.250          11.250
 110012015.412 8  85723653.458 7  20934586.873    20934586.372    20934587.342
  20934586.626          51.250          44.750


 130438402.226 4 101640293.508 5  24821600.811    24821605.196    24821601.159
  24821606.705          29.250          30.500
 19  9 29 16 55 30.0000000  0  8G13G05G02G15G21G29G30G25
 112094399.838 8  87346288.98446  21330847.724    21330847.342    21330848.184
                        48.500          36.250
 107302177.650 8  83612094.644 7  20418919.767    20418918.960    20418920.071
  20418919.335          51.250          46.500
 114377733.864 7  89125506.66446  21765357.434    21765355.126    21765358.417
                        47.250          36.750
 119102682.359 7  92807303.594 6  22664482.183    22664482.256    22664482.522
  22664482.924          45.750          39.250
 133167760.992 5 103767078.15641  25340979.575    25340980.548    25340980.956
                        34.500           9.500
 109978609.195 8  85697622.643 7  20928229.615    20928229.442    20928230.088
  20928229.340          50.750          44.750
 132312533.386 4 103100694.5064   25178238.602    25178242.580    25178238.410
                        28.500           4.250
 130520229.281 5 101704054.789 5  24837173.276    24837176.576    24837173.548
  24837178.240          31.000          32.250
 19  9 29 16 56  0.0000000  0  9G13G05G02G15G21G06G29G30G25
 112025599.565 8  87292678.39346  21317755.536    21317755.093    21317755.996
                        48.750          36.500
 107339405.055 8  83641103.002 7  20426003.699    20426003.087    20426004.007
  20426003.512          51.250          46.750
 114420789.474 7  89159056.47446  21773550.594    21773548.373    21773551.582
                        47.500          37.250
 118993654.196 7  92722346.616 6  22643734.788    22643735.059    22643735.109
  22643735.642          45.750          39.500
 133090067.212 5 103706537.62541  25326193.998    25326195.723    25326195.500
                        34.000          10.000
                                                                  25351968.431
                        20.750
 109945776.844 8  85672039.002 7  20921981.881    20921981.503    20921982.354
  20921981.990          51.250          44.500
 132264451.962 5 103063228.6494   25169088.823    25169091.574    25169088.948
                        30.500           4.500
 130602136.167 5 101767878.220 5  24852759.256    24852763.029    24852759.649
  24852765.608          30.500          33.500
 19  9 29 16 56 30.0000000  0  8G13G05G02G15G21G29G30G25
 111957278.310 8  87239441.06946  21304754.600    21304754.065    21304755.051
                        49.250          36.750
 107376944.204 8  83670354.292 7  20433147.255    20433146.612    20433147.563
  20433146.859          51.500          46.500
 114464125.239 7  89192824.57846  21781797.025    21781795.176    21781798.017
                        47.750          37.250
 118884861.487 7  92637573.104 6  22623031.830    22623032.416    22623032.156
  22623032.962          46.500          39.750
 133012325.759 5 103645959.86641  25311400.924    25311401.887    25311402.448
                        35.250          11.000
 109913520.141 8  85646903.910 7  20915843.696    20915843.182    20915844.178
  20915843.727          51.500          44.500
 132216669.776 5 103025995.73641  25159995.388    25159999.388    25159995.357
                        32.750           7.500
 130684119.619 5 101831761.395 5  24868360.401    24868364.108    24868360.866
  24868365.449          32.250          35.250
 19  9 29 16 57  0.0000000  0  8G13G05G02G15G21G29G30G25
 111889438.445 8  87186578.84446  21291844.998    21291844.455    21291845.454
                        49.000          36.750
 107414793.924 8  83699847.573 7  20440349.863    20440349.108    20440350.171
  20440349.577          51.000          46.500
 114507741.734 7  89226811.43946  21790097.106    21790094.973    21790098.107
                        47.000          36.750
 118776307.026 7  92552985.236 6  22602374.879    22602375.099    22602375.196
  22602375.173          45.500          39.000
 132934536.983 5 103585345.27041  25296598.467    25296599.283    25296599.938
                        34.750          10.750
 109881840.544 8  85622218.514 7  20909815.448    20909814.947    20909815.926
  20909815.200          50.750          45.000
 132169189.291 5 102988997.99041  25150958.561    25150964.135    25150958.820
                        30.000           7.500
 130766176.743 5 101895701.889 5  24883976.185    24883979.341    24883976.712
  24883979.637          32.000          34.000
 19  9 29 16 57 30.0000000  0  8G13G05G02G15G21G29G30G25
 111822082.484 8  87134093.69746  21279027.413    21279027.126    21279027.869
                        48.500          36.500
 107452952.618 8  83729581.617 7  20447611.163    20447610.509    20447611.471
  20447611.085          51.250          46.250
 114551639.091 7  89261017.15046  21798450.513    21798448.219    21798451.510
                        47.750          37.000
 118667993.596 7  92468585.194 6  22581763.765    22581763.347    22581764.064
  22581764.712          45.750          39.500
 132856701.595 5 103524694.34241  25281787.122    25281787.480    25281788.494
                        35.000          11.500
 109850739.617 8  85597984.043 7  20903897.030    20903896.598    20903897.512
  20903896.969          51.000          44.500
 132122012.991 5 102952237.31341  25141983.240    25141986.687    25141983.588
                        35.500          10.000
 130848304.362 5 101959697.376 5  24899603.277    24899607.671    24899603.835
  24899608.990          33.500          33.000
 19  9 29 16 58  0.0000000  0  8G13G05G02G15G21G29G30G25
 111755212.762 8  87081987.43546  21266302.561    21266302.167    21266303.021
                        48.250          36.750
 107491418.527 8  83759555.042 7  20454931.060    20454930.323    20454931.368
  20454930.778          50.500          46.500
 114595817.651 7  89295441.97946  21806857.408    21806855.428    21806858.400
                        47.250          37.250
 118559923.905 7  92384375.049 6  22561198.261    22561198.498    22561198.569
  22561198.846          45.500          39.500
 132778820.274 5 103464007.62142  25266966.074    25266967.275    25266967.451
                        33.500          12.750
 109820218.758 8  85574201.552 7  20898088.973    20898088.573    20898089.451
  20898089.071          50.500          44.750
 132075143.218 5 102915715.47041  25133063.568    25133067.673    25133063.997
                        32.500           9.500
 130930499.456 5 102023745.375 5  24915245.281    24915248.991    24915245.893
  24915249.998          34.500          33.750
 19  9 29 16 58 30.0000000  0  8G13G05G02G15G21G29G30G25
 111688831.667 8  87030261.92346  21253670.660    21253670.410    21253671.120
                        49.000          37.500
 107530190.419 8  83789766.906 7  20462309.089    20462308.455    20462309.393
  20462308.788          51.250          46.500
 114640277.780 7  89330086.21446  21815318.069    21815315.810    21815319.070
                        47.250          37.000
 118452100.820 7  92300357.095 6  22540680.513    22540680.601    22540680.830
  22540680.862          45.750          40.250
 132700893.162 5 103403285.24242  25252137.578    25252138.203    25252138.870
                        35.500          12.750
 109790279.688 8  85550872.409 7  20892391.870    20892391.377    20892392.348
  20892391.731          51.000          45.000
 132028582.430 5 102879434.39241  25124202.993    25124207.399    25124203.471
                        34.000          10.000
 131012758.875 6 102087843.543 5  24930898.497    24930902.742    24930899.212
  24930903.869          36.000          34.250
 19  9 29 16 59  0.0000000  0  8G13G05G02G15G21G29G30G25
 111622941.479 8  86978918.93846  21241132.116    21241131.967    21241132.576
                        48.750          37.250
 107569266.731 8  83820215.972 7  20469744.854    20469744.473    20469745.162
  20469744.865          51.250          46.500
 114685019.947 7  89364950.21746  21823832.183    21823829.904    21823833.180
                        47.250          36.750
 118344526.811 7  92216533.219 6  22520209.684    22520209.750    22520210.005
  22520210.600          46.000          39.000
 132622920.791 6 103342527.56642  25237299.964    25237300.555    25237301.260
                        37.000          14.000
 109760923.700 8  85527997.622 7  20886805.599    20886805.172    20886806.077
  20886805.401          51.250          44.750
 131982333.122 5 102843396.02641  25115402.420    25115406.155    25115402.956
                        31.750           9.500
 131095079.664 6 102151989.522 5  24946563.884    24946568.163    24946564.635
  24946568.518          36.500          34.500
 19  9 29 16 59 30.0000000  0  8G13G05G02G15G21G29G30G25
 111557544.959 8  86927960.62446  21228687.609    21228687.375    21228688.065
                        49.000          37.250
 107608645.955 8  83850901.076 7  20477238.697    20477238.067    20477239.005
  20477238.284          51.000          46.750
 114730044.531 7  89400034.29346  21832400.115    21832397.976    21832401.121
                        47.500          36.750
 118237204.762 7  92132905.667 6  22499786.935    22499787.268    22499787.252
  22499787.205          46.500          39.750
 132544903.702 6 103281735.06642  25222452.932    25222454.236    25222454.228
                        37.000          12.750
 109732152.275 8  85505578.332 7  20881330.649    20881330.108    20881331.122
  20881330.597          51.000          45.000
 131936397.655 5 102807600.179 5  25106659.914    25106664.732    25106660.709
  25106666.621          32.750          32.500
 131177458.804 6 102216180.970 6  24962240.551    24962244.416    24962241.284
  24962245.738          36.000          36.000
                            4  1
RINEX FILE SPLICE; other post-header comments skipped       COMMENT
 19  9 29 17  0  0.0000000  0  8G13G05G02G15G21G29G30G25
 111492643.922 8  86877388.40346  21216337.382    21216337.013    21216337.838
                        48.750          36.750
 107648326.593 8  83881821.055 7  20484789.494    20484788.997    20484789.802
  20484789.436          51.250          46.750
 114775351.642 7  89435338.52446  21841021.719    21841019.439    21841022.720
                        47.500          36.500
 118130137.308 7  92049476.493 6  22479412.846    22479413.058    22479413.176
  22479413.325          46.500          40.500
 132466842.606 5 103220908.29842  25207599.043    25207599.559    25207600.272
                        34.750          13.250
 109703966.506 8  85483615.395 7  20875966.980    20875966.460    20875967.453
  20875966.851          51.250          45.000
 131890778.511 5 102772052.801 5  25097978.448    25097983.721    25097979.275
  25097984.702          33.500          31.500
 131259893.200 5 102280415.508 6  24977927.269    24977931.319    24977928.006
  24977932.376          35.750          36.750
 19  9 29 17  0 30.0000000  0  8G13G05G02G15G21G29G30G25
 111428240.790 8  86827204.16346  21204081.636    21204081.359    21204082.092
                        48.750          37.000
 107688307.391 8  83912974.914 7  20492397.704    20492397.082    20492398.008
  20492397.634          51.000          46.500
 114820941.676 7  89470863.20946  21849697.308    21849695.200    21849698.314
                        47.000          36.750
 118023327.271 7  91966247.926 6  22459087.706    22459087.866    22459088.032
  22459087.829          45.500          40.250
 132388737.970 5 103160047.50142  25192736.755    25192736.597    25192737.904
                        35.250          13.250
 109676368.066 8  85462110.121 7  20870715.126    20870714.700    20870715.595
  20870715.115          51.000          45.000
 131845478.098 5 102736753.809 5  25089358.605    25089363.237    25089359.521
  25089363.560          32.250          30.500
 131342379.792 6 102344690.685 5  24993622.448    24993628.226    24993623.230
  24993629.258          36.500          35.750
 19  9 29 17  1  0.0000000  0  8G13G05G02G15G21G29G30G25
 111364337.916 8  86777409.72646  21191921.440    21191921.095    21191921.896
                        48.750          37.250
 107728586.517 8  83944361.244 7  20500062.771    20500061.971    20500063.066
  20500062.415          51.000          46.250
 114866814.775 7  89506608.46646  21858426.697    21858424.331    21858427.703
                        47.250          36.500
 117916777.247 7  91883221.966 6  22438811.538    22438812.035    22438811.846
  22438812.105          47.000          40.250
 132310589.926 6 103099153.01242  25177864.935    25177865.635    25177866.048
                        37.000          14.750
 109649358.424 8  85441063.653 7  20865575.346    20865574.986    20865575.815
  20865575.148          51.000          44.750
 131800498.853 5 102701705.067 4  25080800.118    25080803.823    25080800.869
  25080804.730          34.250          29.750
 131424915.573 5 102409004.196 5  25009328.939    25009334.442    25009329.654
  25009334.958          35.000          35.500
 19  9 29 17  1 30.0000000  0  8G13G05G02G15G21G29G30G25
 111300937.803 8  86728007.06046  21179856.880    21179856.622    21179857.340
                        48.750          37.750
 107769163.128 8  83975979.374 7  20507784.153    20507783.426    20507784.443
  20507784.016          51.000          46.250
 114912971.230 7  89542574.51146  21867209.724    21867207.617    21867210.734
                        47.000          36.750
 117810489.913 7  91800400.692 6  22418585.831    22418586.305    22418586.130
  22418586.132          46.000          40.750
 132232399.325 6 103038225.29542  25162985.890    25162986.405    25162986.882
                        36.250          14.000
 109622938.639 8  85420476.810 7  20860547.745    20860547.433    20860548.210
  20860547.791          51.250          44.750
 131755843.138 5 102666908.424 5  25072303.423    25072306.184    25072304.066
  25072306.906          33.500          30.750
 131507497.523 6 102473353.717 5  25025044.172    25025049.074    25025044.891
  25025049.753          36.000          35.250
 19  9 29 17  2  0.0000000  0  8G13G05G02G15G21G29G30G25
 111238042.749 8  86678997.94346  21167888.254    21167887.881    21167888.705
                        49.000          38.000
 107810035.093 8  84007827.655 7  20515561.559    20515561.098    20515561.858
  20515561.445          51.250          46.250
 114959411.428 7  89578761.65646  21876047.149    21876045.095    21876048.164
                        47.000          37.000
 117704468.387 7  91717786.535 6  22398410.548    22398410.939    22398410.847
  22398410.881          46.500          40.250
 132154166.793 6 102977264.89942  25148098.581    25148099.452    25148099.546
                        37.250          15.000
 109597110.266 8  85400350.804 7  20855632.883    20855632.405    20855633.348
  20855632.781          51.250          44.750
 131711513.302 5 102632365.673 5  25063867.419    25063870.459    25063868.058
  25063871.522          34.250          31.000
 131590122.562 6 102537736.771 5  25040767.643    25040772.435    25040768.336
  25040772.678          36.000          35.000
 19  9 29 17  2 30.0000000  0  8G13G05G02G15G21G29G30G25
 111175654.805 8  86630383.97646  21156016.316    21156015.911    21156016.781
                        49.250          37.500
 107851200.838 8  84039904.857 7  20523395.473    20523394.723    20523395.781
  20523395.029          50.750          46.500
 115006135.839 7  89615170.26746  21884938.435    21884936.572    21884939.445
                        47.250          36.750
 117598715.063 7  91635381.368 6  22378286.222    22378286.415    22378286.539
  22378287.190          46.250          40.500
 132075892.278 6 102916271.80242  25133202.858    25133204.316    25133203.899
                        36.750          13.000
 109571874.325 8  85380686.443 7  20850830.387    20850830.249    20850830.856
  20850830.556          51.000          45.250
 131667511.729 5 102598078.793 5  25055493.460    25055497.011    25055494.206
  25055497.455          33.250          30.250
 131672787.694 5 102602151.064 5  25056498.575    25056503.219    25056499.299
  25056503.845          34.500          34.750
 19  9 29 17  3  0.0000000  0  8G13G05G02G15G21G29G30G25
 111113775.935 8  86582166.69046  21144240.931    21144240.510    21144241.396
                        49.250          37.250
 107892659.078 8  84072209.972 7  20531284.641    20531284.034    20531284.954
  20531284.295          51.250          46.250
 115053144.569 7  89651800.43146  21893883.881    21893881.691    21893884.900
                        47.250          36.250
 117493232.603 7  91553187.278 6  22358213.579    22358213.570    22358213.878
  22358214.235          46.750          40.500
 131997577.121 6 102855247.02442  25118300.811    25118301.453    25118301.848
                        37.250          13.750
 109547232.227 8  85361484.803 7  20846141.531    20846141.015    20846142.004
  20846141.263          51.250          44.750
 131623840.773 6 102564049.563 5  25047183.820    25047186.921    25047184.584
  25047188.914          36.750          31.250
 131755489.916 5 102666594.291 5  25072235.027    25072240.705    25072235.814
  25072241.885          33.500          34.000
 19  9 29 17  3 30.0000000  0  8G13G05G02G15G21G29G30G25
 111052408.650 8  86534348.04346  21132563.393    21132562.873    21132563.858
                        48.750          37.750
 107934408.487 8  84104741.976 7  20539229.357    20539228.712    20539229.665
  20539229.218          51.000          46.250
 115100438.167 7  89688652.56046  21902883.519    21902881.529    21902884.534
                        47.000          36.500
 117388023.685 7  91471206.328 6  22338193.020    22338193.400    22338193.328
  22338193.550          46.500          41.000
 131919221.446 6 102794190.68542  25103389.621    25103390.542    25103390.721
                        37.000          14.500
 109523185.191 8  85342746.853 7  20841565.329    20841564.922    20841565.802
  20841565.193          50.750          45.000
 131580502.801 6 102530279.762 5  25038936.241    25038940.104    25038937.032
  25038941.399          36.250          32.250
 131838226.174 5 102731064.018 5  25087980.065    25087985.123    25087980.950
  25087986.082          35.250          34.500
 19  9 29 17  4  0.0000000  0  8G13G05G02G15G21G29G30G25
 110991555.283 8  86486929.84846  21120983.205    21120982.801    21120983.670
                        48.500          37.750
 107976447.288 8  84137499.485 7  20547228.916    20547228.387    20547229.229
  20547228.677          50.500          46.000
 115148016.801 7  89725726.79246  21911937.735    21911935.661    21911938.754
                        46.500          36.250
 117283091.305 7  91389440.852 6  22318225.113    22318225.240    22318225.417
  22318225.523          46.750          40.750
 131840825.963 6 102733103.35342  25088471.400    25088472.520    25088472.468
                        36.250          15.000
 109499734.362 8  85324473.484 7  20837102.693    20837102.435    20837103.162
  20837102.764          50.500          45.000
 131537500.087 5 102496771.188 5  25030752.965    25030757.209    25030753.760
  25030758.564          31.500          30.750
 131920993.522 5 102795558.005 5  25103730.084    25103734.884    25103730.947
  25103735.163          32.500          31.500
 19  9 29 17  4 30.0000000  0  8G13G05G02G15G21G29G30G25
 110931218.055 8  86439913.84846  21109501.404    21109500.998    21109501.864
                        49.000          37.500
 108018774.110 8  84170481.413 7  20555283.426    20555282.901    20555283.730
  20555283.087          51.250          46.000
 115195880.059 7  89763022.81846  21921045.892    21921043.386    21921046.907
                        47.250          36.000
 117178438.021 7  91307892.856 6  22298309.977    22298310.346    22298310.285
  22298310.884          47.250          40.750
 131762391.286 6 102671985.44542  25073546.363    25073546.808    25073547.413
                        37.250          15.000
 109476880.960 8  85306665.640 7  20832754.069    20832753.563    20832754.538
  20832753.739          51.000          45.250
 131494835.055 5 102463525.741 5  25022634.454    25022638.486    25022635.321
  25022638.470          34.250          32.250
 132003788.891 5 102860073.846 5  25119486.553    25119490.373    25119487.402
  25119492.489          34.000          32.000
 19  9 29 17  5  0.0000000  0  8G13G05G02G15G21G29G30G25
 110871398.859 8  86393301.51246  21098118.114    21098118.040    21098118.579
                        49.250          38.250
 108061387.458 8  84203686.616 7  20563392.798    20563391.827    20563393.097
  20563392.476          51.000          46.000
 115244028.771 7  89800541.26746  21930208.129    21930206.188    21930209.139
                        46.500          36.000
 117074066.474 7  91226564.412 6  22278448.965    22278449.335    22278449.264
  22278449.385          46.500          41.500
 131683917.765 6 102610837.28642  25058613.147    25058613.949    25058614.220
                        38.250          15.000
 109454626.190 8  85289324.256 7  20828519.058    20828518.709    20828519.523
  20828518.852          51.250          45.250
 131452509.976 5 102430545.201 5  25014579.845    25014584.370    25014580.694
  25014584.893          35.500          34.000
 132086609.389 5 102924609.216 4  25135245.925    25135250.737    25135246.720
  25135251.716          32.250          29.750
 19  9 29 17  5 30.0000000  0  8G13G05G02G15G21G29G30G25
 110812099.976 8  86347094.60946  21086833.928    21086833.758    21086834.393
                        49.750          38.500
 108104285.663 8  84237113.782 7  20571555.944    20571555.047    20571556.234
  20571555.431          51.250          46.000
 115292463.215 7  89838282.36446  21939424.917    21939422.819    21939425.923
                        47.250          36.250
 116969979.341 7  91145457.587 6  22258642.146    22258642.171    22258642.436
  22258642.395          47.000          41.000
 131605406.067 6 102549659.35442  25043672.987    25043673.266    25043674.091
                        37.000          14.250
 109432971.299 8  85272450.316 7  20824398.269    20824397.876    20824398.734
  20824398.195          51.500          45.250
 131410527.088 5 102397831.276 5  25006590.010    25006594.868    25006590.832
  25006595.078          35.000          33.250
 132169451.943 5 102989161.724 4  25151010.394    25151015.389    25151011.310
  25151016.486          34.500          29.250
 19  9 29 17  6  0.0000000  0  8G13G05G02G15G21G29G30G25
 110753323.559 8  86301294.82246  21075649.071    21075648.759    21075649.531
                        49.500          38.250
 108147468.100 8  84270762.430 7  20579773.188    20579772.445    20579773.478
  20579772.796          50.750          46.000
 115341183.585 7  89876246.26345  21948696.160    21948693.951    21948697.166
                        47.250          35.750
 116866179.265 7  91064574.452 6  22238889.866    22238889.561    22238890.147
  22238889.650          46.750          41.000
 131526856.307 6 102488451.80242  25028725.205    25028726.134    25028726.264
                        36.750          14.750
 109411917.293 8  85256044.595 7  20820391.839    20820391.454    20820392.308
  20820391.883          51.250          45.000
 131368888.678 5 102365385.844 5  24998666.508    24998671.171    24998667.335
  24998672.248          35.500          34.500
 132252313.536 5 103053729.182 4  25166778.311    25166783.398    25166779.272
  25166783.215          32.500          29.000
 19  9 29 17  6 30.0000000  0  8G13G05G02G15G21G29G30G25
 110695071.566 8  86255903.67346  21064564.185    21064563.557    21064564.654
                        49.250          38.000
 108190932.950 8  84304631.138 7  20588044.185    20588043.600    20588044.480
  20588043.792          51.000          45.750
 115390189.966 7  89914433.03345  21958021.874    21958019.582    21958022.875
                        47.000          35.750
 116762669.152 7  90983917.240 6  22219191.829    22219192.050    22219192.128
  22219192.551          47.250          40.750
 131448270.028 6 102427215.78242  25013770.614    25013771.360    25013771.664
                        37.500          15.000
 109391465.273 8  85240107.971 7  20816499.863    20816499.520    20816500.328
  20816499.687          51.250          45.000
 131327597.211 5 102333210.714 5  24990809.226    24990813.614    24990810.106
  24990813.365          34.750          34.750
 132335191.338 5 103118309.185 5  25182550.179    25182554.458    25182551.158
  25182554.520          30.750          30.250
 19  9 29 17  7  0.0000000  0  8G13G05G02G15G21G29G30G25
 110637346.163 8  86210922.85746  21053579.462    21053578.945    21053579.927
                        49.000          38.000
 108234678.382 8  84338718.483 7  20596368.632    20596368.152    20596368.927
  20596368.340          51.000          46.000
 115439482.733 7  89952842.95945  21967401.863    21967399.987    21967402.869
                        46.750          35.750
 116659451.366 7  90903487.825 6  22199550.123    22199550.180    22199550.427
  22199550.698          46.750          41.250
 131369647.470 6 102365951.49042  24998809.000    24998809.892    24998810.064
                        38.500          14.500
 109371616.392 8  85224641.307 7  20812722.734    20812722.389    20812723.207
  20812722.549          51.250          45.000
 131286654.760 5 102301307.578 5  24983018.336    24983022.120    24983019.212
  24983023.501          35.500          35.750
 132418082.190 4 103182899.297 5  25198324.625    25198328.357    25198325.327
  25198330.058          29.750          30.250
 19  9 29 17  7 30.0000000  0  8G13G05G02G15G21G29G30G25
 110580149.230 8  86166353.83646  21042695.107    21042694.707    21042695.567
                        49.500          38.500
 108278702.885 8  84373023.290 7  20604746.138    20604745.799    20604746.437
  20604746.027          51.500          46.250
 115489061.974 7  89991476.10546  21976836.284    21976834.439    21976837.294
                        46.750          36.000
 116556528.746 7  90823288.416 6  22179964.989    22179964.665    22179965.261
  22179964.925          47.250          41.250
 131290989.194 6 102304659.33942  24983840.698    24983841.650    24983841.730
                        39.000          15.500
 109352371.709 8  85209645.455 7  20809060.632    20809060.251    20809061.105
  20809060.508          51.500          45.250
 131246063.681 6 102269678.253 5  24975294.639    24975297.754    24975295.488
  24975298.141          37.000          33.750
 132500983.223 4 103247497.485 4  25214098.708    25214104.031    25214099.378
  25214103.968          28.000          29.000
 19  9 29 17  8  0.0000000  0  8G13G05G02G15G21G29G30G25
 110523483.187 8  86122198.49746  21031912.014    21031911.622    21031912.474
                        49.250          38.750
 108323005.176 8  84407544.553 7  20613176.607    20613176.239    20613176.906
  20613176.503          51.250          45.750
 115538927.790 7  90030332.55745  21986325.674    21986323.594    21986326.675
                        46.750          35.750
 116453904.164 7  90743321.243 6  22160435.847    22160435.869    22160436.124
  22160436.280          47.500          41.000
 131212295.750 6 102243339.79342  24968865.878    24968866.463    24968866.955
                        38.000          15.000
 109333732.089 8  85195121.069 7  20805513.538    20805513.240    20805514.011
  20805513.593          51.250          45.250
 131205826.218 6 102238324.439 5  24967636.888    24967640.700    24967637.804
  24967641.254          37.250          34.500
 132583891.344 4 103312101.195 4                                  25229876.612
  25229881.664          27.000          28.250
 19  9 29 17  8 30.0000000  0  8G13G05G02G15G21G29G30G25
 110467349.822 8  86078458.23346  21021230.111    21021229.904    21021230.567
                        49.750          38.750
 108367583.946 8  84442281.247 7  20621659.677    20621659.251    20621659.985
  20621659.584          51.250          45.750
 115589080.595 7  90069412.64045  21995869.337    21995867.324    21995870.338
                        46.500          35.500
 116351580.036 7  90663588.170 6  22140964.065    22140964.215    22140964.342
  22140964.841          47.250          41.250
 131133567.755 6 102181993.37342  24953884.339    24953884.864    24953885.519
                        38.250          15.500
 109315698.764 8  85181069.131 7  20802081.975    20802081.721    20802082.453
  20802081.795          51.250          45.250
 131165944.536 6 102207247.891 5  24960047.754    24960051.306    24960048.652
  24960052.765          37.000          34.750
 132666803.824 4 103376708.182 4                                  25245653.995
  25245659.071          27.750          27.000
 19  9 29 17  9  0.0000000  0  8G13G05G02G15G21G29G30G25
 110411751.152 8  86035134.60346  21010650.070    21010649.522    21010650.535
                        49.250          38.500
 108412437.535 8  84477232.088 7  20630195.135    20630194.617    20630195.443
  20630194.873          51.250          45.750
 115639520.608 7  90108716.52245  22005467.785    22005465.872    22005468.786
                        46.750          35.750
 116249558.994 7  90584091.295 6  22121550.169    22121550.322    22121550.455
  22121550.405          47.500          41.250
 131054805.604 6 102120620.25142  24938896.322    24938896.889    24938897.484
                        38.000          16.000
 109298272.700 8  85167490.365 7  20798765.932    20798765.539    20798766.410
  20798765.903          51.500          45.250
 131126420.880 6 102176450.294 5  24952526.317    24952530.314    24952527.224
  24952531.256          37.250          34.750
 132749717.461 5 103441316.184 4                                  25261432.248
  25261437.578          30.000          28.250
 19  9 29 17  9 30.0000000  0  8G13G05G02G15G21G29G30G25
 110356689.200 8  85992229.20346  21000172.104    21000171.634    21000172.560
                        49.250          38.500
 108457564.632 8  84512396.052 7  20638782.556    20638781.944    20638782.869
  20638782.279          51.250          45.750
 115690247.622 7  90148244.03745  22015120.806    22015118.791    22015121.803
                        46.500          35.000
 116147843.812 7  90504832.734 6  22102194.671    22102194.389    22102194.952
  22102194.931          47.250          41.000
 130976010.234 6 102059221.32042  24923902.214    24923903.105    24923903.345
                        37.750          15.500
 109281454.573 8  85154385.340 7  20795565.481    20795565.154    20795565.954
  20795565.579          51.250          45.250
 131087257.435 6 102145933.431 5  24945073.435    24945077.595    24945074.311
  24945078.534          37.000          34.250
 132832629.503 4 103505922.902 4                                  25277206.996
  25277213.879          27.000          29.250
 19  9 29 17 10  0.0000000  0  8G13G05G02G15G21G29G30G25
 110302165.834 8  85949743.47946  20989796.647    20989796.164    20989797.094
                        49.000          38.750
 108502963.800 8  84547772.018 7  20647421.682    20647421.119    20647421.999
  20647421.487          51.000          45.750
 115741262.173 7  90187995.60845  22024828.384    22024826.795    22024829.390
                        46.500          35.500
 116046437.096 7  90425814.548 6  22082897.199    22082897.513    22082897.494
  22082897.728          47.500          41.500
 130897182.498 6 101997797.15142  24908902.171    24908902.358    24908903.338
                        37.750          16.500
 109265245.402 8  85141754.813 7  20792481.089    20792480.790    20792481.567
  20792480.973          51.250          45.250
 131048456.448 6 102115698.919 5  24937690.872    24937694.454    24937691.721
  24937695.018          38.250          35.750
 132915536.939 5 103570525.976 5  25292987.707    25292992.021    25292988.391
  25292991.613          33.750          30.500
 19  9 29 17 10 30.0000000  0  8G13G05G02G15G21G29G30G25
 110248183.019 8  85907678.96246  20979523.958    20979523.622    20979524.414
                        49.250          39.000
 108548633.906 8  84583359.109 7  20656112.443    20656111.820    20656112.760
  20656112.165          50.750          45.500
 115792564.356 7  90227971.31045  22034591.239    22034589.206    22034592.245
                        46.500          35.250
 115945341.340 7  90347038.670 6  22063659.609    22063659.636    22063659.895
  22063659.851          47.250          41.500
 130818322.794 6 101936348.08842  24893895.673    24893895.195    24893896.817
                        38.250          16.750
 109249646.355 8  85129599.707 7  20789512.815    20789512.371    20789513.284
  20789512.695          51.000          45.250
 131010020.022 6 102085748.500 5  24930375.811    24930379.971    24930376.620
  24930380.423          37.250          35.750
 132998436.849 4 103635123.205 4  25308760.463    25308767.096    25308761.178
  25308766.559          29.750          28.250
 19  9 29 17 11  0.0000000  0  8G13G05G02G15G21G29G30G25
 110194742.872 8  85866037.30846  20969354.743    20969354.338    20969355.199
                        49.750          39.000
 108594572.682 8  84619155.556 7  20664854.446    20664853.730    20664854.772
  20664854.182          51.250          45.750
 115844154.299 7  90268171.24345  22044408.501    22044406.434    22044409.498
                        46.250          35.000
 115844559.533 8  90268507.415 6  22044481.393    22044481.415    22044481.679
  22044481.665          48.250          41.500
 130739431.741 6 101874874.58242  24878883.075    24878882.938    24878884.273
                        39.000          17.250
 109234658.034 8  85117920.493 7  20786660.467    20786659.999    20786660.936
  20786660.513          51.750          45.000
 130971950.392 5 102056083.829 5  24923131.976    24923135.236    24923132.763
  24923136.112          35.250          35.500
 133081326.181 5 103699712.159 4  25324535.900    25324539.877    25324536.910
  25324540.723          32.000          26.250
 19  9 29 17 11 30.0000000  0  8G13G05G02G15G21G29G30G25
 110141847.318 8  85824820.00346  20959289.091    20959288.604    20959289.542
                        49.500          38.750
 108640778.997 8  84655160.463 7  20673647.287    20673646.572    20673647.613
  20673646.991          51.250          46.000
 115896032.449 7  90308595.75545  22054280.565    22054278.565    22054281.553
                        46.250          34.750
 115744094.067 8  90190222.658 7  22025363.141    22025363.538    22025363.427
  22025363.837          48.250          42.000
 130660510.182 6 101813377.30742  24863864.704    24863865.052    24863865.897
                        38.750          17.500
 109220281.346 8  85106717.871 7  20783924.712    20783924.332    20783925.190
  20783924.584          51.500          45.500
 130934249.691 5 102026706.719 5  24915957.863    24915961.291    24915958.596
  24915962.112          33.750          35.250
 133164202.178 5 103764290.763 4  25340306.353    25340310.547    25340307.278
  25340312.476          31.750          26.500
 19  9 29 17 12  0.0000000  0  8G13G05G02G15G21G29G30G25
 110089498.230 8  85784028.52346  20949327.268    20949326.791    20949327.715
                        49.250          38.750
 108687251.943 8  84691373.154 7  20682490.531    20682490.091    20682490.857
  20682490.210          50.750          45.750
 115948198.423 7  90349244.53245  22064207.390    22064205.478    22064208.382
                        46.000          35.000
 115643947.599 7  90112186.495 6  22006305.873    22006306.337    22006306.145
  22006306.060          47.500          41.750
 130581558.656 6 101751856.65442  24848840.497    24848841.375    24848841.673
                        38.500          17.750
 109206517.225 8  85095992.577 7  20781305.474    20781305.146    20781305.947
  20781305.540          51.250          45.250
 130896920.100 5 101997618.762 5  24908853.851    24908857.694    24908854.530
  24908857.829          35.250          34.250
 133247061.852 4 103828856.653 4  25356075.005    25356077.985    25356075.876
  25356077.782          29.500          27.250
 19  9 29 17 12 30.0000000  0  8G13G05G02G15G21G29G30G25
 110037697.280 8  85743664.16446  20939470.020    20939469.407    20939470.467
                        49.500          39.000
 108733989.481 8  84727791.996 7  20691384.457    20691384.033    20691384.787
  20691384.347          51.000          46.250
 116000652.557 7  90390117.85145  22074189.424    22074187.262    22074190.403
                        46.250          35.250
 115544122.620 8  90034400.811 7  21987310.152    21987310.044    21987310.420
  21987309.985          48.000          42.000
 130502578.044 6 101690313.34743  24833811.339    24833811.885    24833812.470
                        38.250          18.500
 109193366.337 8  85085745.138 7  20778802.810    20778802.473    20778803.283
  20778802.953          51.500          45.500
 130859963.763 5 101968821.640 5  24901820.510    24901825.294    24901821.104
  24901826.656          33.750          35.750
 133329902.265 5 103893407.640 4  25371837.675    25371842.095    25371838.462
  25371842.290          30.500          28.750
 19  9 29 17 13  0.0000000  0  8G13G05G02G15G21G29G30G25
 109986446.245 8  85703728.30846  20929716.951    20929716.812    20929717.402
                        49.500          39.250
 108780990.178 8  84764415.911 7  20700328.462    20700327.953    20700328.792
  20700328.223          50.500          46.000
 116053395.052 7  90431215.87445  22084225.853    22084223.693    22084226.836
                        46.000          34.750
 115444621.888 7  89956867.816 7  21968375.446    21968375.710    21968375.732
  21968376.086          47.500          42.000
 130423568.928 6 101628747.85043  24818776.500    24818776.935    24818777.600
                        38.750          18.250
 109180829.563 8  85075976.216 7  20776417.361    20776416.938    20776417.830
  20776417.420          50.750          45.750
 130823382.742 5 101940316.947 5  24894860.984    24894864.109    24894861.614
  24894864.657          30.750          34.750
 133412720.552 4 103957941.322 4                                  25387600.968
  25387601.703          27.750          26.000
 19  9 29 17 13 30.0000000  0  8G13G05G02G15G21G29G30G25
 109935746.957 8  85664222.38346  20920069.249    20920068.866    20920069.709
                        49.500          38.750
 108828252.760 8  84801243.897 7  20709322.132    20709321.795    20709322.462
  20709322.245          51.000          46.000
 116106425.929 7  90472538.61845  22094317.557    22094314.755    22094318.536
                        45.750          34.000
 115345448.019 8  89879589.503 6  21949503.383    21949503.705    21949503.655
  21949503.970          48.000          41.750
 130344531.954 6 101567160.60542  24803736.457    24803736.458    24803737.516
                        39.000          17.750
 109168907.536 8  85066686.330 7  20774148.634    20774148.377    20774149.099
  20774148.393          51.750          45.500
 130787179.223 5 101912106.452 5  24887971.031    24887974.997    24887971.791
  24887975.148          35.500          33.750
                 104022455.367 4                                  25403347.346
  25403360.287          22.500          26.500
 19  9 29 17 14  0.0000000  0  8G13G05G02G15G21G29G30G25
 109885601.517 8  85625148.01846  20910527.007    20910526.316    20910527.467
                        49.250          38.750
 108875775.714 8  84838274.767 7  20718365.556    20718365.003    20718365.891
  20718365.360          50.500          46.000
 116159745.256 7  90514086.11645  22104463.410    22104461.716    22104464.389
                        46.000          34.750
 115246603.548 8  89802567.871 7  21930694.077    21930694.115    21930694.354
  21930694.313          48.000          42.250
 130265467.591 6 101505552.06143  24788690.679    24788690.405    24788691.752
                        38.750          18.250
 109157601.283 8  85057876.257 7  20771996.992    20771996.655    20771997.461
  20771997.022          51.000          45.500
 130751355.252 5 101884191.653 5  24881153.754    24881157.843    24881154.523
  24881159.024          34.750          33.000
                                                                  25419103.775
  25419108.581          21.750          22.500
 19  9 29 17 14 30.0000000  0  8G13G05G02G15G21G29G30G25
 109836011.402 8  85586506.38646  20901090.295    20901089.905    20901090.760
                        49.250          39.000
 108923558.129 8  84875507.819 7  20727458.232    20727457.681    20727458.571
  20727458.098          50.750          45.750
 116213353.249 7  90555858.54345  22114664.701    22114663.244    22114665.680
                        46.250          34.750
 115148091.102 8  89725804.951 7  21911947.708    21911947.983    21911947.994
  21911948.006          48.000          42.250
 130186376.867 6 101443922.95842  24773640.042    24773639.965    24773641.146
                        38.750          17.750
 109146911.251 8  85049546.357 7  20769962.781    20769962.321    20769963.250
  20769962.839          51.250          45.500
 130715912.900 6 101856574.249 5  24874409.548    24874413.402    24874410.326
  24874414.466          36.750          32.250
                                                                  25434845.809
  25434851.778          19.000          18.500
                            4  1
RINEX FILE SPLICE; other post-header comments skipped       COMMENT
 19  9 29 17 15  0.0000000  0  8G13G05G02G15G21G29G30G25
 109786978.839 8  85548299.20746  20891759.719    20891759.418    20891760.184
                        49.500          39.250
 108971598.156 8  84912941.595 7  20736599.899    20736599.412    20736600.238
  20736599.626          50.750          45.500
 116267250.164 7  90597856.11045  22124921.061    22124919.242    22124922.040
                        46.250          34.750
 115049913.301 8  89649302.813 7  21893265.136    21893265.392    21893265.417
  21893265.576          48.500          42.000
 130107260.593 6 101382273.95443  24758584.155    24758584.781    24758585.317
                        38.750          18.000
 109136838.282 8  85041697.291 7  20768046.124    20768045.771    20768046.584
  20768045.870          51.000          45.500
 130680854.345 6 101829255.872 5  24867738.767    24867741.746    24867739.625
  24867743.061          36.250          32.750
                                                                  25450581.873
  25450590.101          20.500          19.500
 19  9 29 17 15 30.0000000  0  8G13G05G02G15G21G29G30G25
 109738505.093 8  85510527.46846  20882535.511    20882535.015    20882535.971
                        49.250          39.000
 109019894.359 8  84950574.986 7  20745790.594    20745789.844    20745790.929
  20745790.257          51.000          45.750
 116321435.723 7  90640078.59545  22135232.172    22135230.249    22135233.155
                        45.750          34.000
 114952072.668 8  89573063.391 7  21874646.409    21874646.754    21874646.690
  21874647.131          48.500          42.000
 130028119.214 6 101320605.36642  24743524.607    24743524.826    24743525.715
                        38.500          17.500
 109127382.839 8  85034329.416 7  20766246.562    20766246.425    20766247.022
  20766246.274          51.500          45.250
 130646181.511 5 101802238.094 5  24861139.589    24861143.603    24861140.384
  24861144.192          35.750          32.750
                                                                  25466316.386
  25466319.793          22.000          21.750
 19  9 29 17 16  0.0000000  0  8G13G05G02G15G21G29G30G25
 109690591.730 8  85473192.39046  20873417.871    20873417.520    20873418.336
                        48.750          39.250
 109068445.195 8  84988406.810 7  20755029.410    20755028.735    20755029.745
  20755029.186          50.500          45.250
 116375910.243 7  90682526.24545  22145598.320    22145596.373    22145599.299
                        46.000          34.500
 114854571.790 8  89497088.713 7  21856092.754    21856092.744    21856093.022
  21856092.894          48.250          42.000
 129948953.808 6 101258918.05543  24728459.695    24728460.355    24728460.817
                        37.500          18.250
 109118545.488 8  85027443.161 7  20764564.927    20764564.532    20764565.383
  20764564.832          51.250          45.250
 130611896.463 5 101775522.501 5  24854615.882    24854619.524    24854616.736
  24854620.303          35.750          34.500
                                                                  25482034.372
  25482044.366          18.250          20.000
 19  9 29 17 16 30.0000000  0  8G13G05G02G15G21G29G30G25
 109643240.577 8  85436295.39746  20864407.015    20864406.641    20864407.475
                        49.500          39.250
 109117249.478 8  85026436.107 7  20764316.642    20764315.911    20764316.981
  20764316.324          50.500          45.750
 116430673.810 7  90725199.12245  22156019.689    22156017.830    22156020.663
                        46.000          34.500
 114757413.309 8  89421380.832 7  21837603.838    21837604.271    21837604.101
  21837604.599          48.500          42.250
 129869764.775 6 101197212.35943  24713390.947    24713390.843    24713392.051
                        38.000          18.000
 109110326.697 8  85021038.904 7  20763001.076    20763000.663    20763001.532
  20763000.874          51.250          45.250
 130578001.188 5 101749110.666 5  24848165.654    24848169.325    24848166.445
  24848170.284          32.750          33.000
                                                                  25497747.457
                        20.750
 19  9 29 17 17  0.0000000  0  8G13G05G02G15G21G29G30G25
 109596453.502 8  85399837.94646  20855503.857    20855503.261    20855504.313
                        49.250          39.500
 109166305.984 8  85064661.952 7  20773651.853    20773651.089    20773652.188
  20773651.600          50.750          45.500
 116485726.189 7  90768097.04245  22166495.857    22166493.934    22166496.831
                        46.250          34.750
 114660599.435 8  89345941.477 7  21819180.729    21819181.293    21819180.992
  21819181.432          48.500          42.250
 129790552.840 6 101135488.79842  24698317.342    24698317.084    24698318.464
                        37.750          17.000
 109102727.512 8  85015117.456 7  20761554.907    20761554.790    20761555.363
  20761554.877          51.500          46.000
 130544497.781 5 101723004.111 5  24841789.655    24841793.663    24841790.442
  24841794.889          35.500          33.250
                                                                  25513461.477
  25513472.226          24.000          19.500
 19  9 29 17 17 30.0000000  0  8G13G05G02G15G21G29G30G25
 109550232.158 8  85363821.32846  20846708.107    20846707.767    20846708.563
                        49.250          39.250
 109215612.739 8  85103082.786 7  20783034.462    20783033.841    20783034.792
  20783034.077          51.000          45.750
 116541067.639 7  90811220.21445  22177026.852    22177025.007    22177027.831
                        45.500          34.000
 114564133.197 8  89270772.997 7  21800823.898    21800824.218    21800824.166
  21800824.242          48.250          42.500
 129711318.905 6 101073748.11242  24683239.504    24683239.350    24683240.559
                        37.000          17.500
 109095748.247 8  85009679.068 7  20760226.878    20760226.531    20760227.334
  20760226.803          51.000          45.250
 130511388.215 5 101697204.474 5  24835489.669    24835493.169    24835490.424
  24835493.525          34.750          33.750

  25529167.755                          22.000
 19  9 29 17 18  0.0000000  0  7G13G05G02G15G21G29G30
 109504577.953 8  85328246.63246  20838020.579    20838020.031    20838021.039
                        49.500          39.250
 109265168.990 8  85141698.040 7  20792464.637    20792464.180    20792464.958
  20792464.506          51.000          45.500
 116596698.188 7  90854568.66645  22187612.975    22187611.050    22187613.958
                        46.250          34.000
 114468016.864 8  89195877.181 7  21782533.535    21782533.641    21782533.807
  21782533.851          48.500          42.250
 129632063.852 6 101011990.96442  24668157.293    24668157.877    24668158.437
                        38.000          17.000
 109089389.301 8  85004724.048 7  20759016.771    20759016.300    20759017.227
  20759016.855          51.500          45.750
 130478674.440 5 101671713.240 5  24829264.272    24829267.969    24829265.067
  24829269.030          33.250          33.250
 19  9 29 17 18 30.0000000  0  7G13G05G02G15G21G29G30
 109459492.616 8  85293115.21746  20829440.865    20829440.548    20829441.325
                        49.000          39.000
 109314973.063 8  85180506.400 7  20801942.172    20801941.583    20801942.498
  20801942.014          50.250          45.750
 116652617.923 7  90898142.46345  22198254.268    22198252.229    22198255.251
                        45.750          34.250
 114372252.928 8  89121255.976 7  21764310.412    21764310.326    21764310.693
  21764311.030          48.250          42.750
 129552788.503 6 100950218.04242  24653071.176    24653071.866    24653072.334
                        37.250          16.750
 109083651.450 8  85000252.977 7  20757925.005    20757924.661    20757925.465
  20757924.797          51.000          45.750
 130446358.446 5 101646532.018 5  24823114.469    24823118.589    24823115.300
  24823119.753          34.500          34.250
 19  9 29 17 19  0.0000000  0  8G13G05G02G15G21G29G30G25
 109414977.689 8  85258428.27646  20820970.057    20820969.685    20820970.522
                        49.250          39.750
 109365023.471 8  85219506.716 7  20811466.509    20811465.808    20811466.830
  20811465.991          50.250          45.000
 116708826.852 7  90941941.59145  22208950.760    22208948.864    22208951.752
                        45.750          34.750
 114276844.103 8  89046911.447 7  21746154.757    21746154.635    21746155.047
  21746155.143          48.250          42.250
 129473493.263 6 100888429.58142  24637981.822    24637982.666    24637983.056
                        37.750          16.750
 109078535.117 8  84996266.231 7  20756951.368    20756951.059    20756951.828
  20756951.189          51.250          45.250
 130414442.178 5 101621662.171 5  24817041.122    24817045.464    24817041.962
  24817046.341          35.250          32.750
                                                                  25576191.169
                        20.250
 19  9 29 17 19 30.0000000  0  8G13G05G02G15G21G29G30G25
 109371034.876 8  85224187.14146  20812608.173    20812607.706    20812608.633
                        49.750          39.500
 109415318.650 8  85258697.748 7  20821037.469    20821036.592    20821037.786
  20821037.010          50.750          45.000
 116765324.957 7  90985966.06045  22219701.862    22219700.067    22219702.845
                        46.000          34.000
 114181792.775 8  88972845.498 7  21728066.858    21728066.926    21728067.148
  21728067.562          49.000          42.000
 129394179.160 6 100826626.43842  24622890.201    24622890.198    24622891.430
                        38.250          16.750
 109074040.711 8  84992764.089 7  20756096.020    20756095.633    20756096.489
  20756096.192          51.500          45.000
 130382927.637 6 101597105.387 5  24811044.122    24811048.454    24811044.976
  24811049.136          36.250          33.000
                                                                  25591843.261
                        20.750
 19  9 29 17 20  0.0000000  0  8G13G05G02G15G21G29G30G25
 109327665.653 8  85190392.95546  20804355.249    20804354.781    20804355.696
                        49.250          39.500
 109465857.475 8  85298078.643 7  20830654.229    20830653.795    20830654.546
  20830654.268          50.750          45.000
 116822112.041 7  91030215.71745  22230507.852    22230505.953    22230508.840
                        45.750          34.000
 114087101.546 8  88899060.144 7  21710047.843    21710047.768    21710048.129
  21710048.267          49.000          42.750
 129314846.631 6 100764808.88842  24607792.845    24607793.915    24607794.079
                        37.500          17.000
 109070168.358 8  84989746.667 7  20755359.032    20755358.795    20755359.505
  20755359.160          51.250          45.250
 130351816.690 6 101572863.106 5  24805123.853    24805128.138    24805124.774
  24805128.658          36.000          33.000
                                                                  25607489.656
                        25.250
 19  9 29 17 20 30.0000000  0  8G13G05G02G15G21G29G30G25
 109284871.449 8  85157046.84446  20796211.748    20796211.178    20796212.204
                        49.250          39.250
 109516638.840 8  85337648.531 7  20840317.843    20840317.267    20840318.151
  20840317.842          50.500          45.250
 116879188.355 7  91074690.74245  22241369.378    22241367.243    22241370.357
                        46.000          34.250
 113992773.140 8  88825557.519 7  21692097.829    21692097.857    21692098.119
  21692098.053          49.000          43.000
 129235497.041 6 100702978.09642  24592692.805    24592694.041    24592694.048
                        37.750          16.500
 109066918.512 8  84987214.318 7  20754740.749    20754740.423    20754741.227
  20754740.712          51.250          45.750
 130321111.222 6 101548936.850 5  24799280.718    24799284.662    24799281.630
  24799285.488          36.250          31.000
                                                                  25623121.406
                        20.750
 19  9 29 17 21  0.0000000  0  8G13G05G02G15G21G29G30G25
 109242653.666 8  85124149.88946  20788178.041    20788177.412    20788178.488
                        49.750          39.750
 109567660.513 8  85377405.673 7  20850027.042    20850026.416    20850027.341
  20850026.775          50.250          45.500
 116936553.958 7  91119391.18745  22252285.690    22252284.025    22252286.664
                        46.250          34.500
 113898809.271 8  88752338.943 7  21674217.036    21674217.188    21674217.322
  21674217.521          49.500          43.250
 129156130.951 6 100641134.41042  24577590.537    24577591.248    24577591.757
                        39.000          17.250
 109064291.766 8  84985167.504 7  20754240.841    20754240.540    20754241.319
  20754240.756          51.500          45.500
 130290813.155 5 101525327.972 5  24793515.033    24793518.925    24793515.891
  24793519.751          35.500          33.500
                                                                  25638733.213
                        21.750
 19  9 29 17 21 30.0000000  0  8G13G05G02G15G21G29G30G25
 109201013.782 8  85091703.24446  20780254.248    20780253.576    20780254.699
                        49.250          39.750
 109618922.011 8  85417349.680 7  20859781.758    20859781.234    20859782.066
  20859781.615          50.500          45.500
 116994208.668 7  91164316.91445  22263257.086    22263255.120    22263258.051
                        45.500          34.250
 113805212.914 8  88679406.740 7  21656405.916    21656406.179    21656406.211
  21656406.210          49.250          43.000
 129076749.280 6 100579278.57442  24562484.683    24562484.716    24562485.930
                        40.000          17.750
 109062288.237 8  84983606.308 7  20753859.637    20753859.294    20753860.110
  20753859.571          51.500          45.750
 130260924.321 5 101502038.052 5  24787828.133    24787831.102    24787828.902
  24787832.245          34.750          30.750
                                                                  25654345.012
                        22.000
 19  9 29 17 22  0.0000000  0  8G13G05G02G15G21G29G30G25
 109159953.346 8  85059708.11546  20772440.600    20772440.033    20772441.051
                        49.500          39.750
 109670421.436 8  85457479.089 7  20869581.942    20869581.260    20869582.246
  20869581.465          50.250          45.500
 117052152.260 7  91209467.73145  22274283.293    22274281.443    22274284.263
                        45.750          34.000
 113711986.689 8  88606762.949 7  21638665.777    21638665.656    21638666.085
  21638666.138          49.000          43.000
 128997352.664 6 100517411.10842  24547375.675    24547375.985    24547376.949
                        39.250          17.750
 109060908.464 8  84982531.167 7  20753596.956    20753596.792    20753597.434
  20753597.206          51.000          45.750
 130231446.642 5 101479068.427 5  24782218.296    24782221.581    24782219.141
  24782221.806          35.500          32.500
                                                                  25669934.881
                        21.250
 19  9 29 17 22 30.0000000  0  7G13G05G02G15G21G29G30
 109119473.509 8  85028165.40546  20764737.658    20764737.051    20764738.105
                        49.000          39.750
 109722157.702 8  85497793.047 7  20879426.964    20879426.387    20879427.272
  20879426.710          50.250          45.500
 117110385.061 7  91254843.91645  22285364.847    22285362.773    22285365.821
                        45.000          33.750
 113619132.933 8  88534409.394 7  21620996.224    21620996.143    21620996.537
  21620996.421          48.750          43.250
 128917942.023 6 100455532.72342  24532264.529    24532264.507    24532265.798
                        39.250          17.750
 109060152.491 8  84981942.083 7  20753453.168    20753452.833    20753453.641
  20753453.044          51.000          45.500
 130202381.917 6 101456420.666 5  24776686.862    24776690.323    24776687.765
  24776692.595          37.000          30.000
 19  9 29 17 23  0.0000000  0  7G13G05G02G15G21G29G30
 109079576.056 8  84997076.49846  20757145.259    20757144.562    20757145.706
                        49.250          39.750
 109774129.292 8  85538290.385 7  20889316.652    20889316.158    20889316.960
  20889316.577          50.250          45.000
 117168906.894 7  91300445.32845  22296501.076    22296498.897    22296502.055
                        45.250          33.500
 113526653.946 8  88462347.865 7  21603398.108    21603398.081    21603398.425
  21603398.290          48.750          43.250
 128838518.227 6 100393644.06643  24517150.742    24517150.571    24517152.025
                        39.000          18.250
 109060020.808 8  84981839.473 7  20753428.357    20753427.747    20753428.830
  20753428.382          51.250          45.500
 130173731.933 6 101434096.052 5  24771235.015    24771238.771    24771235.824
  24771240.092          36.750          32.500
 19  9 29 17 23 30.0000000  0  7G13G05G02G15G21G29G30
 109040262.145 8  84966442.30546  20749663.911    20749663.596    20749664.367
                        49.750          40.000
 109826335.349 8  85578970.417 7  20899251.163    20899250.659    20899251.467
  20899251.015          50.750          45.000
 117227717.697 7  91346271.89745  22307692.141    22307690.519    22307693.102
                        46.000          34.000
 113434552.570 8  88390580.583 7  21585871.750    21585871.802    21585872.071
  21585872.167          49.000          42.750
 128759082.098 6 100331745.81643  24502034.841    24502034.479    24502036.079
                        38.000          18.500
 109060513.501 8  84982223.395 7  20753521.745    20753521.562    20753522.227
  20753521.847          51.500          45.000
 130145498.631 6 101412096.048 5  24765863.474    24765866.859    24765864.274
  24765866.125          36.250          31.000
 19  9 29 17 24  0.0000000  0  7G13G05G02G15G21G29G30
 109001533.091 8  84936263.83746  20742294.005    20742293.580    20742294.465
                        49.750          39.500
 109878773.907 8  85619831.614 7  20909229.983    20909229.434    20909230.282
  20909229.689          51.000          44.750
 117286817.512 7  91392323.68645  22318938.628    22318936.900    22318939.598
                        46.000          33.750
 113342830.936 8  88319109.214 7  21568417.770    21568417.481    21568418.083
  21568417.764          49.250          43.000
 128679634.480 6 100269838.59643  24486915.894    24486916.410    24486917.114
                        38.750          18.500
 109061630.561 8  84983093.825 7  20753734.491    20753734.130    20753734.969
  20753734.256          51.750          45.250
 130117683.726 6 101390422.085 4  24760570.154    24760573.638    24760571.048
  24760574.364          38.000          29.000
 19  9 29 17 24 30.0000000  0  7G13G05G02G15G21G29G30
 108963390.397 8  84906542.27146  20735035.679    20735035.157    20735036.144
                        49.500          39.750
 109931443.683 8  85660872.990 7  20919252.758    20919252.017    20919253.057
  20919252.446          50.250          45.000
 117346206.221 7  91438600.56945  22330240.193    22330238.291    22330241.163
                        45.500          33.750
 113251491.501 8  88247935.644 7  21551036.420    21551036.222    21551036.737
  21551036.883          49.250          43.250
 128600176.151 6 100207923.04643  24471795.550    24471795.793    24471796.824
                        38.500          18.500
 109063372.698 8  84984451.345 7  20754066.080    20754065.643    20754066.562
  20754066.182          51.500          45.750
 130090288.904 5 101369075.520 5  24755356.269    24755360.285    24755357.158
  24755360.857          35.750          31.250
 19  9 29 17 25  0.0000000  0  7G13G05G02G15G21G29G30
 108925834.936 8  84877278.29046  20727889.322    20727888.605    20727889.791
                        49.500          39.750
 109984343.537 8  85702093.642 7  20929319.260    20929318.551    20929319.555
  20929318.961          50.000          45.000
 117405883.577 7  91485102.38245  22341596.225    22341594.397    22341597.186
                        45.000          33.250
 113160536.617 8  88177061.724 7  21533728.305    21533728.198    21533728.626
  21533728.466          49.000          43.500
 128520708.197 6 100145999.97843  24456673.484    24456673.396    24456674.758
                        37.500          18.500
 109065739.597 8  84986295.666 7  20754516.538    20754516.074    20754517.011
  20754516.343          51.250          45.500
 130063316.124 5 101348057.775 5  24750223.418    24750227.498    24750224.334
  24750227.355          35.500          33.000
 19  9 29 17 25 30.0000000  0  7G13G05G02G15G21G29G30
 108888868.140 8  84848473.01346  20720854.794    20720854.247    20720855.267
                        49.750          40.000
 110037472.260 8  85743492.643 7  20939429.288    20939428.559    20939429.578
  20939428.895          50.250          45.000
 117465849.461 7  91531829.01645  22353007.576    22353005.401    22353008.532
                        45.750          33.000
 113069968.922 8  88106489.520 7  21516493.669    21516493.496    21516493.995
  21516493.716          49.500          43.250
 128441231.486 6 100084070.12443  24441549.297    24441549.143    24441550.522
                        39.250          19.250
 109068731.377 8  84988626.926 7  20755085.889    20755085.320    20755086.362
  20755085.796          51.250          45.750
 130036767.029 6 101327370.135 5  24745172.787    24745175.736    24745173.672
  24745177.002          36.250          34.000
 19  9 29 17 26  0.0000000  0  7G13G05G02G15G21G29G30
 108852491.402 8  84820127.52146  20713932.393    20713931.835    20713932.871
                        49.250          39.750
 110090828.005 8  85785068.534 7  20949582.528    20949581.919    20949582.814
  20949582.298          50.500          45.000
 117526104.026 7  91578780.60145  22364473.602    22364471.974    22364474.554
                        45.750          33.500
 112979790.783 8  88036220.867 7  21499333.621    21499333.135    21499333.938
  21499333.510          49.500          43.250
 128361746.703 6 100022133.96643  24426423.924    24426424.032    24426425.126
                        39.250          19.000
 109072348.218 8  84991445.244 7  20755774.066    20755773.561    20755774.544
  20755774.026          51.500          45.500
 130010643.342 6 101307013.979 5  24740199.709    24740204.910    24740200.616
  24740205.815          37.500          32.750
 19  9 29 17 26 30.0000000  0  7G13G05G02G15G21G29G30
 108816705.724 8  84792242.59446  20707122.633    20707122.001    20707123.111
                        49.250          40.250
 110144409.773 8  85826820.563 7  20959778.716    20959778.265    20959779.006
  20959778.629          50.500          45.000
 117586647.167 7  91625957.06045  22375994.269    22375992.394    22375995.225
                        45.000          33.000
 112890004.405 8  87966257.474 7  21482247.386    21482247.495    21482247.699
  21482247.971          49.500          43.500
 128282254.892 6  99960192.32643  24411296.703    24411297.199    24411297.932
                        39.500          19.500
 109076590.038 8  84994750.552 7  20756581.234    20756581.020    20756581.707
  20756580.985          51.250          45.750
 129984946.828 6 101286990.726 5  24735311.124    24735314.583    24735312.031
  24735315.465          37.250          31.000
 19  9 29 17 27  0.0000000  0  7G13G05G02G15G21G29G30
 108781512.633 8  84764819.42346  20700425.407    20700425.040    20700425.885
                        50.000          40.250
 110198216.309 8  85868747.730 7  20970017.824    20970017.275    20970018.110
  20970017.791          50.750          44.750
 117647478.334 7  91673357.92945  22387570.442    22387568.629    22387571.407
                        45.000          33.500
 112800612.257 8  87896601.278 7  21465236.639    21465236.749    21465236.947
  21465236.946          50.000          43.250
 128202756.758 6  99898245.74743  24396168.839    24396169.543    24396170.104
                        40.250          19.500
 109081457.199 8  84998543.149 7  20757507.229    20757507.004    20757507.702
  20757507.329          52.000          45.500
 129959679.196 6 101267301.577 5  24730502.853    24730506.086    24730503.698
  24730505.670          37.250          31.250
 19  9 29 17 27 30.0000000  0  7G13G05G02G15G21G29G30
 108746913.067 8  84737858.73946  20693841.378    20693840.920    20693841.856
                        49.250          40.000
 110252246.058 8  85910848.820 7  20980299.362    20980298.908    20980299.657
  20980299.227          50.000          44.750
 117708597.478 7  91720983.20045  22399200.965    22399199.247    22399201.939
                        45.500          33.500
 112711616.858 8  87827254.237 7  21448301.573    21448301.539    21448301.877
  21448301.738          49.750          43.500
 128123253.481 6  99836295.16943  24381039.762    24381040.425    24381041.040
                        40.000          19.000
 109086949.604 8  85002822.934 7  20758552.814    20758552.036    20758553.287
  20758552.515          51.000          45.500
 129934842.139 6 101247948.005 5  24725776.135    24725779.738    24725776.975
  24725781.723          38.500          31.500
 19  9 29 17 28  0.0000000  0  7G13G05G02G15G21G29G30
 108712908.189 8  84711361.44846  20687370.388    20687369.928    20687370.866
                        49.500          40.000
 110306498.016 8  85953123.070 7  20990623.218    20990622.704    20990623.513
  20990622.728          50.250          45.000
 117770005.028 7  91768833.22045  22410886.350    22410884.429    22410887.324
                        45.500          32.750
 112623020.420 8  87758218.073 7  21431442.219    21431441.908    21431442.518
  21431442.454          49.500          43.500
 128043745.719 6  99774341.08943  24365909.940    24365910.373    24365911.209
                        40.500          19.500
 109093067.056 8  85007589.779 7  20759716.766    20759716.392    20759717.239
  20759716.543          51.500          45.750
 129910437.255 6 101228931.221 5  24721132.244    24721136.088    24721133.093
  24721134.700          37.000          32.250
 19  9 29 17 28 30.0000000  0  7G13G05G02G15G21G29G30
 108679499.131 8  84685328.42946  20681012.926    20681012.444    20681013.399
                        49.250          40.250
 110360970.611 8  85995569.237 7  21000988.928    21000988.649    21000989.227
  21000988.942          50.250          45.250
 117831700.495 7  91816907.57545  22422626.300    22422625.050    22422627.283
                        45.000          32.750
 112534825.190 8  87689494.541 7  21414659.282    21414658.831    21414659.581
  21414659.507          49.750          43.750
 127964234.530 6  99712384.34943  24350779.837    24350779.918    24350781.106
                        39.750          19.500
 109099809.785 8  85012843.851 7  20760999.787    20760999.543    20761000.256
  20760999.508          51.500          45.750
 129886466.199 6 101210252.441 5  24716570.193    24716574.715    24716570.997
  24716574.533          36.500          31.750
 19  9 29 17 29  0.0000000  0  7G13G05G02G15G21G29G30
 108646686.932 8  84659760.49646  20674769.013    20674768.315    20674769.486
                        49.250          40.000
 110415662.895 8  86038186.591 7  21011396.592    21011396.203    21011396.891
  21011396.629          50.250          45.000
 117893683.644 7  91865206.10245  22434421.503    22434419.634    22434422.491
                        44.500          32.000
 112447033.625 8  87621085.549 7  21397953.134    21397952.844    21397953.429
  21397953.008          49.750          43.750
 127884720.755 6  99650425.59643  24335648.539    24335649.280    24335649.768
                        39.500          19.500
 109107177.487 8  85018584.912 7  20762401.732    20762401.387    20762402.201
  20762401.955          51.250          45.250
 129862930.596 6 101191912.997 4  24712092.028    24712095.558    24712092.806
  24712096.978          37.250          29.500
 19  9 29 17 29 30.0000000  0  7G13G05G02G15G21G29G30
 108614472.759 8  84634658.55646  20668638.675    20668638.302    20668639.144
                        49.500          40.500
 110470573.181 8  86080973.820 7  21021845.813    21021844.995    21021846.099
  21021845.458          50.250          44.500
 117955954.258 7  91913728.64145  22446271.300    22446269.443    22446272.288
                        45.250          33.000
 112359647.895 8  87552992.796 7  21381323.753    21381323.944    21381324.061
  21381324.276          49.750          43.750
 127805205.175 6  99588465.43343  24320517.002    24320517.640    24320518.227
                        39.250          19.250
 109115170.031 8  85024812.866 7  20763922.758    20763922.365    20763923.227
  20763922.730          51.500          45.750
 129839832.215 6 101173914.284 5  24707696.355    24707700.150    24707697.186
  24707700.603          37.250          32.000
                            4  1
RINEX FILE SPLICE; other post-header comments skipped       COMMENT
 19  9 29 17 30  0.0000000  0  7G13G05G02G15G21G29G30
 108582857.443 8  84610023.26346  20662622.583    20662622.266    20662623.052
                        49.500          40.500
 110525700.350 8  86123930.048 7  21032335.926    21032335.309    21032336.216
  21032335.622          50.250          44.500
 118018512.252 7  91962475.10645  22458175.836    22458174.181    22458176.819
                        45.000          33.500
 112272670.509 8  87485218.232 7  21364772.809    21364772.694    21364773.113
  21364772.708          49.750          43.750
 127725689.026 6  99526504.84043  24305386.159    24305385.307    24305387.406
                        39.750          19.250
 109123787.375 8  85031527.672 7  20765562.508    20765562.369    20765562.981
  20765562.577          51.250          45.250
 129817172.548 6 101156257.387 5  24703384.349    24703388.504    24703385.149
  24703389.388          37.250          33.500
 19  9 29 17 30 30.0000000  0  7G13G05G02G15G21G29G30
 108551842.249 8  84585855.58546  20656720.659    20656720.010    20656721.128
                        49.500          40.250
 110581043.250 8  86167054.378 7  21042867.614    21042866.696    21042867.900
  21042867.414          50.250          45.000
 118081357.471 7  92011445.38445  22470134.540    22470133.343    22470135.523
                        44.750          32.500
 112186103.749 8  87417763.640 7  21348299.631    21348299.286    21348299.935
  21348299.765          50.000          43.750
 127646173.325 6  99464544.58843  24290254.872    24290254.173    24290256.074
                        40.000          19.750
 109133029.152 8  85038729.050 7  20767321.206    20767320.754    20767321.679
  20767321.179          51.750          45.500
 129794953.156 6 101138943.505 5  24699155.962    24699160.701    24699156.749
  24699160.270          37.500          32.000
 19  9 29 17 31  0.0000000  0  7G13G05G02G15G21G29G30
 108521428.043 8  84562156.21346  20650932.869    20650932.322    20650933.338
                        49.750          40.250
 110636600.044 8  86210345.383 7  21053439.713    21053439.056    21053439.999
  21053439.550          50.500          44.750
 118144489.897 7  92060639.44145  22482148.644    22482147.055    22482149.645
                        44.250          32.000
 112099949.906 8  87350630.792 7  21331905.150    21331904.922    21331905.454
  21331905.129          50.000          43.750
 127566658.924 6  99402585.34443  24275123.395    24275124.084    24275124.584
                        40.250          20.500
 109142895.436 8  85046417.053 7  20769198.676    20769198.312    20769199.149
  20769198.840          51.500          45.500
 129773175.613 6 101121974.003 4  24695011.504    24695016.035    24695012.317
  24695015.965          39.000          29.750
 19  9 29 17 31 30.0000000  0  7G13G05G02G15G21G29G30
 108491615.876 8  84538925.96046  20645260.064    20645259.385    20645260.529
                        49.250          40.250
 110692369.878 8  86253802.393 7  21064052.089    21064051.768    21064052.366
  21064052.063          50.250          44.500
 118207909.059 7  92110056.94445  22494216.703    22494215.137    22494217.691
                        45.250          32.500
 112014211.258 8  87283821.490 7  21315589.412    21315589.429    21315589.716
  21315589.690          50.500          44.000
 127487146.719 6  99340627.80143  24259993.083    24259993.317    24259994.241
                        40.500          20.500
 109153385.922 8  85054591.460 7  20771195.064    20771194.914    20771195.537
  20771195.013          51.250          45.500
 129751841.454 6 101105350.012 5  24690952.335    24690955.542    24690953.166
  24690956.920          38.250          31.750
 19  9 29 17 32  0.0000000  0  7G13G05G02G15G21G29G30
 108462406.465 8  84516165.38646  20639701.468    20639701.015    20639701.933
                        49.500          40.250
 110748351.903 8  86297424.740 7  21074705.432    21074704.671    21074705.704
  21074704.918          50.500          44.500
 118271615.084 7  92159697.98545  22506339.978    22506338.063    22506340.952
                        45.000          32.500
 111928890.138 8  87217337.524 7  21299353.571    21299353.218    21299353.870
  21299353.439          50.000          44.000
 127407637.715 6  99278672.77043  24244862.824    24244863.242    24244863.950
                        39.750          20.500
 109164500.333 8  85063252.026 7  20773310.064    20773309.571    20773310.537
  20773309.941          51.750          45.750
 129730952.246 6 101089072.714 5  24686977.226    24686981.142    24686978.124
  24686982.088          38.500          35.000
 19  9 29 17 32 30.0000000  0  7G13G05G02G15G21G29G30
 108433800.868 8  84493875.32046  20634258.208    20634257.660    20634258.673
                        49.250          40.750
 110804544.092 8  86341210.853 7  21085398.439    21085397.711    21085398.720
  21085398.323          50.000          44.500
 118335607.313 7  92209562.04445  22518517.086    22518515.074    22518518.060
                        44.750          32.000
 111843988.637 8  87151180.531 7  21283197.174    21283196.965    21283197.473
  21283197.412          50.500          43.750
 127328132.953 6  99216721.01843  24229733.977    24229734.039    24229735.063
                        40.500          20.750
 109176238.678 8  85072398.781 7  20775543.725    20775543.281    20775544.194
  20775543.591          51.250          45.500
 129710509.546 6 101073143.304 5  24683088.067    24683091.555    24683088.907
  24683091.267          38.250          32.250
 19  9 29 17 33  0.0000000  0  8G13G05G02G15G21G20G29G30
 108405800.029 8  84472056.48846  20628929.780    20628929.185    20628930.245
                        49.750          40.250
 110860945.495 8  86385159.980 7  21096131.019    21096130.504    21096131.300
  21096131.110          50.500          44.750
 118399885.664 7  92259649.05645  22530748.908    22530747.099    22530749.896
                        44.500          31.500
 111759509.356 8  87085352.548 7  21267121.279    21267121.003    21267121.578
  21267121.410          50.500          44.000
 127248633.365 6  99154773.29543  24214605.371    24214605.189    24214606.457
                        40.500          20.250
                                                                  25219323.513
                        31.750
 109188600.318 8  85082031.222 7  20777896.087    20777895.941    20777896.565
  20777895.935          51.500          45.750
 129690514.705 6 101057562.923 5  24679282.719    24679285.583    24679283.541
  24679287.243          39.000          31.250
 19  9 29 17 33 30.0000000  0  8G13G05G02G15G21G20G29G30
 108378404.755 8  84450709.52146  20623716.540    20623715.774    20623716.996
                        49.750          40.000
 110917554.650 8  86429271.000 7  21106903.476    21106902.938    21106903.757
  21106903.246          50.250          44.500
 118464449.808 7  92309958.74545  22543034.785    22543033.558    22543035.773
                        44.500          31.750
 111675453.859 8  87019854.776 7  21251125.948    21251125.795    21251126.247
  21251126.117          50.250          44.000
 127169139.995 6  99092830.45143  24199478.004    24199478.464    24199479.112
                        40.500          20.500
 132441786.421 5                                                  25202833.498
                        33.000
 109201585.025 8  85092149.173 7  20780366.972    20780366.718    20780367.445
  20780367.148          51.500          45.500
 129670969.316 6 101042332.774 5  24675563.115    24675566.409    24675563.928
  24675567.242          38.250          32.750
 19  9 29 17 34  0.0000000  0  8G13G05G02G15G21G20G29G30
 108351616.056 8  84429835.21446  20618619.095    20618618.263    20618619.555
                        49.000          40.000
 110974370.536 8  86473543.104 7  21117715.111    21117714.615    21117715.392
  21117715.104          50.250          44.250
 118529299.724 7  92360491.12445  22555375.335    22555373.944    22555376.323
                        44.250          31.750
 111591824.748 8  86954689.258 7  21235211.806    21235211.885    21235212.092
  21235212.130          50.000          44.000
 127089653.611 6  99030893.02243  24184352.450    24184351.873    24184353.567
                        40.250          20.000
 132355167.548 5 103133903.09641  25186349.440    25186351.744    25186350.191
                        34.250          11.250
 109215192.515 8  85102752.403 7  20782956.514    20782956.029    20782956.992
  20782956.557          51.000          45.500
 129651874.776 6 101027453.931 5  24671929.547    24671933.077    24671930.365
  24671933.002          38.000          33.500
 19  9 29 17 34 30.0000000  0  8G13G05G02G15G21G20G29G30
 108325434.509 8  84409434.01146  20613636.681    20613636.093    20613637.146
                        49.000          40.250
 111031392.289 8  86517975.635 7  21128566.320    21128565.369    21128566.601
  21128565.963          50.000          44.250
 118594435.065 7  92411245.90745  22567769.882    22567768.700    22567770.879
                        44.500          31.500
 111508624.317 8  86889857.783 7  21219379.347    21219379.229    21219379.642
  21219379.460          50.250          44.000
 127010175.713 6  98968962.23443  24169228.102    24169227.839    24169229.224
                        41.000          20.250
 132268594.586 5 103066443.68642  25169875.230    25169876.494    25169876.079
                        35.500          12.000
 109229422.487 8  85113840.683 7  20785664.139    20785664.106    20785664.608
  20785664.200          51.250          45.750
 129633232.527 6 101012927.523 5  24668382.002    24668385.824    24668382.815
  24668386.249          39.250          32.250
 19  9 29 17 35  0.0000000  0  8G13G05G02G15G21G20G29G30
 108299860.807 8  84389506.45746  20608770.229    20608769.510    20608770.694
                        49.500          40.250
 111088618.115 8  86562567.171 7  21139455.889    21139455.380    21139456.184
  21139455.957          49.750          44.750
 118659855.544 7  92462222.87945  22580219.578    22580217.845    22580220.579
                        44.750          31.500
 111425854.698 8  86825361.998 7  21203628.794    21203628.587    21203629.084
  21203628.907          50.000          44.000
 126930707.018 6  98907038.61343  24154105.745    24154105.142    24154106.871
                        41.000          21.000
 132182067.787 5 102999020.24241  25153409.187    25153411.067    25153409.978
                        33.000           6.000
 109244274.268 8  85125413.510 7  20788490.565    20788490.199    20788491.038
  20788490.292          51.000          45.250
 129615043.958 6 100998754.583 5  24664920.958    24664924.636    24664921.740
  24664924.240          38.250          31.750
 19  9 29 17 35 30.0000000  0  8G13G05G02G15G21G20G29G30
 108274895.714 8  84370053.14646  20604019.506    20604018.836    20604019.966
                        49.500          40.250
 111146046.813 8  86607316.783 7  21150384.085    21150383.798    21150384.380
  21150384.085          50.000          44.750
 118725560.857 7  92513421.81845  22592722.765    22592720.940    22592723.771
                        44.250          31.000
 111343518.234 8  86761203.733 7  21187960.641    21187960.392    21187960.927
  21187960.803          50.500          44.000
 126851248.391 6  98845122.82443  24138985.844    24138985.173    24138986.993
                        40.000          20.500
 132095587.355 5 102931633.02641  25136951.881    25136954.240    25136952.797
                        33.500           8.750
 109259747.449 8  85137470.523 7  20791434.940    20791434.543    20791435.413
  20791435.058          51.000          45.250
 129597310.513 6 100984936.378 5  24661546.135    24661549.777    24661546.944
  24661550.593          38.000          33.250
 19  9 29 17 36  0.0000000  0  8G13G05G02G15G21G20G29G30
 108250540.204 8  84351074.83346  20599384.591    20599384.013    20599385.051
                        49.250          40.000
 111203677.263 8  86652223.621 7  21161350.905    21161350.568    21161351.200
  21161350.829          50.250          44.750
 118791550.623 7  92564842.37645  22605280.013    22605279.116    22605281.019
                        44.250          31.500
 111261616.795 8  86697384.452 7  21172375.344    21172375.089    21172375.625
  21172375.417          50.250          44.500
 126771801.170 6  98783215.93043  24123867.395    24123867.414    24123868.557
                        40.250          20.750
 132009153.154 5 102864281.77241  25120505.355    25120506.481    25120506.387
                        31.500           8.250
 109275841.610 8  85150011.428 7  20794497.554    20794497.283    20794498.023
  20794497.621          51.500          45.500
 129580033.515 6 100971473.794 5  24658258.333    24658262.008    24658259.187
  24658262.657          38.750          31.750
 19  9 29 17 36 30.0000000  0  8G13G05G02G15G21G20G29G30
 108226794.953 8  84332572.04946  20594866.197    20594865.564    20594866.657
                        49.750          40.250
 111261507.856 8  86697286.411 7  21172355.611    21172355.299    21172355.910
  21172355.752          50.500          44.500
 118857824.513 7  92616484.33745  22617891.861    22617890.429    22617892.867
                        44.500          31.000
 111180152.456 8  86633905.762 7  21156873.304    21156872.997    21156873.585
  21156873.399          50.750          44.000
 126692366.290 6  98721318.64543  24108750.548    24108751.487    24108751.732
                        41.000          21.250
 131922766.057 5 102796967.28841  25104065.285    25104068.063    25104066.358
                        31.750           7.500
 109292556.314 8  85163035.864 7  20797678.293    20797678.019    20797678.766
  20797678.191          51.500          45.250
 129563214.404 6 100958368.009 5  24655058.162    24655062.133    24655058.998
  24655061.836          40.000          33.750
 19  9 29 17 37  0.0000000  0  8G13G05G02G15G21G20G29G30
 108203660.477 8  84314545.19346  20590463.927    20590463.242    20590464.387
                        49.000          40.500
 111319537.815 8  86742504.547 7  21183398.523    21183397.801    21183398.822
  21183398.385          49.500          44.500
 118924382.614 7  92668347.76445  22630557.727    22630555.531    22630558.737
                        44.000          31.250
 111099127.859 8  86570769.733 7  21141454.761    21141454.548    21141455.042
  21141454.804          50.250          44.500
 126612944.749 6  98659431.74443  24093637.624    24093637.711    24093638.804
                        40.750          21.500
 131836426.091 5 102729689.43841  25087635.931    25087637.913    25087636.852
                        31.000           6.000
 109309890.916 8  85176543.346 7  20800976.936    20800976.543    20800977.414
  20800976.956          51.250          45.500
 129546854.554 6 100945620.061 5  24651945.253    24651949.316    24651946.120
  24651949.328          38.250          34.000
 19  9 29 17 37 30.0000000  0  8G13G05G02G15G21G20G29G30
 108181137.326 8  84296994.69446  20586177.813    20586177.232    20586178.273
                        49.500          40.500
 111377766.332 8  86787877.421 7  21194478.863    21194478.410    21194479.162
  21194478.963          50.250          44.500
 118991224.480 7  92720432.31045  22643277.238    22643275.258    22643278.239
                        44.250          31.000
 111018544.688 8  86507977.666 7  21126120.307    21126120.196    21126120.593
  21126120.310          50.250          44.500
 126533537.428 6  98597555.93243  24078527.021    24078526.605    24078528.197
                        41.250          21.500
 131750133.423 5 102662448.48841  25071213.868    25071216.934    25071214.851
                        34.750           8.500
 109327845.230 8  85190533.707 7  20804393.603    20804393.323    20804394.076
  20804393.603          51.250          45.750
 129530955.161 6 100933230.939 5  24648919.130    24648923.539    24648919.970
  24648923.776          39.250          32.250
 19  9 29 17 38  0.0000000  0  8G13G05G02G15G21G20G29G30
 108159226.450 8  84279921.29746  20582008.405    20582007.547    20582008.865
                        49.000          40.250
 111436191.804 8  86833403.745 7  21205596.852    21205596.491    21205597.156
  21205596.770          50.250          44.000
 119058349.598 7  92772737.57345  22656050.341    22656048.886    22656051.342
                        44.750          30.750
 110938405.257 8  86445531.372 7  21110870.206    21110869.888    21110870.496
  21110870.346          50.500          44.000
 126454145.905 6  98535692.43143  24063419.272    24063418.562    24063420.456
                        40.750          21.750
 131663888.207 6 102595244.46442  25054802.390    25054804.895    25054803.552
                        36.750          13.750
 109346418.317 8  85205006.243 7  20807927.926    20807927.819    20807928.404
  20807927.931          51.000          45.250
 129515517.665 6 100921201.759 5  24645982.159    24645985.182    24645983.008
  24645986.732          39.000          31.500
 19  9 29 17 38 30.0000000  0  8G13G05G02G15G21G20G29G30
 108137928.207 8  84263325.27746  20577955.371    20577954.607    20577955.840
                        49.250          40.500
 111494812.650 8  86879082.315 7  21216751.892    21216751.665    21216752.200
  21216752.218          50.250          44.000
 119125757.610 7  92825263.26645  22668878.004    22668876.218    22668879.023
                        44.000          30.500
 110858712.025 8  86383432.773 7  21095705.149    21095704.810    21095705.435
  21095705.046          50.500          44.250
 126374770.872 6  98473841.79343  24048314.392    24048313.810    24048315.581
                        40.500          21.250
 131577690.828 6 102528077.75242  25038399.650    25038401.584    25038400.776
                        36.250          14.000
 109365609.835 8  85219960.660 7  20811579.930    20811579.534    20811580.412
  20811580.324          51.250          45.000
 129500543.255 6 100909533.409 5  24643131.937    24643136.007    24643132.750
  24643136.967          39.000          33.000
 19  9 29 17 39  0.0000000  0  8G13G05G02G15G21G20G29G30
 108117243.249 8  84247207.14346  20574019.251    20574018.538    20574019.716
                        49.000          40.500
 111553628.000 8  86924912.446 7  21227944.623    21227943.926    21227944.927
  21227944.248          49.750          44.000
 119193448.099 7  92878009.08345  22681759.316    22681757.635    22681760.331
                        44.250          31.000
 110779466.436 8  86321682.968 7  21080625.197    21080624.710    21080625.483
  21080625.593          50.250          44.250
 126295413.527 6  98412004.93443  24033213.266    24033213.132    24033214.446
                        40.250          21.250
 131491541.751 6 102460948.62442  25022006.276    25022007.690    25022007.398
                        36.250          12.750
 109385418.998 8  85235396.366 7  20815349.598    20815349.193    20815350.080
  20815349.347          50.750          45.500
 129486033.237 6 100898226.925 5  24640371.922    24640375.304    24640372.767
  24640376.063          38.000          33.750
 19  9 29 17 39 30.0000000  0  8G13G05G02G15G21G20G29G30
 108097172.228 8  84231567.40146  20570199.630    20570199.075    20570200.090
                        49.250          40.500
 111612636.572 8  86970893.154 7  21239173.393    21239172.778    21239173.692
  21239173.038          50.000          44.250
 119261420.983 7  92930974.92945  22694693.721    22694692.081    22694694.745
                        44.000          30.750
 110700670.806 8  86260283.807 7  21065630.789    21065630.443    21065631.075
  21065630.762          50.250          44.500
 126216075.131 6  98350182.83243  24018115.630    24018115.776    24018116.819
                        40.500          21.500
 131405440.961 6 102393857.15742  25005621.186    25005622.757    25005622.339
                        38.000          14.750
 109405845.224 8  85251312.899 7  20819236.305    20819236.343    20819236.783
  20819236.536          51.250          45.500
 129471988.833 6 100887283.269 5  24637698.167    24637701.555    24637699.021
  24637702.796          39.000          30.750
 19  9 29 17 40  0.0000000  0  8G13G05G02G15G21G20G29G30
 108077715.528 8  84216406.35146  20566497.128    20566496.616    20566497.584
                        49.500          40.500
 111671837.335 8  87017023.599 7  21250438.637    21250438.329    21250438.945
  21250438.777          50.250          44.250
 119329675.651 7  92984160.35345  22707682.178    22707680.584    22707683.184
                        44.500          31.000
 110622327.443 8  86199237.048 7  21050722.465    21050722.348    21050722.751
  21050722.578          50.250          44.750
 126136756.851 6  98288376.38943  24003021.739    24003022.082    24003022.955
                        40.750          21.500
 131319388.614 6 102326803.43542  24989246.981    24989247.362    24989248.098
                        36.500          16.750
 109426887.869 8  85267709.760 7  20823240.771    20823240.390    20823241.244
  20823240.713          51.500          45.250
 129458411.341 6 100876703.429 5  24635114.755    24635116.649    24635115.577
  24635118.485          39.250          31.250
 19  9 29 17 40 30.0000000  0  8G13G05G02G15G21G20G29G30
 108058873.422 8  84201724.20346  20562911.668    20562910.996    20562912.124
                        49.250          40.750
 111731228.632 8  87063302.526 7  21261740.668    21261740.176    21261740.981
  21261740.556          50.250          44.000
 119398211.895 7  93037565.18545  22720724.279    22720722.625    22720725.289
                        44.000          31.000
 110544438.100 8  86138544.075 7  21035900.690    21035900.471    21035900.971
  21035900.744          50.750          44.500
 126057459.583 6  98226586.32243  23987931.762    23987933.008    23987932.982
                        40.750          22.500
 131233385.121 6 102259787.80642  24972880.390    24972882.239    24972881.481
                        36.750          17.750
 109448546.172 8  85284586.351 7  20827362.232    20827361.858    20827362.710
  20827362.139          51.250          45.250
 129445301.892 6 100866488.311 5  24632619.489    24632622.244    24632620.284
  24632624.309          38.250          32.250
 19  9 29 17 41  0.0000000  0  8G13G05G02G15G21G20G29G30
 108040647.014 8  84187521.82546  20559443.307    20559442.618    20559443.758
                        49.250          40.250
 111790809.696 8  87109729.320 7  21273078.524    21273077.913    21273078.832
  21273078.508          50.000          43.750
 119467029.151 7  93091188.97445  22733819.841    22733818.514    22733820.842
                        43.750          30.500
 110467004.737 8  86078206.411 7  21021165.773    21021165.429    21021166.054
  21021165.843          50.250          44.750
 125978184.207 6  98164813.31143  23972846.404    23972846.996    23972847.611
                        40.750          23.000
 131147430.743 6 102192810.45942  24956522.998    24956525.124    24956524.151
                        36.500          17.500
 109470819.368 8  85301942.079 7  20831600.706    20831600.518    20831601.179
  20831600.695          50.750          45.250
 129432661.714 6 100856638.844 5  24630214.197    24630216.922    24630215.010
  24630218.025          40.000          32.500
 19  9 29 17 41 30.0000000  0  8G13G05G02G15G21G20G29G30
 108023036.132 8  84173799.06846  20556092.186    20556091.388    20556092.642
                        49.750          40.500
 111850579.531 8  87156303.216 7  21284452.256    21284451.704    21284452.560
  21284452.165          50.500          43.500
 119536127.244 7  93145031.60745  22746968.839    22746967.119    22746969.840
                        44.250          30.000
 110390029.575 8  86018225.782 7  21006517.530    21006517.507    21006517.816
  21006517.788          51.250          44.500
 125898931.873 6  98103058.26543  23957765.102    23957765.291    23957766.260
                        40.750          22.500
 131061525.676 6 102125871.57342  24940175.664    24940177.940    24940176.822
                        36.750          16.250
 109493706.445 8  85319776.157 7  20835955.866    20835955.677    20835956.339
  20835956.033          51.750          45.000
 129420492.023 6 100847155.966 5  24627898.776    24627902.209    24627899.527
  24627903.659          40.500          34.000
 19  9 29 17 42  0.0000000  0  8G13G05G02G15G21G20G29G30
 108006041.212 8  84160556.28346  20552857.871    20552857.273    20552858.327
                        49.250          40.250
 111910536.970 8  87203023.291 7  21295862.046    21295861.228    21295862.354
  21295861.526          50.000          44.000
 119605505.730 7  93199092.72744  22760171.185    22760169.737    22760172.186
                        44.000          29.500
 110313514.496 8  85958603.664 7  20991957.379    20991957.139    20991957.660
  20991957.563          50.250          44.750
 125819703.960 6  98041322.26143  23942688.525    23942688.321    23942689.669
                        40.500          21.750
 130975669.894 5 102058971.06842  24923838.450    24923840.152    24923839.612
                        35.250          15.750
 109517206.831 8  85338088.136 7  20840427.980    20840427.609    20840428.458
  20840427.962          51.000          45.250
 129408793.852 6 100838040.538 5  24625672.182    24625676.973    24625672.884
  24625676.600          38.750          33.750
 19  9 29 17 42 30.0000000  0  8G13G05G02G15G21G20G29G30
 107989662.946 8  84147794.00746  20549741.283    20549740.584    20549741.743
                        49.500          40.250
 111970680.525 8  87249888.396 7  21307307.054    21307306.319    21307307.362
  21307306.721          49.750          44.000
 119675164.107 7  93253371.94544  22773426.920    22773425.509    22773427.926
                        43.750          29.750
 110237461.748 8  85899341.808 7  20977484.966    20977484.487    20977485.252
  20977485.062          50.500          44.500
 125740501.444 6  97979606.04843  23927616.733    23927616.123    23927617.882
                        41.500          22.250
 130889863.827 6 101992109.27142  24907509.728    24907511.736    24907510.908
                        36.000          14.000
 109541319.810 8  85356877.467 7  20845016.412    20845016.258    20845016.885
  20845016.449          51.000          45.500
 129397568.430 6 100829293.439 5  24623536.426    24623540.423    24623537.096
  24623539.947          38.250          31.250
 19  9 29 17 43  0.0000000  0  8G13G05G02G15G21G20G29G30
 107973901.674 8  84135512.50446  20546742.078    20546741.462    20546742.534
                        49.250          40.500
 112031009.371 8  87296897.885 7  21318786.738    21318786.606    21318787.046
  21318786.546          49.750          44.000
 119745101.773 7  93307868.80145  22786735.290    22786733.804    22786736.314
                        44.000          30.000
 110161873.108 8  85840441.602 7  20963100.958    20963100.583    20963101.235
  20963100.850          50.750          44.750
 125661325.626 6  97917910.63743  23912550.183    23912549.634    23912551.359
                        40.750          22.250
 130804107.853 6 101925286.49642  24891191.148    24891192.934    24891192.319
                        36.000          14.000
 109566044.473 8  85376143.434 7  20849721.432    20849721.134    20849721.905
  20849721.522          51.250          45.250
 129386816.820 6 100820915.602 5  24621490.885    24621493.985    24621491.560
  24621493.712          39.000          30.500
 19  9 29 17 43 30.0000000  0  8G13G05G02G15G21G20G29G30
 107958757.759 8  84123712.06246  20543860.072    20543859.797    20543860.528
                        49.250          40.750
 112091521.953 8  87344050.554 7  21330301.980    21330301.616    21330302.284
  21330301.907          50.000          43.750
 119815318.931 7  93362583.42645  22800097.262    22800095.612    22800098.281
                        44.000          30.000
 110086750.543 8  85781904.549 7  20948805.490    20948805.257    20948805.767
  20948805.619          50.750          44.750
 125582177.685 6  97856236.92043  23897488.661    23897488.154    23897489.841
                        41.500          22.250
 130718401.985 5 101858502.76142  24874881.038    24874883.603    24874882.173
                        35.500          12.750
 109591379.971 8  85395885.372 7  20854542.841    20854542.250    20854543.310
  20854542.798          51.000          45.250
 129376540.145 6 100812907.797 5  24619534.481    24619538.268    24619535.133
  24619540.160          38.750          32.750
 19  9 29 17 44  0.0000000  0  8G13G05G02G15G21G20G29G30
 107944231.258 8  84112392.71646  20541095.958    20541095.140    20541096.423
                        49.250          40.250
 112152217.685 8  87391345.917 7  21341852.212    21341851.526    21341852.516
  21341852.019          50.000          43.750
 119885814.523 7  93417515.02445  22813512.203    22813510.569    22813513.209
                        43.750          30.250
 110012095.907 8  85723732.133 7  20934599.254    20934598.939    20934599.535
  20934599.217          50.500          44.750
 125503058.643 6  97794585.73743  23882432.672    23882432.818    23882433.852
                        40.500          22.000
 130632746.696 6 101791758.45342  24858582.392    24858583.568    24858583.554
                        36.500          14.750
 109617325.374 8  85416102.559 7  20859479.797    20859479.753    20859480.266
  20859479.884          51.000          45.250
 129366739.415 6 100805270.912 5  24617670.075    24617674.053    24617670.732
  24617673.259          39.250          32.000
 19  9 29 17 44 30.0000000  0  8G13G05G02G15G21G20G29G30
 107930322.342 8  84101554.60246  20538449.197    20538448.494    20538449.666
                        49.000          40.750
 112213094.707 8  87438782.550 7  21353436.709    21353436.047    21353437.017
  21353436.659          50.000          43.750
 119956588.087 7  93472663.22345  22826980.097    22826978.537    22826981.085
                        44.250          30.250
 109937911.333 8  85665925.981 7  20920482.439    20920481.843    20920482.720
  20920482.591          50.500          44.750
 125423969.587 6  97732957.92743  23867382.674    23867382.978    23867383.850
                        41.000          23.250
 130547141.976 6 101725053.57742  24842292.267    24842293.380    24842293.407
                        37.000          16.250
 109643879.628 8  85436794.182 7  20864533.013    20864532.718    20864533.482
  20864532.983          50.750          45.250
 129357415.769 6 100798005.718 5  24615895.687    24615899.252    24615896.371
  24615899.690          38.250          32.250
                            4  1
RINEX FILE SPLICE; other post-header comments skipped       COMMENT
 19  9 29 17 45  0.0000000  0  8G13G05G02G15G21G20G29G30
 107917031.658 8  84091198.23546  20535919.880    20535919.416    20535920.345
                        49.750          40.750
 112274152.632 8  87486360.147 7  21365055.614    21365055.008    21365055.918
  21365055.355          50.000          43.750
 120027639.391 7  93528027.83444  22840500.541    22840499.141    22840501.556
                        43.500          29.250
 109864198.597 8  85608487.517 7  20906455.228    20906454.967    20906455.514
  20906455.155          50.750          45.250
 125344911.827 6  97671354.50343  23852338.992    23852338.682    23852340.168
                        40.500          23.750
 130461588.391 5 101658388.54442  24826011.749    24826013.124    24826012.898
                        35.750          16.250
 109671042.188 8  85457959.804 7  20869701.964    20869701.525    20869702.433
  20869701.901          51.250          45.250
 129348570.190 6 100791113.089 5  24614212.441    24614215.812    24614213.196
  24614216.554          38.250          34.500
 19  9 29 17 45 30.0000000  0  8G13G05G02G15G21G20G29G30
 107904359.092 8  84081323.51946  20533508.560    20533507.807    20533509.029
                        49.250          40.750
 112335389.897 8  87534077.490 7  21376708.765    21376708.235    21376709.060
  21376708.448          49.750          43.750
 120098968.026 7  93583608.56744  22854074.248    22854072.148    22854075.272
                        42.750          28.500
 109790959.776 8  85551418.330 7  20892518.372    20892518.203    20892518.653
  20892518.348          50.750          45.250
 125265886.722 6  97609776.52543  23837301.170    23837300.861    23837302.314
                        41.250          23.750
 130376085.824 5 101591763.22042  24809740.470    24809742.740    24809741.614
                        35.750          15.500
 109698811.538 8  85479598.247 7  20874986.175    20874985.936    20874986.644
  20874986.216          50.750          45.500
 129340203.725 6 100784593.783 5  24612620.027    24612624.192    24612620.760
  24612623.866          39.500          33.250
 19  9 29 17 46  0.0000000  0  8G13G05G02G15G21G20G29G30
 107892304.878 8  84071930.63346  20531214.673    20531213.959    20531215.142
                        49.500          40.750
 112396805.497 8  87581933.787 7  21388395.562    21388395.438    21388395.861
  21388395.396          50.000          43.750
 120170573.263 7  93639404.81844  22867699.613    22867698.429    22867700.645
                        43.250          28.500
 109718196.669 8  85494719.829 7  20878671.953    20878671.730    20878672.243
  20878671.892          50.750          45.000
 125186895.189 6  97548224.69943  23822268.977    23822268.809    23822270.126
                        41.500          22.500
 130290634.468 6 101525177.80242  24793480.461    24793481.730    24793481.708
                        36.000          14.500
 109727186.832 8  85501708.859 7  20880385.887    20880385.617    20880386.356
  20880385.640          51.250          45.250
 129332317.312 6 100778448.523 5  24611119.763    24611123.180    24611120.447
  24611124.636          39.750          33.750
 19  9 29 17 46 30.0000000  0  8G13G05G02G15G21G20G29G30
 107880869.290 8  84063019.79346  20529038.577    20529037.880    20529039.046
                        49.500          40.750
 112458398.135 8  87629928.048 7  21400116.265    21400115.923    21400116.573
  21400116.355          49.500          43.750
 120242454.799 7  93695416.37044  22881378.773    22881377.114    22881379.788
                        43.250          28.750
 109645911.028 8  85438393.362 7  20864916.416    20864916.183    20864916.697
  20864916.324          51.000          45.250
 125107938.515 6  97486700.04743  23807244.106    23807243.791    23807245.268
                        40.500          22.250
 130205234.862 5 101458632.69242  24777229.698    24777230.574    24777230.909
                        34.250          13.750
 109756167.295 8  85524291.031 7  20885900.625    20885900.380    20885901.094
  20885900.668          51.000          45.250
 129324911.985 6 100772678.135 5  24609710.346    24609713.769    24609711.007
  24609715.294          39.000          32.250
 19  9 29 17 47  0.0000000  0  8G13G05G02G15G21G20G29G30
 107870052.568 8  84054591.18946  20526980.206    20526979.467    20526980.666
                        49.500          40.500
 112520167.188 8  87678059.765 7  21411870.488    21411869.914    21411870.796
  21411870.398          50.250          43.500
 120314612.214 7  93751642.90244  22895110.056    22895108.358    22895111.084
                        43.750          29.250
 109574104.623 8  85382440.346 7  20851252.207    20851251.861    20851252.488
  20851252.279          51.000          45.250
 125029017.647 6  97425203.28843  23792225.808    23792225.368    23792226.979
                        41.000          22.750
 130119887.140 5 101392128.05742  24760987.536    24760989.552    24760988.805
                        33.250          13.250
 109785751.876 8  85547343.949 7  20891530.322    20891530.095    20891530.791
  20891530.421          51.250          45.250
 129317988.662 6 100767283.333 5  24608393.482    24608395.986    24608394.175
  24608396.478          38.750          31.250
 19  9 29 17 47 30.0000000  0  8G13G05G02G15G21G20G29G30
 107859854.944 8  84046644.99846  20525039.585    20525038.988    20525040.045
                        49.000          40.750
 112582111.159 8  87726327.792 7  21423658.019    21423657.598    21423658.327
  21423657.996          50.000          43.500
 120387044.877 7  93808083.89544  22908893.509    22908891.973    22908894.510
                        43.000          29.250
 109502779.294 8  85326862.190 7  20837679.362    20837679.038    20837679.648
  20837679.395          50.500          45.500
 124950134.258 6  97363735.74944  23777214.758    23777214.757    23777215.925
                        41.500          24.000
 130034591.744 5 101325664.16542  24744756.167    24744758.541    24744757.526
                        32.250          12.250
 109815939.477 8  85570866.742 7  20897274.965    20897274.645    20897275.434
  20897274.844          50.750          45.250
 129311548.306 6 100762264.819 5  24607167.301    24607169.912    24607168.007
  24607171.828          39.000          31.750
 19  9 29 17 48  0.0000000  0  8G13G05G02G15G21G20G29G30
 107850276.020 8  84039180.91046  20523216.985    20523216.082    20523217.445
                        49.500          40.250
 112644228.893 8  87774731.196 7  21435478.728    21435478.503    21435479.032
  21435478.416          49.500          44.000
 120459752.265 7  93864738.98144  22922729.052    22922727.258    22922730.053
                        43.500          28.250
 109431937.299 8  85271660.653 7  20824198.695    20824198.165    20824198.981
  20824198.458          51.000          45.250
 124871289.309 7  97302298.16244  23762211.353    23762210.764    23762212.533
                        42.000          24.000
 129949348.388 5 101259240.82542  24728534.861    24728537.315    24728536.135
                        33.500          12.000
 109846728.609 8  85594858.257 7  20903133.792    20903133.575    20903134.257
  20903134.139          51.000          45.000
 129305591.759 6 100757623.400 5  24606034.212    24606036.213    24606034.842
  24606038.207          39.750          33.250
 19  9 29 17 48 30.0000000  0  8G13G05G02G15G21G20G29G30
 107841316.309 8  84032199.32946  20521511.830    20521511.039    20521512.295
                        49.750          40.750
 112706519.797 8  87823269.557 7  21447332.532    21447332.099    21447332.831
  21447332.388          50.250          43.500
 120532733.567 7  93921607.49444  22936616.718    22936615.434    22936617.737
                        42.750          28.250
 109361580.033 8  85216836.839 7  20810810.079    20810809.456    20810810.378
  20810809.906          51.000          45.250
 124792484.250 6  97240891.65144  23747215.103    23747214.802    23747216.256
                        41.750          24.250
 129864157.529 5 101192858.37042  24712324.193    24712325.988    24712325.458
                        33.250          12.250
 109878118.330 8  85619317.778 7  20909107.242    20909107.042    20909107.707
  20909107.245          51.000          45.250
 129300120.039 6 100753359.712 5  24604992.642    24604995.930    24604993.299
  24604996.839          39.250          33.250
 19  9 29 17 49  0.0000000  0  8G13G05G02G15G21G20G29G30
 107832975.639 8  84025700.12146  20519924.475    20519924.034    20519924.931
                        49.250          40.750
 112768982.338 8  87871941.654 7  21459218.656    21459218.284    21459218.960
  21459218.568          49.500          44.000
 120605988.494 7  93978689.21744  22950557.424    22950555.632    22950558.456
                        42.250          28.000
 109291709.521 8  85162392.294 7  20797513.880    20797513.605    20797514.184
  20797514.126          50.750          45.250
 124713720.133 6  97179517.03944  23732226.653    23732226.965    23732227.820
                        41.500          24.250
 129779019.380 5 101126517.07441  24696123.476    24696124.817    24696124.656
                        31.750          11.250
 109910107.694 8  85644244.551 7  20915194.556    20915194.378    20915195.025
  20915194.663          50.750          45.000
 129295133.887 6 100749474.390 5  24604043.938    24604047.481    24604044.604
  24604046.611          37.750          32.500
 19  9 29 17 49 30.0000000  0  8G13G05G02G15G21G20G29G30
 107825253.942 8  84019683.22446  20518455.276    20518454.614    20518455.736
                        49.250          40.500
 112831615.227 8  87920746.492 7  21471137.374    21471136.813    21471137.673
  21471137.396          50.250          43.750
 120679516.663 7  94035983.84644  22964548.749    22964547.840    22964549.786
                        42.500          28.500
 109222327.599 8  85108328.486 7  20784311.085    20784310.831    20784311.393
  20784311.151          50.750          45.500
 124634998.196 6  97118175.29944  23717246.232    23717246.506    23717247.403
                        41.500          24.500
 129693934.200 5 101060216.99442  24679931.809    24679933.599    24679932.985
                        33.500          12.000
 109942695.340 8  85669637.511 7  20921395.899    20921395.396    20921396.364
  20921395.657          51.000          45.000
 129290634.162 6 100745968.114 5  24603187.422    24603190.777    24603188.065
  24603191.472          39.000          32.500
 19  9 29 17 50  0.0000000  0  8G13G05G02G15G21G20G29G30
 107818151.226 8  84014148.65146  20517103.587    20517102.798    20517104.043
                        49.250          40.750
 112894418.040 8  87969683.733 7  21483088.297    21483087.604    21483088.596
  21483087.985          49.750          43.500
 120753317.452 7  94093490.91844  22978592.670    22978591.588    22978593.698
                        42.000          28.000
 109153436.084 8  85054646.806 7  20771201.311    20771201.170    20771201.615
  20771201.484          51.000          45.750
 124556319.674 6  97056867.38344  23702273.677    23702274.101    23702274.826
                        41.250          24.500
 129608902.327 6 100993958.39942  24663750.824    24663752.206    24663752.049
                        36.250          12.250
 109975879.924 8  85695495.616 7  20927710.435    20927710.450    20927710.904
  20927710.572          51.000          45.250
 129286621.735 6 100742841.562 5  24602424.136    24602427.024    24602424.775
  24602428.007          37.500          32.500
 19  9 29 17 50 30.0000000  0  8G13G05G02G15G21G20G29G30
 107811667.662 8  84009096.53146  20515869.749    20515869.028    20515870.209
                        49.750          40.750
 112957389.664 8  88018752.527 7  21495071.527    21495070.900    21495071.831
  21495071.579          49.750          43.500
 120827390.159 7  94151209.88544  22992688.080    22992687.113    22992689.117
                        43.000          28.000
 109085036.202 8  85001348.217 7  20758185.425    20758185.068    20758185.724
  20758185.326          51.000          45.750
 124477685.947 6  96995594.37444  23687310.795    23687310.411    23687311.962
                        41.250          24.250
 129523923.940 5 100927741.56542  24647579.457    24647581.249    24647580.565
                        33.250          12.000
 110009660.314 8  85721817.997 7  20934138.841    20934138.635    20934139.306
  20934138.795          51.250          45.000
 129283097.375 6 100740095.290 5  24601753.435    24601756.267    24601754.069
  24601757.026          38.000          33.000
 19  9 29 17 51  0.0000000  0  8G13G05G02G15G21G20G29G30
 107805803.143 8  84004526.78546  20514753.829    20514753.296    20514754.294
                        49.500          40.750
 113020528.917 8  88067951.943 7  21507086.412    21507086.199    21507086.711
  21507086.202          50.000          44.000
 120901734.176 7  94209140.25644  23006835.781    23006834.414    23006836.818
                        43.000          28.500
 109017129.817 8  84948434.181 7  20745263.157    20745262.906    20745263.456
  20745263.043          50.500          45.750
 124399098.072 7  96934357.10244  23672356.090    23672355.691    23672357.270
                        42.250          24.500
 129438999.307 5 100861566.60641  24631419.211    24631420.429    24631420.436
                        34.750          11.500
 110044035.399 8  85748603.768 7  20940680.110    20940679.975    20940680.579
  20940680.093          51.000          45.000
 129280061.898 6 100737729.955 5  24601174.921    24601179.088    24601175.605
  24601179.270          37.750          34.250
 19  9 29 17 51 30.0000000  0  8G13G05G02G15G21G20G29G30
 107800557.263 8  84000439.09746  20513755.450    20513754.921    20513755.915
                        49.250          40.750
 113083834.329 8  88117280.822 7  21519132.910    21519132.782    21519133.209
  21519132.916          49.500          43.750
 120976348.898 7  94267281.56244  23021034.355    23021033.019    23021035.392
                        42.250          28.000
 108949718.932 8  84895906.243 7  20732435.538    20732434.979    20732435.837
  20732435.071          51.000          45.750
 124320557.359 7  96873156.56944  23657410.059    23657409.637    23657411.239
                        42.000          24.500
 129354128.663 5 100795433.70341  24615268.904    24615269.845    24615270.111
                        34.000          11.250
 110079003.835 8  85775851.896 7  20947334.278    20947334.130    20947334.743
  20947334.652          50.750          45.000
 129277516.106 6 100735746.173 5  24600691.805    24600695.035    24600692.471
  24600695.737          39.000          34.500
 19  9 29 17 52  0.0000000  0  8G13G05G02G15G21G20G29G30
 107795930.440 8  83996833.79146  20512875.287    20512874.401    20512875.747
                        49.500          40.750
 113147305.338 8  88166738.753 7  21531211.132    21531210.795    21531211.436
  21531211.014          50.000          43.250
 121051233.527 7  94325633.18444  23035284.715    23035283.052    23035285.761
                        42.750          28.250
 108882804.991 8  84843765.521 7  20719701.984    20719701.672    20719702.283
  20719701.915          51.500          45.750
 124242065.212 7  96811993.87944  23642473.945    23642473.094    23642475.143
                        42.750          24.750
 129269311.896 5 100729342.81141  24599128.677    24599129.555    24599130.054
                        31.000           8.750
 110114564.013 8  85803561.109 7  20954101.312    20954101.018    20954101.781
  20954101.587          51.000          45.250
 129275460.665 6 100734144.572 5  24600300.143    24600304.112    24600300.867
  24600304.732          40.250          35.750
 19  9 29 17 52 30.0000000  0  8G13G05G02G15G21G20G29G30
 107791922.118 8  83993710.43346  20512112.323    20512111.578    20512112.783
                        49.750          40.750
 113210940.728 8  88216324.764 7  21543320.748    21543320.249    21543321.047
  21543320.579          49.750          43.500
 121126387.764 7  94384194.89744  23049585.868    23049584.705    23049586.918
                        43.000          28.750
 108816389.865 8  84792013.498 7  20707063.732    20707063.101    20707064.027
  20707063.619          50.750          45.750
 124163622.888 6  96750870.01944  23627546.050    23627546.071    23627547.243
                        41.500          24.750
 129184549.516 5 100663294.29641  24582998.806    24582999.782    24583000.187
                        34.500          11.000
 110150714.875 8  85831730.605 7  20960980.509    20960980.409    20960980.969
  20960980.827          51.000          45.000
 129273896.379 6 100732925.591 5  24600001.496    24600006.812    24600002.291
  24600006.610          38.250          34.750
 19  9 29 17 53  0.0000000  0  8G13G05G02G15G21G20G29G30
 107788532.161 8  83991068.91446  20511467.197    20511466.394    20511467.657
                        49.250          40.500
 113274739.305 8  88266037.930 7  21555461.117    21555460.597    21555461.412
  21555460.895          49.500          43.500
 121201810.957 7  94442966.17144  23063938.659    23063937.245    23063939.709
                        42.750          28.000
 108750475.136 8  84740651.400 7  20694520.327    20694520.003    20694520.622
  20694520.324          50.750          45.750
 124085231.713 6  96689786.01244  23612629.139    23612629.056    23612630.319
                        41.250          25.000
 129099841.948 5 100597288.43941  24566878.732    24566880.222    24566880.064
                        33.500          11.250
 110187455.037 8  85860359.291 7  20967972.075    20967971.880    20967972.540
  20967972.016          51.000          45.250
 129272823.938 6 100732089.912 5  24599798.124    24599802.209    24599798.946
  24599803.858          37.750          34.750
 19  9 29 17 53 30.0000000  0  8G13G05G02G15G21G20G29G30
 107785760.405 8  83988909.11446  20510939.738    20510939.119    20510940.207
                        49.500          40.750
 113338700.468 8  88315877.780 7  21567632.370    21567631.942    21567632.683
  21567632.414          49.750          43.250
 121277502.567 7  94501946.61944  23078342.221    23078340.721    23078343.267
                        43.250          28.000
 108685062.161 8  84689680.279 7  20682072.853    20682072.436    20682073.152
  20682072.896          50.750          46.000
 124006892.865 7  96628742.77344  23597721.755    23597721.583    23597722.917
                        42.000          25.250
 129015189.033 5 100531325.21241  24550770.288    24550771.260    24550771.584
                        34.500          10.500
 110224783.007 8  85889446.013 7  20975075.312    20975075.142    20975075.772
  20975075.490          51.250          45.000
 129272244.008 6 100731638.040 5  24599687.699    24599691.321    24599688.539
  24599692.506          39.000          33.250
 19  9 29 17 54  0.0000000  0  8G13G05G02G15G21G20G29G30
 107783606.445 8  83987230.71646  20510529.937    20510529.366    20510530.397
                        50.000          40.750
 113402823.131 8  88365843.487 7  21579834.677    21579834.190    21579834.994
  21579834.751          50.250          43.500
 121353461.770 7  94561135.57744  23092796.544    23092795.375    23092797.617
                        42.500          27.250
 108620152.760 8  84639101.546 7  20669720.927    20669720.523    20669721.226
  20669721.033          51.250          46.000
 123928607.760 6  96567741.40144  23582824.365    23582824.336    23582825.496
                        41.750          25.000
 128930591.068 5 100465404.75741  24534670.383    24534672.788    24534671.800
                        33.500           8.750
 110262697.797 8  85918989.990 7  20982290.273    20982289.949    20982290.738
  20982290.436          51.500          44.750
 129272157.207 6 100731570.405 5  24599672.139    24599675.317    24599672.984
  24599675.282          39.750          34.000
 19  9 29 17 54 30.0000000  0  8G13G05G02G15G21G20G29G30
 107782070.074 8  83986033.55346  20510237.479    20510236.891    20510237.939
                        49.000          40.750
 113467105.670 8  88415933.766 7  21592066.988    21592066.900    21592067.296
  21592067.019          50.000          43.500
 121429687.977 7  94620532.58244  23107302.069    23107300.782    23107303.128
                        42.000          27.250
 108555748.745 8  84588916.625 7  20657465.174    20657464.820    20657465.469
  20657465.223          51.000          45.750
 123850377.758 6  96506782.98844  23567937.460    23567937.737    23567938.595
                        41.250          25.250
 128846048.273 5 100399527.34941  24518583.613    24518585.017    24518584.976
                        34.000          11.250
 110301197.579 8  85948989.809 7  20989616.642    20989616.282    20989617.107
  20989616.618          51.250          45.000
 129272564.228 6 100731887.592 5  24599748.692    24599753.030    24599749.487
  24599752.961          38.000          34.250
 19  9 29 17 55  0.0000000  0  8G13G05G02G15G21G20G29G30
 107781151.046 8  83985317.43346  20510062.750    20510061.746    20510063.210
                        49.250          40.750
 113531547.466 8  88466148.134 7  21604330.209    21604329.775    21604330.513
  21604329.647          49.500          43.250
 121506180.412 7  94680137.04644  23121858.273    23121856.665    23121859.314
                        42.000          27.500
 108491851.519 8  84539126.594 7  20645305.931    20645305.526    20645306.221
  20645305.899          51.000          45.750
 123772204.213 7  96445868.54744  23553061.820    23553061.762    23553062.942
                        42.000          25.750
 128761561.127 5 100333693.22941  24502506.335    24502507.455    24502507.595
                        33.000           9.500
 110340280.647 8  85979444.142 7  20997053.894    20997053.713    20997054.363
  20997053.883          50.750          45.000
 129273465.712 6 100732590.015 5  24599919.946    24599924.503    24599920.750
  24599924.961          38.250          34.500
 19  9 29 17 55 30.0000000  0  8G13G05G02G15G21G20G29G30
 107780849.315 8  83985082.32646  20510005.190    20510004.501    20510005.650
                        49.000          40.750
 113596148.028 8  88516486.223 7  21616623.238    21616622.632    21616623.546
  21616623.240          49.250          42.750
 121582938.449 6  94739948.45444  23136464.708    23136463.618    23136465.767
                        41.250          26.750
 108428462.623 8  84489732.665 7  20633243.548    20633243.007    20633243.843
  20633243.567          50.750          45.750
 123694088.096 6  96384998.86944  23538196.742    23538196.774    23538197.882
                        41.750          25.750
 128677129.613 5 100267902.52241  24486439.658    24486440.526    24486440.950
                        34.500           9.000
 110379945.694 8  86010351.952 7  21004601.843    21004601.512    21004602.312
  21004601.977          51.000          44.500
 129274862.208 6 100733678.198 5  24600186.247    24600190.055    24600187.056
  24600188.922          37.250          32.500
 19  9 29 17 56  0.0000000  0  8G13G05G02G15G21G20G29G30
 107781164.538 8  83985327.96246  20510065.168    20510064.555    20510065.624
                        49.000          41.000
 113660905.813 8  88566946.824 7  21628946.269    21628945.511    21628946.577
  21628945.920          49.500          43.000
 121659961.704 6  94799966.53544  23151121.543    23151121.038    23151122.575
                        41.250          26.250
 108365583.583 8  84440736.032 7  20621278.016    20621277.607    20621278.306
  20621277.610          50.750          46.000
 123616031.158 7  96324175.30244  23523342.981    23523342.934    23523344.116
                        42.250          25.500
 128592754.189 5 100202155.46642  24470382.983    24470384.512    24470384.288
                        33.500          12.500
 110420191.826 8  86041712.566 7  21012260.375    21012260.226    21012260.844
  21012260.329          50.500          44.750
 129276754.280 6 100735152.573 5  24600546.256    24600549.860    24600547.043
  24600550.369          38.500          34.750
 19  9 29 17 56 30.0000000  0  8G13G05G02G15G21G20G29G30
 107782096.037 8  83986053.81646  20510242.366    20510241.801    20510242.817
                        49.250          41.000
 113725819.887 8  88617529.211 7  21641298.781    21641298.382    21641299.089
  21641298.940          49.500          43.250
 121737249.301 6  94860190.59344  23165828.826    23165827.910    23165829.876
                        40.750          25.500
 108303215.853 8  84392137.822 7  20609409.604    20609409.290    20609409.894
  20609409.418          51.000          46.250
 123538034.628 7  96263398.81344  23508500.963    23508500.595    23508502.085
                        42.250          25.750
 128508434.807 5 100136452.09241  24454337.776    24454339.226    24454339.086
                        35.000          10.500
 110461016.522 8  86073524.006 7  21020029.242    21020029.008    21020029.707
  21020029.121          51.250          45.250
 129279142.549 6 100737013.544 5  24601000.848    24601004.181    24601001.643
  24601004.443          38.250          33.000
 19  9 29 17 57  0.0000000  0  8G13G05G02G15G21G20G29G30
 107783643.553 8  83987259.67746  20510536.906    20510536.240    20510537.371
                        49.500          41.000
 113790889.414 8  88668232.722 7  21653681.367    21653680.886    21653681.671
  21653681.135          49.750          43.500
 121814800.391 6  94920619.96244  23180586.995    23180584.872    23180588.036
                        40.750          24.750
 108241360.966 8  84343939.227 7  20597639.014    20597638.567    20597639.309
  20597639.081          51.000          46.000
 123460099.888 7  96202670.45944  23493670.777    23493669.841    23493671.872
                        42.500          26.000
 128424171.782 5 100070792.65441  24438302.432    24438304.341    24438303.786
                        33.750           9.000
 110502418.759 8  86105785.473 7  21027907.891    21027907.573    21027908.356
  21027908.015          50.750          44.750
 129282027.462 6 100739261.544 5  24601549.919    24601552.952    24601550.732
  24601553.020          38.250          32.750
 19  9 29 17 57 30.0000000  0  8G13G05G02G15G21G20G29G30
 107785806.647 8  83988945.20946  20510948.507    20510947.879    20510948.967
                        49.500          40.750
 113856113.179 8  88719056.422 7  21666093.050    21666092.599    21666093.349
  21666092.832          49.500          42.750
 121892614.451 6  94981254.25744  23195394.078    23195393.053    23195395.133
                        41.750          26.250
 108180020.835 8  84296141.735 7  20585966.532    20585965.812    20585966.822
  20585966.355          51.250          46.000
 123382228.338 7  96141991.34844  23478851.774    23478851.416    23478852.869
                        42.750          25.750
 128339965.525 6 100005177.41541  24422279.264    24422280.169    24422280.498
                        36.000          10.750
 110544396.999 8  86138495.782 7  21035895.891    21035895.702    21035896.351
  21035896.138          51.250          44.750
 129285409.578 6 100741896.957 5  24602192.955    24602196.978    24602193.786
  24602197.085          38.750          34.500
 19  9 29 17 58  0.0000000  0  8G13G05G02G15G21G20G29G30
 107788585.012 8  83991110.17546  20511477.385    20511476.492    20511477.836
                        49.500          40.750
 113921490.248 8  88769999.574 7  21678533.745    21678533.226    21678534.049
  21678533.473          49.500          42.750
 121970690.588 6  95042092.76744  23210251.825    23210250.336    23210252.853
                        41.500          26.250
 108119196.526 8  84248746.191 7  20574391.956    20574391.598    20574392.242
  20574391.973          51.250          46.250
 123304421.080 7  96081362.33644  23464045.562    23464045.498    23464046.697
                        42.500          26.000
 128255816.384 5  99939606.66942  24406265.678    24406267.159    24406266.947
                        35.750          12.250
 110586949.577 8  86171653.627 7  21043993.447    21043993.283    21043993.912
  21043993.305          51.000          44.750
 129289289.394 6 100744920.190 5  24602931.501    24602935.073    24602932.328
  24602935.654          39.500          33.750
 19  9 29 17 58 30.0000000  0  8G13G05G02G15G21G20G29G30
 107791978.080 8  83993754.12746  20512122.960    20512122.172    20512123.416
                        49.250          40.750
 113987019.961 8  88821061.669 7  21691003.541    21691003.101    21691003.845
  21691003.976          49.000          43.000
 122049028.168 6  95103134.99944  23225158.795    23225157.908    23225159.832
                        41.000          26.750
 108058889.520 8  84201753.741 7  20562915.910    20562915.586    20562916.196
  20562915.724          51.000          46.250
 123226679.860 7  96020784.77744  23449251.606    23449251.546    23449252.746
                        42.750          26.250
 128171724.110 5  99874080.27041  24390264.657    24390264.819    24390265.917
                        33.750           9.750
 110630074.675 8  86205257.579 7  21052199.737    21052199.556    21052200.202
  21052200.075          50.750          44.750
 129293667.335 6 100748331.600 5  24603765.374    24603767.613    24603766.219
  24603767.845          39.250          33.500
 19  9 29 17 59  0.0000000  0  8G13G05G02G15G21G20G29G30
 107795985.394 8  83996876.71546  20512885.519    20512884.767    20512885.975
                        49.250          40.750
 114052701.141 8  88872241.805 7  21703502.125    21703501.997    21703502.429
  21703502.455          49.500          42.750
 122127626.294 6  95164380.25644  23240115.381    23240114.636    23240116.409
                        41.000          25.750
 107999101.419 8  84155165.631 7  20551538.397    20551538.195    20551538.683
  20551538.416          51.250          46.250
 123149005.885 7  95960259.61644  23434471.377    23434470.826    23434472.485
                        42.250          26.250
 128087689.145 5  99808598.46342  24374272.537    24374273.706    24374273.869
                        35.750          12.500
 110673770.907 8  86239306.584 7  21060514.880    21060514.735    21060515.345
  21060515.253          51.000          45.000
 129298543.898 6 100752131.501 5  24604692.406    24604696.079    24604693.291
  24604697.054          38.500          34.750
 19  9 29 17 59 30.0000000  0  8G13G05G02G15G21G20G29G30
 107800606.409 8  84000477.51346  20513764.905    20513764.076    20513765.365
                        49.500          41.000
 114118533.466 8  88923539.713 7  21716029.786    21716029.417    21716030.076
  21716029.891          49.250          42.500
 122206484.429 6  95225828.10444  23255121.561    23255120.744    23255122.576
                        41.000          25.750
 107939833.417 8  84108982.786 7  20540260.232    20540259.896    20540260.518
  20540260.270          51.250          46.500
 123071400.353 7  95899787.78744  23419703.408    23419703.087    23419704.490
                        42.500          26.750
 128003711.610 5  99743161.49741  24358291.907    24358293.227    24358293.136
                        35.500          11.750
 110718036.351 8  86273799.126 7  21068938.419    21068938.319    21068938.888
  21068938.452          50.750          44.750
 129303919.484 6 100756320.281 5  24605715.365    24605719.879    24605716.263
  24605720.254          39.250          33.500
                            4  1
RINEX FILE SPLICE; other post-header comments skipped       COMMENT
 19  9 29 18  0  0.0000000  0  8G13G05G02G15G21G20G29G30
 107805840.568 8  84004556.08146  20514760.733    20514760.202    20514761.184
                        49.250          41.000
 114184514.709 8  88974953.639 7  21728585.757    21728585.197    21728586.052
  21728585.693          49.000          43.000
 122285601.817 6  95287477.96744  23270177.316    23270176.147    23270178.326
                        40.750          26.000
 107881087.007 8  84063206.381 7  20529081.163    20529080.755    20529081.453
  20529080.899          51.000          46.250
 122993864.911 7  95839370.58344  23404948.662    23404948.481    23404949.748
                        43.250          27.000
 127919791.788 6  99677769.45842  24342322.132    24342323.936    24342323.285
                        36.500          12.250
 110762869.394 8  86308733.953 7  21077469.716    21077469.742    21077470.189
  21077470.109          50.750          44.750
 129309794.545 6 100760898.275 5  24606833.353    24606837.494    24606834.256
  24606837.035          39.000          34.000
 19  9 29 18  0 30.0000000  0  8G13G05G02G15G21G20G29G30
 107811687.233 8  84009111.92746  20515873.490    20515872.800    20515873.950
                        49.000          40.750
 114250644.769 8  89026483.562 7  21741169.741    21741169.376    21741170.031
  21741169.987          48.750          43.000
 122364977.694 6  95349329.24444  23285282.181    23285281.140    23285283.178
                        40.500          25.500
 107822863.433 8  84017837.379 7  20518001.589    20518000.955    20518001.875
  20518001.456          51.000          46.250
 122916400.799 7  95779008.95644  23390207.626    23390207.451    23390208.721
                        42.750          26.500
 127835930.056 6  99612422.66841  24326364.697    24326365.314    24326365.814
                        36.500          11.500
 110808268.652 8  86344109.984 7  21086109.188    21086108.849    21086109.657
  21086109.313          50.500          44.750
 129316169.435 6 100765865.714 5  24608046.436    24608049.863    24608047.379
  24608050.583          38.750          33.250
 19  9 29 18  1  0.0000000  0  8G13G05G02G15G21G20G29G30
 107818145.973 8  84014144.71346  20517102.392    20517101.664    20517102.852
                        49.250          40.750
 114316922.930 8  89078128.850 7  21753782.261    21753781.949    21753782.556
  21753782.343          48.500          42.750
 122444610.929 6  95411381.07044  23300436.060    23300435.035    23300437.057
                        40.500          25.500
 107765164.294 8  83972877.034 7  20507021.859    20507021.342    20507022.140
  20507021.593          50.750          46.000
 122839009.556 7  95718704.10244  23375480.422    23375480.377    23375481.522
                        42.500          27.250
 127752126.502 6  99547121.27542  24310417.090    24310417.769    24310418.306
                        36.250          12.500
 110854231.853 8  86379925.454 7  21094855.598    21094855.540    21094856.076
  21094855.567          50.500          44.500
 129323044.498 6 100771222.919 5  24609354.401    24609358.702    24609355.286
  24609358.977          38.500          34.500
 19  9 29 18  1 30.0000000  0  8G13G05G02G15G21G20G29G30
 107825216.081 8  84019653.89046  20518448.082    20518447.077    20518448.538
                        49.750          40.750
 114383347.755 8  89129888.433 7  21766422.240    21766422.086    21766422.517
  21766422.284          49.000          43.250
 122524501.039 6  95473633.06044  23315638.410    23315637.233    23315639.393
                        41.000          24.750
 107707991.053 8  83928326.477 7  20496142.081    20496141.589    20496142.362
  20496141.945          51.250          46.500
 122761692.535 7  95658457.08944  23360768.249    23360767.477    23360769.335
                        43.250          27.250
 127668381.550 6  99481865.49542  24294480.687    24294481.510    24294481.871
                        37.750          13.500
 110900757.362 8  86416179.095 7  21103709.180    21103708.982    21103709.658
  21103709.331          51.000          44.750
 129330420.065 6 100776970.116 5  24610758.535    24610762.832    24610759.411
  24610762.676          39.750          35.000
 19  9 29 18  2  0.0000000  0  8G13G05G02G15G21G20G29G30
 107832896.767 8  84025638.84246  20519909.517    20519908.842    20519909.973
                        49.250          40.750
 114449918.394 8  89181761.653 7  21779090.447    21779089.902    21779090.733
  21779090.588          49.000          43.000
 122604647.298 6  95536084.64543  23330890.225    23330888.261    23330891.208
                        39.500          23.500
 107651344.701 8  83884186.472 7  20485362.610    20485362.162    20485362.896
  20485362.545          51.500          46.750
 122684451.303 7  95598269.13644  23346069.183    23346068.954    23346070.287
                        43.000          27.000
 127584695.187 6  99416655.34842  24278556.060    24278556.506    24278557.227
                        36.750          12.000
 110947843.459 8  86452869.543 7  21112669.236    21112669.089    21112669.714
  21112669.556          50.750          44.750
 129338296.503 6 100783107.594 5  24612256.803    24612260.839    24612257.688
  24612261.593          39.500          35.500
 19  9 29 18  2 30.0000000  0  8G13G05G02G15G21G20G29G30
 107841187.609 8  84032099.24146  20521487.119    20521486.462    20521487.575
                        49.500          41.000
 114516634.233 8  89233748.001 7  21791786.126    21791785.572    21791786.421
  21791785.879          48.750          43.000
 122685048.812 6  95598735.12243  23346190.256    23346188.722    23346191.266
                        40.000          23.500
 107595226.459 8  83840457.991 7  20474683.523    20474683.212    20474683.809
  20474683.369          51.250          46.500
 122607287.271 7  95538141.33744  23331385.472    23331384.915    23331386.589
                        43.250          27.250
 127501067.767 6  99351491.21842  24262642.450    24262642.994    24262643.576
                        38.000          13.500
 110995488.202 8  86489995.309 7  21121735.877    21121735.720    21121736.355
  21121735.906          50.750          44.750
 129346674.050 6 100789635.552 5  24613851.587    24613855.724    24613852.467
  24613856.798          39.750          35.250
 19  9 29 18  3  0.0000000  0  8G13G05G02G15G21G20G29G30
 107850087.921 8  84039034.55346  20523180.895    20523180.120    20523181.360
                        50.000          40.750
 114583494.336 8  89285846.768 7  21804509.218    21804508.841    21804509.504
  21804509.178          49.000          42.500
 122765704.824 6  95661583.92843  23361537.934    23361536.932    23361538.917
                        39.250          23.000
 107539637.812 8  83797142.180 7  20464105.431    20464105.070    20464105.717
  20464105.166          51.500          46.500
 122530201.667 7  95478074.66044  23316716.575    23316716.128    23316717.701
                        43.750          27.250
 127417499.566 6  99286373.15242  24246739.500    24246740.142    24246740.635
                        38.000          13.750
 111043690.013 8  86527555.140 7  21130908.230    21130908.275    21130908.708
  21130908.648          51.000          44.500
 129355553.053 6 100796554.271 5  24615541.147    24615545.040    24615542.023
  24615545.334          39.000          34.250
 19  9 29 18  3 30.0000000  0  8G13G05G02G15G21G20G29G30
 107859596.889 8  84046444.13746  20524990.137    20524989.621    20524990.597
                        49.500          41.000
 114650497.336 8  89338056.884 7  21817259.363    21817259.140    21817259.653
  21817259.294          49.000          42.750
 122846614.742 6  95724630.56343  23376935.187    23376933.945    23376936.175
                        40.250          23.750
 107484579.722 8  83754239.787 7  20453628.163    20453627.808    20453628.449
  20453628.005          51.250          46.500
 122453196.102 7  95418070.34444  23302062.548    23302062.590    23302063.674
                        43.000          27.500
 127333990.483 6  99221301.23142  24230847.794    24230848.765    24230848.987
                        38.250          14.250
 111092446.799 8  86565547.431 7  21140186.282    21140186.248    21140186.760
  21140186.524          50.750          44.500
 129364933.764 6 100803863.909 5  24617325.758    24617329.330    24617326.612
  24617331.400          39.250          34.000
 19  9 29 18  4  0.0000000  0  8G13G05G02G15G21G20G29G30
 107869713.635 8  84054327.31846  20526915.596    20526914.797    20526916.056
                        49.500          40.750
 114717642.839 8  89390378.025 7  21830036.781    21830036.306    21830037.071
  21830036.653          48.500          42.750
 122927776.912 6  95787873.75543  23392379.776    23392377.833    23392380.800
                        39.500          22.750
 107430053.978 8  83711752.207 7  20443252.213    20443251.846    20443252.494
  20443252.205          51.250          46.500
 122376272.106 7  95358129.59844  23287424.371    23287424.291    23287425.488
                        43.250          27.500
 127250541.242 6  99156275.86342  24214967.438    24214968.656    24214968.690
                        36.750          14.000
 111141756.979 8  86603970.935 7  21149569.889    21149569.755    21149570.367
  21149569.884          50.500          44.500
 129374816.357 6 100811564.660 5  24619206.943    24619210.237    24619207.783
  24619211.329          40.000          34.750
 19  9 29 18  4 30.0000000  0  8G13G05G02G15G21G20G29G30
 107880437.645 8  84062683.69446  20528956.230    20528955.440    20528956.690
                        49.500          40.500
 114784929.743 8  89442809.363 7  21842841.225    21842840.578    21842841.515
  21842840.980          48.250          42.500
 123009191.103 6  95851313.34143  23407872.183    23407870.977    23407873.184
                        39.500          23.250
 107376061.589 8  83669680.232 7  20432977.943    20432977.448    20432978.224
  20432977.713          51.000          46.500
 122299431.137 7  95298253.52644  23272802.299    23272801.705    23272803.425
                        43.250          27.500
 127167151.726 6  99091297.02342  24199099.936    24199100.321    24199101.161
                        37.250          15.500
 111191618.129 8  86642823.762 7  21159058.221    21159057.935    21159058.694
  21159058.563          50.500          44.750
 129385201.074 6 100819656.653 6  24621183.029    24621187.160    24621183.865
  24621187.768          40.250          36.500
 19  9 29 18  5  0.0000000  0  8G13G05G02G15G21G20G29G30
 107891768.043 8  84071512.57646  20531112.266    20531111.625    20531112.731
                        49.250          40.750
 114852357.460 8  89495350.425 7  21855672.142    21855671.697    21855672.432
  21855672.132          48.750          42.250
 123090856.184 6  95914948.43443  23423413.027    23423411.811    23423414.001
                        40.000          23.500
 107322603.804 8  83628024.827 7  20422805.189    20422804.820    20422805.470
  20422805.046          51.500          46.500
 122222674.597 7  95238443.25944  23258195.815    23258195.575    23258196.919
                        43.500          28.000
 127083822.243 6  99026365.03342  24183242.230    24183243.446    24183243.482
                        38.500          15.000
 111242028.727 8  86682104.731 7  21168650.817    21168650.969    21168651.295
  21168651.053          50.500          44.500
 129396088.050 6 100828140.028 5  24623254.608    24623258.321    24623255.466
  24623258.267          39.000          34.750
 19  9 29 18  5 30.0000000  0  8G13G05G02G15G21G20G29G30
 107903704.050 8  84080813.36346  20533383.569    20533382.973    20533384.034
                        49.750          40.500
 114919924.561 8  89548000.099 7  21868529.456    21868529.253    21868529.751
  21868529.917          49.000          42.500
 123172771.664 6  95978778.62543  23439000.614    23438999.945    23439001.606
                        40.500          23.750
 107269681.661 8  83586786.807 7  20412734.548    20412733.948    20412734.820
  20412734.283          51.500          46.500
 122146003.841 7  95178699.83144  23243606.046    23243605.672    23243607.146
                        44.000          27.750
 127000552.779 6  98961479.76542  24167397.052    24167398.006    24167398.357
                        37.500          16.250
 111292986.748 8  86721812.273 7  21178348.012    21178347.786    21178348.490
  21178348.203          50.750          44.250
 129407477.528 6 100837014.935 5  24625421.625    24625425.091    24625422.479
  24625426.252          40.000          34.500
 19  9 29 18  6  0.0000000  0  8G13G05G02G15G21G20G29G30
 107916244.441 8  84090585.09546  20535770.157    20535769.147    20535770.617
                        49.750          40.750
 114987630.286 8  89600757.796 7  21881413.825    21881413.250    21881414.120
  21881413.641          48.500          42.750
 123254936.544 6  96042803.13844  23454636.153    23454635.407    23454637.123
                        40.250          24.500
 107217296.097 8  83545966.898 7  20402765.682    20402765.226    20402765.959
  20402765.668          51.250          46.500
 122069420.397 7  95119024.43144  23229032.401    23229032.274    23229033.518
                        43.750          28.000
 126917344.243 6  98896641.96042  24151562.594    24151564.545    24151563.890
                        37.500          15.750
 111344490.136 8  86761944.767 7  21188148.813    21188148.590    21188149.286
  21188148.976          50.500          44.500
 129419369.609 6 100846281.476 5  24627684.565    24627688.090    24627685.410
  24627688.779          40.500          34.500
 19  9 29 18  6 30.0000000  0  8G13G05G02G15G21G20G29G30
 107929388.677 8  84100827.35946  20538271.302    20538270.644    20538271.762
                        49.750          40.750
 115055474.098 8  89653623.072 7  21894323.851    21894323.674    21894324.150
  21894323.842          48.250          42.750
 123337349.631 6  96107021.08544  23470319.074    23470317.969    23470320.057
                        41.500          25.000
 107165448.481 8  83505566.165 7  20392899.291    20392899.020    20392899.568
  20392899.220          51.500          47.000
 121992925.860 7  95059418.31544  23214476.350    23214475.980    23214477.463
                        43.750          28.500
 126834196.308 6  98831851.41742  24135740.002    24135741.605    24135741.285
                        38.500          17.250
 111396537.079 8  86802500.817 7  21198052.995    21198052.706    21198053.468
  21198053.378          51.000          44.250
 129431764.419 6 100855939.763 5  24630044.246    24630047.653    24630045.086
  24630048.567          40.750          34.000
 19  9 29 18  7  0.0000000  0  8G13G05G02G15G21G20G29G30
 107943135.981 8  84111539.54146  20540887.248    20540886.700    20540887.704
                        49.250          40.750
 115123455.236 8  89706595.381 7  21907260.260    21907260.132    21907260.559
  21907260.241          48.250          42.500
 123420010.373 6  96171432.01244  23486049.106    23486047.281    23486050.094
                        40.750          24.750
 107114140.283 8  83465585.763 7  20383135.878    20383135.273    20383136.141
  20383135.787          51.250          46.750
 121916521.597 7  94999882.53644  23199936.785    23199936.767    23199937.902
                        43.750          28.250
 126751109.445 6  98767108.43442  24119929.513    24119930.297    24119930.823
                        37.500          14.250
 111449125.460 8  86843478.760 7  21208060.245    21208060.113    21208060.710
  21208060.612          50.250          44.250
 129444662.092 6 100865989.904 5  24632497.893    24632501.443    24632498.724
  24632501.599          40.500          33.750
 19  9 29 18  7 30.0000000  0  8G13G05G02G15G21G20G29G30
 107957485.248 8  84122720.78646  20543618.039    20543616.975    20543618.499
                        49.500          40.500
 115191572.531 8  89759673.791 7  21920222.641    21920222.333    21920222.945
  21920222.434          48.500          42.500
 123502917.863 6  96236035.20943  23501825.475    23501824.150    23501826.454
                        39.750          23.500
 107063372.307 8  83426026.312 7  20373475.144    20373474.493    20373475.412
  20373474.880          51.250          46.750
 121840209.144 7  94940418.29644  23185415.395    23185414.722    23185416.512
                        43.750          28.500
 126668083.931 6  98702413.24742  24104130.078    24104131.276    24104131.464
                        37.750          16.500
 111502253.169 8  86884876.972 7  21218170.299    21218169.790    21218170.764
  21218170.568          50.500          44.000
 129458062.695 6 100876431.937 5  24635048.202    24635051.542    24635049.029
  24635052.827          40.250          35.250
 19  9 29 18  8  0.0000000  0  8G13G05G02G15G21G20G29G30
 107972435.672 8  84134370.46346  20546462.946    20546461.937    20546463.406
                        49.500          40.500
 115259825.198 8  89812857.673 7  21933210.531    21933210.259    21933210.826
  21933210.681          48.250          42.250
 123586071.113 6  96300829.87743  23517648.993    23517648.162    23517649.985
                        39.250          22.750
 107013145.417 8  83386888.496 7  20363917.399    20363916.731    20363917.662
  20363916.948          51.500          46.750
 121763990.104 7  94881026.84744  23170911.114    23170910.880    23170912.231
                        44.250          28.500
 126585119.716 6  98637765.84942  24088342.162    24088343.672    24088343.512
                        37.000          15.250
 111555918.105 8  86926693.784 7  21228382.242    21228382.215    21228382.711
  21228382.521          50.500          44.500
 129471966.276 6 100887265.888 5  24637694.349    24637697.406    24637695.189
  24637697.612          39.750          34.000
 19  9 29 18  8 30.0000000  0  8G13G05G02G15G21G20G29G30
 107987986.177 8  84146487.73846  20549422.156    20549421.516    20549422.616
                        49.750          40.750
 115328212.911 8  89866146.777 7  21946224.512    21946224.232    21946224.802
  21946224.264          48.500          42.500
 123669469.087 6  96365815.24243  23533518.781    23533517.919    23533519.773
                        39.000          21.500
 106963460.947 8  83348173.336 7  20354462.569    20354462.057    20354462.837
  20354462.343          51.750          46.750
 121687865.966 7  94821709.35244  23156424.799    23156424.795    23156425.943
                        44.000          28.750
 126502217.379 6  98573166.66542  24072566.728    24072567.863    24072568.042
                        38.500          16.750
 111610118.376 8  86968927.754 7  21238696.118    21238696.120    21238696.591
  21238696.289          50.750          44.250
 129486372.916 6 100898491.830 5  24640435.102    24640439.034    24640435.902
  24640439.524          41.000          34.000
 19  9 29 18  9  0.0000000  0  8G13G05G02G15G21G20G29G30
 108004135.811 8  84159071.86046  20552495.102    20552494.536    20552495.562
                        49.750          40.750
 115396734.133 8  89919539.917 7  21959263.621    21959263.658    21959263.907
  21959264.019          48.250          42.500
 123753110.925 6  96430990.64543  23549436.043    23549434.418    23549437.053
                        39.750          23.000
 106914319.800 8  83309881.546 7  20345111.270    20345110.772    20345111.538
  20345110.909          51.750          46.500
 121611838.310 7  94762467.03144  23141957.586    23141957.258    23141958.735
                        44.000          29.000
 126419377.012 6  98508615.79242  24056802.880    24056803.538    24056804.163
                        37.000          15.750
 111664851.836 8  87011577.192 7  21249111.496    21249111.468    21249111.969
  21249111.685          50.750          44.000
 129501282.656 6 100910109.774 5  24643272.578    24643275.898    24643273.333
  24643276.155          40.250          34.250
 19  9 29 18  9 30.0000000  0  8G13G05G02G15G21G20G29G30
 108020883.563 8  84172122.05246  20555682.265    20555681.341    20555682.725
                        49.750          40.500
 115465388.356 8  89973036.708 7  21972328.164    21972328.017    21972328.445
  21972328.501          48.250          42.500
 123836995.710 6  96496355.36943  23565398.931    23565397.337    23565399.919
                        40.000          23.250
 106865722.986 8  83272013.904 7  20335863.391    20335862.956    20335863.659
  20335863.083          52.000          46.750
 121535908.266 7  94703300.77644  23127508.309    23127508.274    23127509.480
                        44.000          28.500
 126336598.936 6  98444113.41842  24041050.775    24041050.861    24041052.000
                        38.500          17.000
 111720116.496 8  87054640.548 7  21259628.088    21259627.898    21259628.566
  21259628.320          51.000          44.250
 129516695.455 6 100922119.730 5  24646205.841    24646209.412    24646206.610
  24646210.117          40.500          34.000
 19  9 29 18 10  0.0000000  0  8G13G05G02G15G21G20G29G30
 108038228.409 8  84185637.50946  20558982.820    20558982.069    20558983.280
                        49.750          40.750
 115534174.270 8  90026636.100 7  21985417.722    21985417.235    21985417.999
  21985417.849          48.250          42.750
 123921122.619 6  96561908.75143  23581407.324    23581406.757    23581408.316
                        40.750          23.250
 106817671.635 8  83234571.305 7  20326719.788    20326719.105    20326720.051
  20326719.577          51.750          47.500
 121460077.718 7  94644212.04844  23113078.639    23113078.191    23113079.806
                        44.250          29.250
 126253882.945 6  98379659.46642  24025309.453    24025310.911    24025310.749
                        38.750          16.250
 111775909.991 8  87098115.986 7  21270245.317    21270245.095    21270245.799
  21270245.506          50.750          44.500
 129532611.231 6 100934521.600 5  24649234.296    24649238.150    24649235.083
  24649238.179          40.750          34.500
 19  9 29 18 10 30.0000000  0  8G13G05G02G15G21G20G29G30
 108056169.284 8  84199617.40246  20562396.920    20562396.216    20562397.380
                        49.250          40.750
 115603091.788 8  90080338.047 7  21998532.328    21998531.681    21998532.609
  21998532.428          48.000          42.250
 124005490.471 6  96627649.87343  23597462.077    23597461.554    23597463.087
                        39.750          23.500
 106770166.667 8  83197554.451 7  20317679.792    20317679.327    20317680.060
  20317679.813          51.750          47.250
 121384348.327 7  94585202.14244  23098667.163    23098667.296    23098668.356
                        44.000          29.500
 126171229.789 6  98315254.43742  24009581.936    24009582.229    24009583.264
                        37.250          16.500
 111832230.279 8  87142001.922 7  21280962.794    21280962.693    21280963.276
  21280962.820          50.500          44.000
 129549029.966 6 100947315.409 5  24652358.602    24652362.504    24652359.384
  24652361.815          40.000          35.250
 19  9 29 18 11  0.0000000  0  8G13G05G02G15G21G20G29G30
 108074705.027 8  84214060.83146  20565924.125    20565923.360    20565924.585
                        49.750          40.500
 115672139.636 8  90134141.553 7  22011671.565    22011671.267    22011671.851
  22011671.493          48.000          42.500
 124090098.334 6  96693578.02243  23613562.751    23613561.045    23613563.757
                        40.000          22.500
 106723208.917 8  83160964.009 7  20308743.995    20308743.652    20308744.267
  20308743.822          51.500          47.250
 121308721.408 7  94526272.09844  23084276.313    23084275.876    23084277.497
                        44.000          28.750
 126088639.660 6  98250898.54842  23993865.199    23993865.433    23993866.482
                        38.500          15.500
 111889075.330 8  87186296.745 7  21291779.942    21291779.767    21291780.420
  21291780.246          50.500          44.000
 129565951.559 6 100960501.067 5  24655579.077    24655582.354    24655579.890
  24655583.162          40.500          35.000
 19  9 29 18 11 30.0000000  0  8G13G05G02G15G21G20G29G30
 108093834.519 8  84228966.92546  20569564.182    20569563.561    20569564.642
                        49.500          40.750
 115741317.130 8  90188046.067 7  22024835.825    22024835.419    22024836.111
  22024835.965          48.500          42.500
 124174945.074 6  96759692.31343  23629708.490    23629707.332    23629709.514
                        39.500          23.500
 106676799.454 8  83124800.798 7  20299912.560    20299912.233    20299912.828
  20299912.580          51.500          47.500
 121233198.610 7  94467423.17444  23069904.534    23069904.358    23069905.727
                        44.500          29.250
 126006112.828 6  98186591.97142  23978160.428    23978161.528    23978161.702
                        36.500          16.000
 111946442.786 8  87230998.636 7  21302696.840    21302696.617    21302697.313
  21302696.990          50.500          44.250
 129583375.958 6 100974078.479 5  24658894.181    24658898.259    24658894.985
  24658898.924          40.500          35.500
 19  9 29 18 12  0.0000000  0  8G13G05G02G15G21G20G29G30
 108113556.780 8  84244334.91246  20573317.262    20573316.759    20573317.722
                        49.250          40.250
 115810623.385 8  90242050.921 7  22038024.168    22038023.714    22038024.440
  22038024.433          48.000          42.000
 124260030.111 6  96825992.26643  23645900.182    23645898.988    23645901.201
                        39.000          22.750
 106630939.147 8  83089065.515 7  20291185.707    20291185.205    20291185.979
  20291185.375          51.250          47.250
 121157781.510 7  94408656.62244  23055553.237    23055552.913    23055554.426
                        44.000          29.250
 125923649.153 6  98122334.58242  23962469.227    23962469.545    23962470.523
                        37.750          16.500
 112004330.193 8  87276105.695 7  21313712.390    21313712.258    21313712.859
  21313712.325          50.500          44.000
 129601303.198 6 100988047.713 5  24662305.619    24662310.138    24662306.419
  24662310.597          40.250          35.250
 19  9 29 18 12 30.0000000  0  8G13G05G02G15G21G20G29G30
 108133870.681 8  84260163.92346  20577183.112    20577182.271    20577183.572
                        49.500          40.500
 115880058.264 8  90296156.013 7  22051237.257    22051236.626    22051237.525
  22051237.271          48.250          42.000
 124345352.182 6  96892476.94043  23662136.060    23662135.468    23662137.070
                        39.250          22.500
 106585628.827 8  83053758.781 7  20282563.278    20282562.848    20282563.550
  20282563.156          52.000          47.250
 121082471.725 7  94349973.69544  23041222.281    23041222.132    23041223.479
                        44.500          29.750
 125841249.190 6  98058126.86742  23946788.066    23946789.434    23946789.474
                        37.250          16.250
 112062735.435 8  87321616.263 7  21324826.404    21324826.382    21324826.873
  21324826.711          50.500          44.000
 129619732.980 6 101002408.561 5  24665812.724    24665816.659    24665813.524
  24665816.805          41.000          35.250
 19  9 29 18 13  0.0000000  0  8G13G05G02G15G21G20G29G30
 108154774.975 8  84276452.98146  20581160.860    20581160.030    20581161.325
                        49.750          40.750
 115949620.475 8  90350360.313 7  22064474.749    22064474.314    22064475.026
  22064474.469          48.000          42.500
 124430910.450 6  96959145.64643  23678417.044    23678416.131    23678418.045
                        39.500          22.000
 106540869.541 8  83018881.416 7  20274045.959    20274045.351    20274046.236
  20274045.634          52.000          47.250
 121007270.813 7  94291375.60044  23026911.860    23026911.751    23026913.049
                        44.000          29.500
 125758913.473 6  97993969.19942  23931119.722    23931121.329    23931121.126
                        37.750          16.750
 112121656.798 8  87367529.003 7  21336038.925    21336038.385    21336039.394
  21336039.176          50.500          43.250
 129638665.163 6 101017160.894 5  24669415.493    24669419.173    24669416.302
  24669419.611          41.500          34.500
 19  9 29 18 13 30.0000000  0  8G13G05G02G15G21G20G29G30
 108176268.406 8  84293201.11246  20585251.063    20585250.434    20585251.523
                        49.750          40.750
 116019309.384 8  90404663.333 7  22077735.800    22077736.020    22077736.077
  22077736.084          48.250          42.500
 124516703.798 6  97025997.56043  23694743.105    23694741.547    23694744.084
                        38.000          19.750
 106496662.149 8  82984434.104 7  20265633.548    20265633.017    20265633.820
  20265633.157          52.000          47.500
 120932180.295 7  94232863.51945  23012622.654    23012622.372    23012623.830
                        44.750          30.000
 125676641.612 6  97929861.29142  23915464.777    23915465.467    23915466.145
                        38.500          17.750
 112181091.300 8  87413841.588 7  21347348.896    21347348.684    21347349.361
  21347348.654          50.750          44.000
 129658099.570 6 101032304.566 5  24673114.058    24673117.818    24673114.862
  24673117.763          41.000          35.750
 19  9 29 18 14  0.0000000  0  8G13G05G02G15G21G20G29G30
 108198349.670 8  84310407.29046  20589453.029    20589452.234    20589453.489
                        49.750          40.250
 116089123.854 8  90459064.200 6  22091021.102    22091020.960    22091021.388
  22091021.382          48.000          41.750
 124602731.364 6  97093031.95643  23711113.630    23711112.063    23711114.654
                        37.500          19.250
 106453007.281 8  82950417.335 7  20257326.489    20257325.842    20257326.761
  20257326.170          51.500          47.250
 120857201.479 7  94174438.48444  22998355.159    22998354.672    22998356.321
                        44.250          29.500
 125594434.164 6  97865803.59942  23899819.963    23899821.844    23899821.277
                        36.500          16.250
 112241036.875 8  87460552.401 7  21358756.201    21358756.204    21358756.670
  21358756.091          50.500          43.750
 129678036.012 6 101047839.427 5  24676907.786    24676911.878    24676908.573
  24676911.227          41.250          34.500
 19  9 29 18 14 30.0000000  0  8G13G05G02G15G21G20G29G30
 108221017.622 8  84328070.63046  20593766.513    20593765.530    20593766.973
                        49.750          40.250
 116159063.416 7  90513562.537 7  22104330.470    22104329.882    22104330.760
  22104330.198          47.750          42.250
 124688991.913 6  97160247.91343  23727528.744    23727528.109    23727529.732
                        37.000          18.500
 106409905.727 8  82916831.715 7  20249124.266    20249123.907    20249124.538
  20249124.145          51.750          47.750
 120782336.328 7  94116102.02145  22984108.502    22984108.186    22984109.651
                        44.500          30.250
 125512291.482 6  97801796.32842  23884189.351    23884190.671    23884190.679
                        37.750          17.000
 112301491.379 8  87507659.795 7  21370260.038    21370260.030    21370260.511
  21370260.655          50.250          43.500
 129698474.247 6 101063765.275 5  24680796.612    24680800.562    24680797.399
  24680801.013          40.250          34.250
                            4  1
RINEX FILE SPLICE; other post-header comments skipped       COMMENT
 19  9 29 18 15  0.0000000  0  8G13G05G02G15G21G20G29G30
 108244271.227 8  84346190.32446  20598191.388    20598190.742    20598191.857
                        49.250          40.250
 116229126.978 8  90568157.517 7  22117662.780    22117662.534    22117663.061
  22117662.974          48.000          42.000
 124775484.447 6  97227644.63143  23743987.379    23743987.204    23743988.398
                        37.000          18.750
 106367358.523 8  82883678.064 7  20241028.039    20241027.449    20241028.316
  20241027.842          52.000          47.750
 120707586.429 7  94057855.36045  22969883.660    22969883.574    22969884.804
                        44.750          30.000
 125430213.760 6  97737839.69442  23868570.672    23868571.745    23868572.071
                        38.750          17.750
 112362452.427 8  87555161.894 7  21381860.519    21381860.564    21381860.992
  21381860.834          50.500          43.750
 129719414.102 6 101080082.013 6  24684781.635    24684785.900    24684782.422
  24684786.830          40.250          36.000
 19  9 29 18 15 30.0000000  0  8G13G05G02G15G21G20G29G30
 108268109.126 8  84364765.31046  20602727.727    20602727.131    20602728.196
                        49.500          40.500
 116299314.411 7  90622848.991 6  22131019.026    22131018.909    22131019.303
  22131018.995          47.750          41.500
 124862207.694 6  97295221.12943  23760490.049    23760489.826    23760491.064
                        37.500          18.500
 106325366.233 8  82850956.808 7  20233037.072    20233036.498    20233037.340
  20233036.775          52.000          47.500
 120632953.343 7  93999699.72045  22955682.050    22955681.406    22955683.194
                        45.000          30.500
 125348201.113 6  97673933.75542  23852963.436    23852964.946    23852964.880
                        37.500          17.250
 112423917.554 8  87603056.777 7  21393557.012    21393557.198    21393557.485
  21393557.431          50.500          43.750
 129740855.302 6 101096789.420 5  24688861.735    24688865.621    24688862.553
  24688866.323          40.750          34.000
 19  9 29 18 16  0.0000000  0  8G13G05G02G15G21G20G29G30
 108292529.628 8  84383794.26946  20607374.924    20607373.961    20607375.393
                        49.250          40.000
 116369624.595 8  90677636.113 7  22144398.793    22144398.634    22144399.065
  22144399.402          48.000          42.000
 124949161.017 5  97362976.90642  23777038.073    23777036.685    23777039.101
                        35.500          15.500
 106283929.574 8  82818668.502 7  20225151.785    20225151.306    20225152.057
  20225151.592          51.750          47.250
 120558438.713 7  93941636.38545  22941502.056    22941501.855    22941503.191
                        44.500          30.250
 125266253.856 6  97610078.78842  23837369.743    23837370.989    23837371.205
                        37.750          16.750
 112485884.563 8  87651342.746 7  21405349.335    21405349.063    21405349.813
  21405349.185          50.250          43.500
 129762797.560 6 101113887.262 5  24693037.111    24693041.003    24693037.915
  24693041.428          40.500          33.000
 19  9 29 18 16 30.0000000  0  8G13G05G02G15G21G20G29G30
 108317531.605 8  84403276.32546  20612132.531    20612131.633    20612133.000
                        49.500          40.250
 116440057.358 8  90732518.770 7  22157801.636    22157801.554    22157801.913
  22157801.857          48.000          42.000
 125036343.044 6  97430910.93242  23793627.484    23793626.995    23793628.557
                        36.250          14.500
 106243049.234 8  82786813.700 7  20217372.596    20217372.002    20217372.873
  20217372.489          51.750          47.500
 120484044.056 7  93883666.52645  22927345.046    22927344.783    22927346.186
                        45.250          30.500
 125184372.293 6  97546275.01242  23821788.317    23821789.021    23821789.765
                        38.500          17.250
 112548350.983 8  87700017.861 7  21417236.127    21417235.946    21417236.600
  21417236.508          50.500          43.500
 129785240.605 6 101131375.329 5  24697307.797    24697311.456    24697308.575
  24697312.099          40.500          34.500
 19  9 29 18 17  0.0000000  0  8G13G05G02G15G21G20G29G30
 108343114.000 8  84423210.65346  20617000.776    20616999.938    20617001.236
                        49.750          40.500
 116510610.684 7  90787495.379 7  22171227.388    22171227.287    22171227.665
  22171227.412          47.750          42.000
 125123752.847 5  97499022.40342  23810260.431    23810260.684    23810261.455
                        34.000          13.000
 106202725.822 8  82755392.864 7  20209699.403    20209698.877    20209699.675
  20209699.031          52.250          47.750
 120409771.214 7  93825791.59345  22913211.480    22913211.393    22913212.629
                        45.500          30.750
 125102556.832 6  97482522.72642  23806219.045    23806219.811    23806220.435
                        38.250          17.250
 112611314.452 8  87749080.285 7  21429217.618    21429217.467    21429218.096
  21429217.985          50.500          43.500
 129808184.043 6 101149253.301 5  24701674.537    24701678.072    24701675.297
  24701678.730          40.250          34.750
