     2.11           OBSERVATION DATA    G (GPS)             RINEX VERSION / TYPE
teqc  2018Jun8      root                20191128 20:46:08UTCPGM / RUN BY / DATE
Linux 2.4.21-27.ELsmp|Opteron|gcc|Linux 64|=+               COMMENT
teqc  2019Feb25     CORS-ADM Account    20191031 18:47:58UTCCOMMENT
teqc  2019Feb25     NOAA/NOS/NGS/CORS   20190930 04:34:57UTCCOMMENT
teqc  2018Dec12     gpsops              20190929 00:58:19UTCCOMMENT
Linux 2.6.32-573.12.1.x86_64|x86_64|gcc -static|Linux 64|=+ COMMENT
BIT 2 OF LLI FLAGS DATA COLLECTED UNDER A/S CONDITION       COMMENT
                                                            COMMENT
This data is provided as a public service by NASA/JPL.      COMMENT
No warranty is expressed or implied regarding suitability   COMMENT
for use.  For further information, contact:                 COMMENT
Dave Stowers, NASA/JPL m/s 238-600                          COMMENT
4800 Oak Grove Drive, Pasadena CA 91109 USA                 COMMENT
                                                            COMMENT
 SNR is mapped to RINEX snr flag value [0-9]                COMMENT
  L1 & L2: min(max(int(snr_dBHz/6), 0), 9)                  COMMENT
teqc.e edited: all SBAS satellites excluded                 COMMENT
teqc.e edited: all QZSS satellites excluded                 COMMENT
Forced Modulo Decimation to 30 seconds                      COMMENT
GODE                                                        MARKER NAME
40451M123                                                   MARKER NUMBER
GGN                 NASA GODDARD SPACE FLIGHT CENTER        OBSERVER / AGENCY
3013928             SEPT POLARX5TR      0.0.0-181002        REC # / TYPE / VERS
129                 AOAD/M_T        JPLA                    ANT # / TYPE
  1130774.4390 -4831255.0710  3994200.5580                  APPROX POSITION XYZ
        0.0614        0.0000        0.0000                  ANTENNA: DELTA H/E/N
     1     1                                                WAVELENGTH FACT L1/2
     8    L1    L2    P1    P2    C1    C2    S1    S2      # / TYPES OF OBSERV
    30.0000                                                 INTERVAL
teqc.w windowed: start @ 2019 Sep 29 20:00:00.000           COMMENT
teqc.w windowed:  end  @ 2019 Sep 30 08:00:00.000           COMMENT
teqc.w edited: all GLONASS satellites excluded              COMMENT
teqc.w edited: all SBAS satellites excluded                 COMMENT
teqc.w edited: all Galileo satellites excluded              COMMENT
teqc.w edited: all Beidou satellites excluded               COMMENT
teqc.w edited: all QZSS satellites excluded                 COMMENT
  2019     9    29    20     0    0.0000000     GPS         TIME OF FIRST OBS
    18                                                      LEAP SECONDS
                                                            END OF HEADER
 19  9 29 20  0  0.0000000  0 11G13G24G10G05G27G15G21G20G29G32G04
 122922971.831 6  95784135.13843  23391458.246    23391458.958    23391458.648
                        41.000          21.000
 111958216.295 7  87240197.359 7  21304933.426    21304935.998    21304933.685
  21304936.398          47.000          46.000
 121979721.237 7  95049146.908 6  23211963.276    23211965.803    23211963.669
  23211965.645          42.500          40.500
                                                                  25292797.962
  25292800.153          23.500          20.250
 127798995.340 6  99583651.856 6  24319338.444    24319341.994    24319339.016
  24319341.870          39.750          38.000
 109226378.867 8  85111485.578 7  20785081.899    20785081.359    20785082.198
  20785081.885          51.000          45.250
 110353564.547 8  85989787.32146  20999578.326    20999578.047    20999579.488
                        48.750          41.750
 110287894.360 8  85938633.65046  20987080.084    20987080.207    20987081.260
                        48.250          38.000
 131867461.467 7 102753855.875 5  25093551.566    25093554.769    25093552.093
  25093554.817          42.250          34.750
 131647570.649 5 102582523.73642  25051697.711    25051700.693    25051697.952
                        35.000          12.000
 127216854.710 6  99130021.25242  24208561.251    24208562.645    24208561.912
                        36.750          17.500
 19  9 29 20  0 30.0000000  0 11G13G24G10G05G27G15G21G20G29G32G04
 123021767.976 6  95861119.13943  23410258.311    23410259.265    23410258.717
                        41.250          20.750
 111892076.544 7  87188659.906 7  21292347.574    21292349.807    21292347.833
  21292350.456          47.000          45.750
 121902273.595 7  94988798.132 6  23197225.175    23197227.881    23197225.568
  23197227.665          42.250          40.750
                                                                  25309248.248
  25309252.178          22.250          21.250
 127783817.370 6  99571824.923 6  24316451.185    24316453.138    24316451.775
  24316452.991          39.750          38.250
 109287143.603 8  85158834.715 7  20796645.110    20796644.487    20796645.405
  20796644.945          51.000          45.250
 110342782.808 8  85981385.96646  20997526.596    20997526.127    20997527.749
                        48.500          41.750
 110230637.011 8  85894017.54646  20976184.567    20976184.455    20976185.751
                        48.000          38.250
 131969318.305 6 102833224.644 5  25112934.184    25112938.019    25112934.734
  25112937.925          41.500          34.750
 131551850.087 5 102507936.37542  25033482.513    25033485.905    25033482.656
                        35.250          12.250
 127239036.686 6  99147305.90443  24212782.720    24212784.134    24212783.372
                        37.750          18.500
 19  9 29 20  1  0.0000000  0 11G13G24G10G05G27G15G21G20G29G32G04
 123120670.464 6  95938185.95843  23429079.340    23429079.586    23429079.751
                        41.500          21.000
 111826425.489 7  87137503.267 7  21279854.428    21279857.015    21279854.682
  21279857.313          47.250          46.500
 121824874.917 7  94928487.501 6  23182496.560    23182499.139    23182496.931
  23182498.664          43.500          41.000

  25325708.044                          20.250
 127769191.094 6  99560427.815 6  24313666.796    24313669.768    24313667.390
  24313670.871          40.250          39.000
 109348227.195 8  85206432.320 7  20808268.886    20808268.327    20808269.185
  20808268.633          51.500          45.500
 110332469.987 8  85973350.00146  20995564.123    20995563.648    20995565.281
                        49.000          41.750
 110173586.575 8  85849562.67146  20965328.130    20965328.022    20965329.310
                        48.250          38.250
 132071050.231 7 102912496.044 5  25132293.479    25132297.081    25132294.046
  25132297.572          44.000          35.250
 131456246.684 6 102433450.334 5  25015289.409    25015293.283    25015289.565
  25015294.010          36.250          34.500
 127261720.306 6  99164981.48043  24217098.766    24217100.475    24217099.400
                        38.000          18.250
 19  9 29 20  1 30.0000000  0 11G13G24G10G05G27G15G21G20G29G32G04
 123219677.380 6  96015334.18643  23447919.806    23447919.708    23447920.186
                        41.750          20.500
 111761264.965 7  87086728.869 7  21267454.830    21267457.281    21267455.089
  21267457.642          47.000          46.000
 121747525.763 7  94868215.454 6  23167777.605    23167780.203    23167777.980
  23167779.761          43.250          40.250
                                                                  25342166.513
  25342177.437          18.500          20.250
 127755116.528 6  99549460.633 6  24310988.627    24310992.156    24310989.194
  24310992.603          39.250          39.750
 109409627.653 8  85254276.839 7  20819953.008    20819952.570    20819953.303
  20819952.613          51.250          45.500
 110322626.861 8  85965680.03146  20993691.107    20993690.763    20993692.260
                        48.750          41.750
 110116744.592 8  85805270.23546  20954511.497    20954511.484    20954512.677
                        48.250          38.500
 132172654.619 6 102991668.143 5  25151628.109    25151631.456    25151628.676
  25151632.135          41.750          33.000
 131360761.412 6 102359046.347 5  24997118.977    24997123.305    24997119.213
  24997123.918          36.000          34.000
 127284904.578 6  99183047.12742  24221510.538    24221512.361    24221511.195
                        38.250          17.750
 19  9 29 20  2  0.0000000  0 10G13G24G10G27G15G21G20G29G32G04
 123318786.643 6  96092562.13343  23466779.246    23466779.715    23466779.639
                        40.750          20.000
 111696597.758 7  87036338.867 7  21255149.019    21255151.372    21255149.273
  21255152.026          46.500          46.000
 121670226.741 7  94807982.494 6  23153068.059    23153070.648    23153068.425
  23153070.355          42.500          41.000
 127741593.742 6  99538923.421 6  24308415.432    24308418.854    24308415.977
  24308418.205          38.750          38.250
 109471342.824 8  85302366.567 7  20831697.094    20831696.593    20831697.393
  20831696.838          51.250          45.500
 110313254.491 8  85958376.88546  20991907.497    20991907.193    20991908.655
                        48.500          41.750
 110060111.977 8  85761140.93346  20943734.636    20943734.588    20943735.812
                        48.000          38.250
 132274128.841 6 103070738.730 5  25170938.262    25170941.447    25170938.825
  25170942.090          40.500          32.750
 131265395.300 5 102284735.211 5  24978971.473    24978975.735    24978971.736
  24978975.688          33.500          34.000
 127308587.444 6  99201501.31443  24226017.260    24226018.800    24226017.930
                        38.250          18.000
 19  9 29 20  2 30.0000000  0 10G13G24G10G27G15G21G20G29G32G04
 123417996.154 6  96169868.21543  23485658.703    23485658.745    23485659.065
                        40.250          19.500
 111632427.031 7  86986335.724 7  21242937.856    21242940.189    21242938.110
  21242940.550          47.000          46.250
 121592978.521 7  94747789.079 6  23138368.287    23138370.811    23138368.635
  23138370.576          43.250          41.000
 127728622.720 6  99528816.146 6  24305946.878    24305950.174    24305947.445
  24305950.565          39.250          38.500
 109533370.704 8  85350699.981 7  20843500.471    20843500.179    20843500.770
  20843500.296          51.000          45.500
 110304353.585 8  85951441.11446  20990213.949    20990213.204    20990215.102
                        48.500          41.500
 110003690.134 8  85717175.87346  20932997.851    20932997.931    20932999.027
                        48.250          38.500
 132375470.462 6 103149706.016 5  25190222.950    25190225.248    25190223.540
  25190226.436          40.000          31.500
 131170149.390 5 102210517.745 5  24960846.281    24960851.140    24960846.580
  24960850.551          33.250          32.750
 127332767.316 6  99220342.77543  24230618.067    24230620.493    24230618.710
                        38.000          18.000
 19  9 29 20  3  0.0000000  0 11G13G24G10G05G27G15G21G20G29G32G04
 123517303.489 6  96247250.51443  23504556.312    23504556.537    23504556.678
                        40.000          20.000
 111568754.129 7  86936720.499 7  21230821.415    21230823.599    21230821.669
  21230823.774          47.000          46.000
 121515781.677 7  94687635.731 6  23123678.041    23123680.591    23123678.376
  23123680.850          43.250          41.000
                                                                  25391632.599
                        20.500
 127716203.458 6  99519138.799 6  24303583.852    24303586.649    24303584.446
  24303587.066          39.250          38.750
 109595709.390 8  85399275.590 7  20855363.218    20855362.794    20855363.517
  20855362.934          51.000          45.250
 110295924.987 8  85944873.37746  20988609.918    20988609.430    20988611.076
                        48.500          41.750
 109947480.493 8  85673376.16446  20922301.700    20922301.426    20922302.871
                        48.250          38.500
 132476676.626 6 103228567.717 5  25209481.968    25209484.933    25209482.567
  25209486.214          39.250          31.000
 131075024.765 5 102136394.672 5  24942743.919    24942749.533    24942744.169
  24942750.143          33.500          33.500
 127357442.553 6  99239570.23443  24235314.880    24235316.104    24235315.537
                        37.500          18.000
 19  9 29 20  3 30.0000000  0 11G13G24G10G05G27G15G21G20G29G32G04
 123616706.867 6  96324707.65243  23523472.288    23523472.306    23523472.694
                        40.750          20.000
 111505582.400 7  86887495.801 7  21218799.903    21218802.232    21218800.162
  21218802.797          47.250          46.250
 121438636.844 7  94627522.911 6  23108997.972    23109000.518    23108998.302
  23109000.571          43.000          41.000
                                                                  25408138.462
                        21.500
 127704335.897 6  99509891.399 6  24301325.949    24301328.336    24301326.583
  24301328.529          38.500          39.000
 109658356.629 8  85448091.617 7  20867284.401    20867283.993    20867284.705
  20867284.439          51.500          45.000
 110287969.721 8  85938674.46446  20987095.844    20987095.692    20987097.006
                        48.750          41.500
 109891483.964 8  85629742.51546  20911645.506    20911645.706    20911646.686
                        48.250          38.500
 132577744.949 6 103307322.081 5  25228714.895    25228717.798    25228715.471
  25228719.275          39.500          30.500
 130980022.227 5 102062366.778 5  24924665.700    24924671.268    24924665.905
  24924670.694          34.500          34.750
 127382611.888 6  99259182.71442  24240104.213    24240105.489    24240104.915
                        38.000          17.000
 19  9 29 20  4  0.0000000  0 10G13G24G10G27G15G21G20G29G32G04
 123716204.468 6  96402238.23543  23542406.141    23542405.495    23542406.565
                        40.500          20.000
 111442913.507 7  86838662.933 7  21206874.543    21206876.991    21206874.802
  21206877.238          47.500          46.500
 121361544.639 7  94567451.094 6  23094327.807    23094330.185    23094328.146
  23094330.174          43.750          40.500
 127693020.018 6  99501073.814 6  24299172.267    24299174.951    24299172.915
  24299175.266          38.500          39.000
 109721310.707 8  85497146.734 7  20879264.251    20879263.778    20879264.550
  20879264.205          51.250          45.250
 110280488.347 8  85932844.81946  20985672.536    20985672.012    20985673.698
                        48.750          41.250
 109835701.986 8  85586276.04746  20901030.758    20901030.718    20901031.942
                        48.500          38.500
 132678673.030 6 103385967.071 5  25247921.527    25247924.262    25247922.103
  25247925.104          39.500          31.250
 130885142.805 5 101988434.840 5  24906611.175    24906616.341    24906611.434
  24906614.992          34.750          34.500
 127408273.530 6  99279178.78342  24244987.040    24244987.929    24244987.697
                        37.750          17.250
 19  9 29 20  4 30.0000000  0 10G13G24G10G27G15G21G20G29G32G04
 123815793.978 6  96479840.41243  23561356.715    23561357.251    23561357.121
                        40.000          20.250
 111380750.777 7  86790224.469 7  21195045.270    21195047.774    21195045.524
  21195048.166          47.250          46.500
 121284505.778 7  94507420.836 6  23079667.623    23079670.033    23079667.998
  23079669.880          44.000          41.000
 127682255.696 6  99492686.075 6  24297123.375    24297126.684    24297124.054
  24297127.353          39.500          38.250
 109784569.535 8  85546439.335 7  20891302.128    20891301.449    20891302.432
  20891301.868          51.250          44.750
 110273481.972 8  85927385.30846  20984339.133    20984338.651    20984340.300
                        48.750          41.750
 109780135.772 8  85542977.71046  20890457.048    20890456.900    20890458.228
                        48.500          38.750
 132779457.793 6 103464500.403 5  25267099.448    25267103.699    25267100.051
  25267102.400          38.500          32.250
 130790387.330 6 101914599.535 6  24888580.239    24888584.492    24888580.449
  24888585.200          37.000          36.250
 127434425.351 6  99299556.80643  24249963.696    24249964.751    24249964.335
                        37.750          18.250
 19  9 29 20  5  0.0000000  0 10G13G24G10G27G15G21G20G29G32G04
 123915473.163 6  96557512.46443  23580325.349    23580326.210    23580325.746
                        40.000          20.000
 111319095.776 7  86742181.643 7  21183312.601    21183315.306    21183312.855
  21183315.530          47.000          46.750
 121207520.874 7  94447432.621 6  23065017.982    23065020.550    23065018.366
  23065020.487          43.250          40.500
 127672042.828 6  99484728.011 6  24295180.174    24295183.115    24295180.867
  24295183.554          39.000          38.500
 109848130.440 8  85595967.301 7  20903397.146    20903396.776    20903397.450
  20903397.190          51.000          45.000
 110266951.487 8  85922296.61546  20983096.347    20983096.000    20983097.514
                        48.500          41.500
 109724786.464 8  85499848.39146  20879924.271    20879924.225    20879925.451
                        48.250          38.750
 132880096.836 6 103542920.226 5  25286251.366    25286255.234    25286251.862
  25286254.920          37.250          30.500
 130695757.004 6 101840861.735 6  24870571.484    24870576.910    24870571.801
  24870576.960          38.250          36.750
 127461065.921 6  99320315.67443  24255032.907    24255034.873    24255033.613
                        38.750          18.500
 19  9 29 20  5 30.0000000  0 10G13G24G10G27G15G21G20G29G32G04
 124015240.519 6  96635253.22443  23599310.491    23599310.930    23599310.880
                        39.750          18.500
 111257951.477 7  86694536.750 7  21171677.168    21171679.732    21171677.422
  21171680.145          47.750          46.500
 121130590.586 7  94387486.967 6  23050378.712    23050380.856    23050379.087
  23050380.656          44.250          40.500
 127662381.265 6  99477199.512 6  24293341.373    24293344.076    24293342.097
  24293345.477          38.750          38.500
 109911991.618 8  85645729.251 7  20915549.895    20915549.099    20915550.194
  20915549.392          50.750          45.000
 110260897.041 8  85917578.86446  20981944.285    20981943.940    20981945.452
                        48.750          41.500
 109669655.827 8  85456889.46546  20869433.393    20869433.227    20869434.573
                        48.500          39.000
 132980588.027 6 103621224.743 4  25305374.337    25305378.432    25305374.810
  25305377.833          36.250          29.000
 130601252.777 6 101767222.156 6  24852588.986    24852593.135    24852589.294
  24852592.856          38.000          37.500
 127488193.574 6  99341454.10343  24260194.954    24260196.981    24260195.656
                        39.000          18.000
 19  9 29 20  6  0.0000000  0 10G13G24G10G27G15G21G20G29G32G04
 124115093.965 6  96713061.05543  23618312.262    23618312.138    23618312.624
                        39.750          19.500
 111197319.646 7  86647291.197 7  21160139.300    21160141.811    21160139.559
  21160142.126          47.500          46.750
 121053715.532 7  94327584.377 6  23035749.572    23035752.090    23035749.934
  23035752.025          44.250          41.250
 127653270.828 6  99470100.526 6  24291607.531    24291611.143    24291608.237
  24291611.050          39.750          38.000
 109976151.050 8  85695723.611 7  20927758.601    20927758.216    20927758.905
  20927758.563          51.250          45.000
 110255319.865 8  85913233.01346  20980882.962    20980882.516    20980884.133
                        48.750          41.500
 109614744.640 8  85414101.53846  20858984.185    20858983.948    20858985.365
                        48.500          39.000
 133080928.029 5 103699411.527 4  25324469.302    25324472.788    25324469.695
  25324473.510          33.500          29.250
 130506875.548 6 101693681.523 6  24834630.059    24834633.852    24834630.331
  24834633.619          40.000          36.000
 127515806.771 6  99362970.87243  24265450.009    24265451.120    24265450.715
                        38.250          18.000
 19  9 29 20  6 30.0000000  0 10G13G24G10G27G15G21G20G29G32G04
 124215031.516 6  96790934.43643  23637329.864    23637329.596    23637330.185
                        39.000          18.000
 111137202.924 7  86600447.010 7  21148699.540    21148702.023    21148699.799
  21148701.875          47.750          46.500
 120976896.455 7  94267725.373 6  23021131.209    23021133.976    23021131.571
  23021134.537          44.250          41.000
 127644711.374 6  99463430.822 6  24289978.523    24289981.993    24289979.193
  24289982.923          40.750          38.000
 110040607.104 8  85745949.091 7  20940024.383    20940023.823    20940024.682
  20940024.339          51.000          45.000
 110250220.837 8  85909259.74446  20979912.611    20979912.250    20979913.782
                        48.750          41.500
 109560054.449 8  85371485.81746  20848576.713    20848576.707    20848577.897
                        48.500          38.750
 133181114.802 5 103777478.876 4  25343534.448    25343538.065    25343534.743
  25343536.172          33.750          27.000
 130412626.227 6 101620240.584 5  24816693.605    24816698.531    24816693.859
  24816698.805          38.250          34.000
 127543903.359 6  99384864.30442  24270796.537    24270798.023    24270797.310
                        37.750          17.000
 19  9 29 20  7  0.0000000  0 10G13G24G10G27G15G21G20G29G32G04
 124315050.960 6  96868871.63343  23656362.787    23656362.118    23656363.100
                        40.250          18.750
 111077603.634 7  86554006.018 7  21137358.110    21137360.539    21137358.364
  21137360.944          47.250          46.250
 120900133.957 7  94207910.472 6  23006524.185    23006526.571    23006524.565
  23006526.425          44.000          41.250
 127636702.640 6  99457190.275 6  24288455.063    24288457.849    24288455.747
  24288458.935          39.750          38.000
 110105357.200 8  85796403.713 7  20952346.058    20952345.402    20952346.353
  20952346.106          51.500          45.000
 110245600.457 8  85905659.44246  20979033.553    20979033.071    20979034.729
                        49.000          41.500
 109505586.452 8  85329043.23546  20838211.869    20838211.750    20838213.053
                        48.750          39.000
 133281146.101 6 103855423.12041  25362569.709    25362573.552    25362569.928
                        38.500           9.750
 130318505.823 6 101546900.141 5  24798783.540    24798787.326    24798783.772
  24798788.168          37.500          34.250
 127572481.928 6  99407133.30642  24276234.015    24276236.669    24276234.766
                        38.000          17.000
 19  9 29 20  7 30.0000000  0 10G13G24G10G27G15G21G20G29G32G04
 124415150.324 6  96946871.10343  23675410.812    23675410.680    23675411.142
                        40.000          18.500
 111018524.361 7  86507970.240 7  21126115.739    21126118.138    21126115.989
  21126118.418          46.750          46.250
 120823428.771 7  94148140.233 6  22991927.813    22991929.831    22991928.188
  22991929.747          44.000          40.750
 127629244.440 6  99451378.668 6  24287035.680    24287038.467    24287036.382
  24287038.378          40.250          38.250
 110170399.569 8  85847086.067 7  20964723.023    20964722.460    20964723.322
  20964723.054          50.750          44.750
 110241459.103 8  85902432.41446  20978245.233    20978244.965    20978246.413
                        48.750          41.500
 109451341.907 8  85286774.77246  20827889.541    20827889.358    20827890.721
                        48.250          38.750
 133381018.831 5 103933245.763 3  25381574.819    25381579.083    25381575.055
  25381574.410          35.000          23.250
 130224515.259 6 101473660.877 5  24780896.910    24780901.167    24780897.155
  24780901.730          38.750          35.500
 127601540.505 6  99429776.34543  24281764.296    24281766.287    24281765.056
                        38.000          18.000
 19  9 29 20  8  0.0000000  0 11G13G24G10G05G27G15G21G20G29G32G04
 124515327.722 6  97024931.40343  23694474.441    23694473.708    23694474.758
                        40.000          19.000
 110959967.274 7  86462341.362 7  21114972.849    21114975.235    21114973.094
  21114975.466          47.000          46.500
 120746781.576 7  94088415.163 6  22977342.082    22977344.561    22977342.444
  22977344.080          44.000          41.250
                                                                  25557052.517
                        18.000
 127622336.489 6  99445995.845 6  24285721.667    24285723.846    24285722.351
  24285724.133          39.250          37.500
 110235731.928 8  85897994.390 7  20977155.374    20977155.073    20977155.673
  20977155.188          51.000          44.500
 110237797.578 8  85899579.27446  20977548.524    20977548.179    20977549.704
                        48.500          41.500
 109397321.989 8  85244681.34046  20817609.571    20817609.791    20817610.751
                        48.250          39.000
 133480730.823 5 104010943.247 3  25400548.778    25400553.899    25400548.907
  25400553.470          34.750          22.000
 130130655.474 6 101400523.495 5  24763036.859    24763041.028    24763037.078
  24763040.906          38.000          34.750
 127631076.883 6  99452791.70843  24287385.511    24287386.745    24287386.306
                        38.500          18.250
 19  9 29 20  8 30.0000000  0 11G13G24G10G05G27G15G21G20G29G32G04
 124615581.348 6  97103051.05343  23713551.723    23713551.725    23713552.094
                        39.750          18.750
 110901934.391 7  86417120.951 7  21103929.268    21103931.928    21103929.513
  21103932.145          47.250          46.750
 120670193.083 7  94028735.851 6  22962767.797    22962770.103    22962768.159
  22962769.961          44.000          41.000
                                                                  25573641.517
                        20.500
 127615978.495 6  99441041.567 6  24284511.413    24284514.460    24284512.083
  24284514.981          39.750          37.750
 110301352.346 8  85949127.178 7  20989642.537    20989642.137    20989642.832
  20989642.546          50.750          44.750
 110234616.831 8  85897100.77046  20976943.284    20976942.914    20976944.464
                        48.250          41.250
 109343528.231 8  85202764.14046  20807373.173    20807373.053    20807374.349
                        48.250          39.000
 133580279.361 5 104088513.184 4  25419493.341    25419497.620    25419493.779
  25419495.643          34.000          24.250
 130036927.477 6 101327488.744 5  24745201.421    24745205.022    24745201.666
  24745205.206          36.000          34.250
 127661089.844 6  99476178.41743  24293095.456    24293098.197    24293096.207
                        38.750          18.000
 19  9 29 20  9  0.0000000  0 10G13G24G10G27G15G21G20G29G32G04
 124715908.958 6  97181228.39743  23732643.589    23732643.916    23732643.960
                        39.750          19.000
 110844427.976 7  86372310.778 7  21092986.244    21092988.513    21092986.485
  21092989.130          47.500          46.250
 120593663.995 7  93969102.827 6  22948204.934    22948206.990    22948205.309
  22948207.368          44.000          41.000
 127610170.164 6  99436515.622 6  24283406.137    24283409.486    24283406.789
  24283409.735          39.250          38.000
 110367258.848 8  86000482.869 7  21002184.090    21002183.768    21002184.389
  21002184.166          51.000          44.750
 110231917.286 8  85894997.22746  20976429.663    20976429.232    20976430.839
                        48.750          41.500
 109289961.965 8  85161024.20546  20797179.892    20797179.775    20797181.068
                        48.500          39.000
 133679662.562 5 104165954.444 3  25438405.275    25438409.882    25438405.605
  25438408.469          34.000          23.500
 129943332.032 5 101254557.356 5  24727390.525    24727393.620    24727390.712
  24727394.052          34.250          33.000
 127691577.371 6  99499934.93043  24298897.822    24298900.311    24298898.617
                        38.000          18.000
 19  9 29 20  9 30.0000000  0 10G13G24G10G27G15G21G20G29G32G04
 124816308.743 6  97259461.93742  23751749.361    23751749.666    23751749.714
                        39.250          17.750
 110787450.291 7  86327912.602 7  21082143.529    21082146.196    21082143.765
  21082146.616          47.500          46.750
 120517195.011 7  93909516.630 7  22933653.208    22933655.409    22933653.574
  22933655.359          44.500          42.000
 127604911.162 6  99432417.693 6  24282405.102    24282408.218    24282405.723
  24282409.301          39.250          38.500
 110433449.203 8  86052059.765 7  21014779.704    21014779.408    21014779.999
  21014779.599          51.000          45.000
 110229699.696 8  85893269.23046  20976007.594    20976007.281    20976008.770
                        48.750          41.250
 109236624.577 8  85119462.61546  20787029.985    20787029.952    20787031.165
                        48.500          39.000
 133778877.345 5                                                  25457286.005
  25457290.338          34.250          22.250
 129849870.214 6 101181730.063 5  24709605.109    24709607.933    24709605.252
  24709608.453          37.750          33.500
 127722537.412 6  99524059.62343  24304789.627    24304791.781    24304790.405
                        38.000          18.000
 19  9 29 20 10  0.0000000  0 10G13G24G10G27G15G21G20G29G32G04
 124916778.982 6  97337750.41643  23770866.927    23770867.869    23770867.324
                        38.250          18.000
 110731003.899 7  86283928.416 7  21071402.561    21071404.957    21071402.802
  21071405.072          47.750          47.000
 120440786.868 7  93849977.839 7  22919113.159    22919115.633    22919113.534
  22919115.501          44.250          42.000
 127600201.132 6  99428747.530 6  24281508.942    24281511.703    24281509.568
  24281512.380          39.000          38.250
 110499921.857 8  86103856.621 7  21027428.999    21027428.756    21027429.294
  21027428.992          51.000          44.750
 110227964.672 8  85891917.26146  20975677.396    20975677.056    20975678.576
                        48.750          41.500
 109183517.211 8  85078080.26746  20776924.040    20776923.986    20776925.216
                        48.500          39.250
 133877921.513 5                                                  25476132.963
  25476134.547          30.500          19.500
 129756542.828 6 101109007.549 5  24691846.038    24691848.446    24691846.158
  24691848.919          37.500          34.250
 127753968.499 6  99548551.37843  24310770.151    24310772.308    24310770.884
                        38.000          18.000
 19  9 29 20 10 30.0000000  0 10G13G24G10G27G15G21G20G29G32G04
 125017317.698 6  97416092.23442  23789999.616    23789999.679    23790000.036
                        38.000          16.750
 110675090.298 8  86240359.396 7  21060762.280    21060764.691    21060762.516
  21060764.949          48.000          46.750
 120364440.283 7  93790487.026 6  22904584.959    22904587.260    22904585.334
  22904587.132          44.500          41.250
 127596039.692 6  99425504.832 6  24280717.344    24280720.557    24280717.965
  24280720.601          39.500          38.000
 110566674.524 8  86155871.674 7  21040131.710    21040131.295    21040132.005
  21040131.560          51.000          45.000
 110226712.807 8  85890941.78146  20975439.020    20975438.781    20975440.196
                        48.750          41.000
 109130640.949 8  85036877.99546  20766861.919    20766861.865    20766863.095
                        48.500          39.000
 133976792.667 5                                                  25494948.950
                        32.250
 129663350.813 6 101036390.502 5  24674111.218    24674114.917    24674111.361
  24674115.764          38.750          34.500
 127785868.276 6  99573408.34742  24316840.437    24316842.276    24316841.224
                        38.750          16.500
 19  9 29 20 11  0.0000000  0 10G13G24G10G27G15G21G20G29G32G04
 125117922.611 6  97494485.64442  23809143.948    23809144.095    23809144.421
                        38.500          16.750
 110619712.567 7  86197207.934 7  21050224.234    21050226.624    21050224.470
  21050227.021          47.750          46.500
 120288156.007 7  93731044.753 6  22890068.400    22890070.902    22890068.771
  22890070.558          43.750          41.000
 127592426.417 6  99422689.329 6  24280029.081    24280033.188    24280029.729
  24280033.062          40.000          38.250
 110633704.953 8  86208103.179 7  21052887.340    21052886.862    21052887.630
  21052887.096          51.000          44.750
 110225944.815 8  85890343.34546  20975293.016    20975292.707    20975294.205
                        48.750          41.500
 109077997.406 8  84995857.06746  20756844.460    20756844.277    20756845.631
                        49.000          39.500
 134075488.009 4                                                  25513731.883
                        27.250
 129570295.130 6 100963879.624 5  24656402.764    24656406.688    24656402.929
  24656407.059          39.000          35.500
 127818234.775 6  99598628.98342  24322999.952    24323001.543    24323000.703
                        38.500          17.250
 19  9 29 20 11 30.0000000  0 10G13G24G10G27G15G21G20G29G32G04
 125218592.314 6  97572929.50942  23828301.117    23828301.260    23828301.599
                        37.750          17.250
 110564872.021 8  86154475.064 7  21039788.491    21039790.912    21039788.723
  21039791.167          48.000          46.500
 120211934.783 7  93671651.630 6  22875564.384    22875566.336    22875564.746
  22875566.369          44.000          41.500
 127589360.941 6  99420300.654 6  24279446.732    24279449.440    24279447.389
  24279449.916          40.000          37.500
 110701011.434 8  86260549.757 7  21065695.203    21065694.698    21065695.498
  21065694.911          50.750          44.500
 110225660.997 8  85890122.18346  20975239.035    20975238.725    20975240.219
                        48.500          41.500
 109025587.959 8  84955018.54646  20746870.891    20746870.998    20746872.062
                        48.250          39.500
                                                                  25532465.602
                        21.250
 129477376.634 6 100891475.736 6  24638721.297    24638724.917    24638721.475
  24638725.505          37.500          36.250
 127851066.330 6  99624211.98042  24329247.257    24329249.017    24329248.012
                        38.750          17.750
 19  9 29 20 12  0.0000000  0 10G13G24G10G27G15G21G20G29G32G04
 125319324.627 6  97651422.19842  23847469.347    23847470.059    23847469.803
                        38.500          17.500
 110510571.451 8  86112162.943 7  21029455.249    21029457.659    21029455.481
  21029458.011          48.000          46.500
 120135777.340 7  93612308.188 6  22861071.641    22861074.022    22861072.007
  22861073.742          44.750          41.000
 127586842.762 6  99418338.428 6  24278967.015    24278969.903    24278967.672
  24278970.351          39.750          37.750
 110768591.622 8  86313209.648 7  21078555.283    21078554.807    21078555.587
  21078555.239          50.500          44.500
 110225862.093 8  85890278.88146  20975277.414    20975277.007    20975278.598
                        48.500          41.250
 108973413.961 8  84914363.49246  20736942.737    20736942.565    20736943.908
                        48.500          39.500
                                                                  25551203.874
                        20.500
 129384596.228 6 100819179.396 5  24621065.461    24621069.601    24621065.586
  24621069.670          36.500          35.250
 127884361.089 6  99650155.94042  24335584.078    24335584.894    24335584.829
                        38.250          17.000
 19  9 29 20 12 30.0000000  0 10G13G24G10G27G15G21G20G29G32G04
 125420117.643 6  97729962.17642  23866650.028    23866650.346    23866650.452
                        38.500          17.750
 110456812.372 8  86070272.783 7  21019225.368    21019227.834    21019225.604
  21019228.143          48.000          47.000
 120059684.435 7  93553015.034 6  22846591.769    22846594.036    22846592.158
  22846594.044          44.750          41.750
 127584871.397 6  99416802.325 6  24278591.647    24278595.123    24278592.317
  24278596.010          39.500          39.000
 110836443.751 8  86366081.435 7  21091467.187    21091466.832    21091467.486
  21091466.802          50.750          44.500
 110226548.347 8  85890813.62546  20975407.985    20975407.480    20975409.165
                        48.500          41.250
 108921476.703 8  84873892.91246  20727059.429    20727059.318    20727060.609
                        48.750          39.500
                                                                  25569881.520
                        20.000
 129291954.764 6 100746991.370 6  24603436.663    24603440.627    24603436.752
  24603441.071          36.250          37.250
 127918117.170 6  99676459.37042  24342007.252    24342008.452    24342007.958
                        37.500          16.500
 19  9 29 20 13  0.0000000  0 10G13G24G10G27G15G21G20G29G32G04
 125520969.642 6  97808548.12542  23885841.410    23885842.041    23885841.776
                        38.000          17.000
 110403597.457 8  86028806.635 7  21009098.827    21009101.228    21009099.059
  21009101.520          48.000          47.000
 119983656.831 7  93493772.768 7  22832123.577    22832126.387    22832123.988
  22832126.591          44.750          42.000
 127583446.338 6  99415691.891 6  24278321.257    24278324.201    24278321.918
  24278323.923          39.750          38.500
 110904566.086 8  86419163.757 7  21104430.620    21104429.994    21104430.928
  21104430.578          50.500          45.000
 110227720.639 8  85891727.09546  20975631.093    20975630.587    20975632.269
                        48.500          41.250
 108869777.288 8  84833607.65946  20717221.321    20717221.123    20717222.501
                        48.250          39.500
                                                                  25588508.560
                        22.750
 129199453.163 6 100674912.277 6  24585834.426    24585838.295    24585834.519
  24585838.622          36.250          36.500
 127952331.944 6  99703120.22442  24348517.651    24348519.286    24348518.366
                        38.250          17.500
 19  9 29 20 13 30.0000000  0  9G13G24G10G27G15G21G20G32G04
 125621878.705 6  97887178.50642  23905044.090    23905044.485    23905044.438
                        39.000          17.750
 110350928.520 7  85987765.931 7  20999076.357    20999078.689    20999076.589
  20999078.993          47.750          47.000
 119907695.297 7  93434582.002 7  22817669.063    22817671.264    22817669.469
  22817671.661          44.500          42.000
 127582567.085 6  99415006.780 6  24278153.468    24278156.493    24278154.125
  24278155.806          39.500          37.250
 110972956.035 8  86472454.617 7  21117444.699    21117444.200    21117445.007
  21117444.384          50.500          44.750
 110229379.198 8  85893019.47946  20975946.738    20975946.221    20975947.922
                        48.250          41.250
 108818317.212 8  84793508.90846  20707428.855    20707428.707    20707430.026
                        48.500          39.750
 129107092.340 6 100602942.855 5  24568258.726    24568261.974    24568258.869
  24568262.389          38.500          34.750
 127987004.000 6  99730137.38442  24355115.556    24355117.215    24355116.249
                        37.500          16.500
 19  9 29 20 14  0.0000000  0 10G13G24G10G27G15G21G20G29G32G04
 125722843.140 6  97965852.07942  23924257.554    23924257.053    23924257.858
                        39.500          17.500
 110298807.629 7  85947152.274 7  20989157.835    20989160.318    20989158.071
  20989160.568          47.750          47.000
 119831800.643 7  93375443.327 7  22803226.877    22803229.076    22803227.279
  22803228.882          45.000          42.000
 127582233.053 6  99414746.500 6  24278089.741    24278092.079    24278090.389
  24278091.301          39.000          36.250
 111041611.703 8  86525952.520 7  21130509.557    21130508.953    21130509.861
  21130509.371          51.000          44.750
 110231524.856 8  85894691.41246  20976354.922    20976354.628    20976356.102
                        48.750          41.250
 108767097.947 8  84753597.80046  20697681.915    20697681.934    20697683.095
                        48.750          39.750
                                                                  25625736.562
                        19.000
 129014873.190 6 100531083.873 5  24550709.279    24550713.271    24550709.484
  24550714.050          37.250          34.250
 128022131.098 6  99757509.13542  24361800.169    24361801.826    24361800.893
                        38.750          17.250
 19  9 29 20 14 30.0000000  0  9G13G24G10G27G15G21G20G32G04
 125823860.706 6  98044567.02742  23943479.679    23943480.375    23943479.996
                        39.250          17.250
 110247236.418 8  85906966.955 7  20979344.341    20979346.756    20979344.573
  20979347.166          48.250          47.250
 119755973.654 7  93316357.386 7  22788797.263    22788799.714    22788797.652
  22788799.618          45.000          42.000
 127582443.694 6  99414910.640 6  24278129.717    24278132.557    24278130.365
  24278133.759          39.000          38.250
 111110531.494 8  86579656.263 7  21143624.289    21143623.869    21143624.597
  21143624.000          51.000          44.250
 110234157.724 8  85896742.99446  20976855.886    20976855.611    20976857.062
                        48.750          41.250
 108716121.068 8  84713875.56146  20687981.546    20687981.384    20687982.722
                        48.750          39.500
 128922796.519 6 100459335.861 5  24533187.999    24533191.727    24533188.110
  24533191.931          36.750          33.750
 128057711.193 6  99785233.88342  24368571.001    24368572.832    24368571.729
                        38.750          17.750
                            4  1
RINEX FILE SPLICE; other post-header comments skipped       COMMENT
 19  9 29 20 15  0.0000000  0  9G13G24G10G27G15G21G20G32G04
 125924929.777 6  98123322.10842  23962712.760    23962712.989    23962713.064
                        39.500          17.500
 110196217.129 8  85867211.681 7  20969635.732    20969637.880    20969635.955
  20969638.398          48.250          47.250
 119680215.069 7  93257324.753 6  22774380.862    22774383.426    22774381.237
  22774383.045          45.000          41.750
 127583198.421 6  99415498.749 6  24278273.222    24278276.337    24278273.879
  24278276.770          39.500          38.000
 111179713.083 8  86633563.975 7  21156789.155    21156788.509    21156789.450
  21156789.138          50.500          44.750
 110237278.397 8  85899174.68446  20977449.999    20977449.407    20977451.175
                        48.500          41.250
 108665387.340 8  84674342.78946  20678327.108    20678327.097    20678328.284
                        48.500          39.750
 128830863.128 6 100387699.566 5  24515693.322    24515696.898    24515693.465
  24515697.851          37.000          34.500
 128093741.846 6  99813309.72242  24375427.763    24375428.773    24375428.469
                        38.000          17.750
 19  9 29 20 15 30.0000000  0  9G13G24G10G27G15G21G20G32G04
 126026048.738 6  98202116.06842  23981954.835    23981955.624    23981955.071
                        37.250          16.500
 110145752.303 8  85827888.464 7  20960032.579    20960034.780    20960032.811
  20960035.142          48.000          47.000
 119604525.750 7  93198346.085 6  22759977.718    22759980.008    22759978.093
  22759979.983          45.000          41.500
 127584496.583 6  99416510.332 6  24278520.176    24278523.453    24278520.842
  24278523.831          38.250          37.750
 111249154.585 8  86687674.237 7  21170003.626    21170002.999    21170003.916
  21170003.324          50.250          44.500
 110240887.118 8  85901986.66946  20978136.441    20978136.074    20978137.621
                        48.750          41.500
 108614898.474 8  84635000.82346  20668719.271    20668719.306    20668720.447
                        48.750          40.000
 128739073.929 5 100316175.639 5  24498226.041    24498229.725    24498226.318
  24498231.541          34.250          34.750
 128130221.389 6  99841735.29942  24382368.822    24382370.556    24382369.564
                        37.750          16.750
 19  9 29 20 16  0.0000000  0  9G13G24G10G27G15G21G20G32G04
 126127215.585 6  98280947.36042  24001206.431    24001207.023    24001206.739
                        38.500          16.750
 110095843.207 7  85788998.283 7  20950535.205    20950537.452    20950535.433
  20950537.667          47.750          47.000
 119528906.467 7  93139421.993 6  22745587.605    22745590.076    22745587.985
  22745590.151          44.750          41.750
 127586337.558 6  99417944.867 6  24278871.067    24278873.719    24278871.661
  24278874.057          38.250          37.000
 111318854.059 8  86741985.509 7  21183266.858    21183266.467    21183267.139
  21183266.591          50.750          44.250
 110244984.334 8  85905179.30046  20978916.279    20978915.858    20978917.455
                        48.500          41.250
 108564655.760 8  84595850.66446  20659158.693    20659158.508    20659159.873
                        48.750          40.000
 128647429.843 5 100244764.746 6  24480786.457    24480790.160    24480786.644
  24480791.005          34.750          36.250
 128167147.837 6  99870509.15842  24389395.752    24389397.434    24389396.427
                        37.250          16.250
 19  9 29 20 16 30.0000000  0  9G13G24G10G27G15G21G20G32G04
 126228428.446 6  98359814.49642  24020466.716    24020467.187    24020467.087
                        37.000          15.750
 110046492.208 8  85750542.990 7  20941143.997    20941146.271    20941144.216
  20941146.719          48.500          47.250
 119453358.062 7  93080553.133 6  22731211.326    22731213.586    22731211.719
  22731213.552          45.500          41.750
 127588720.622 6  99419801.833 6  24279324.533    24279327.567    24279325.132
  24279327.678          38.250          38.500
 111388809.721 8  86796496.407 7  21196578.925    21196578.505    21196579.215
  21196578.924          51.000          44.000
 110249570.670 8  85908753.06346  20979788.941    20979788.607    20979790.108
                        49.000          41.250
 108514660.437 8  84556893.27446  20649644.700    20649644.693    20649645.880
                        48.750          39.750
 128555931.611 5 100173467.549 5  24463376.005    24463378.900    24463376.170
  24463379.420          34.750          35.750
 128204518.831 6  99899629.39842  24396507.720    24396508.785    24396508.404
                        39.250          17.250
 19  9 29 20 17  0.0000000  0  9G13G24G10G27G15G21G20G32G04
 126329685.480 6  98438716.04742  24039735.435    24039735.408    24039735.810
                        37.000          16.500
 109997700.981 8  85712523.862 7  20931859.220    20931861.550    20931859.448
  20931861.904          48.250          46.750
 119377881.356 7  93021740.143 6  22716848.781    22716850.770    22716849.196
  22716850.786          45.500          41.500
 127591645.147 6  99422080.677 6  24279880.729    24279884.092    24279881.332
  24279884.438          37.250          37.750
 111459019.190 8  86851205.076 7  21209939.311    21209939.056    21209939.583
  21209939.263          50.750          44.250
 110254646.235 8  85912708.04546  20980754.972    20980754.388    20980756.139
                        48.750          41.250
 108464914.212 8  84518129.98946  20640178.330    20640178.330    20640179.523
                        48.750          40.000
 128464580.170 5 100102284.629 5  24445992.359    24445995.141    24445992.542
  24445996.148          35.250          32.750
 128242332.305 6  99929094.40642  24403703.537    24403704.556    24403704.230
                        38.000          17.000
 19  9 29 20 17 30.0000000  0  9G13G24G10G27G15G21G20G32G04
 126430985.271 6  98517650.89442  24059011.951    24059012.077    24059012.348
                        38.000          16.500
 109949471.555 8  85674942.515 7  20922681.378    20922683.742    20922681.601
  20922683.926          48.000          46.500
 119302477.152 7  92962983.645 6  22702499.631    22702501.866    22702500.055
  22702502.192          45.250          41.750
 127595110.363 6  99424780.862 6  24280540.952    24280543.987    24280541.560
  24280544.166          38.500          37.750
 111529480.743 8  86906110.175 7  21223347.848    21223347.337    21223348.111
  21223347.688          51.000          44.250
 110260211.512 8  85917044.61946  20981813.734    20981813.505    20981814.901
                        48.750          41.500
 108415418.185 8  84479561.66446  20630759.445    20630759.573    20630760.638
                        49.000          40.250
 128373376.218 5 100031216.726 5  24428634.903    24428639.468    24428635.113
  24428640.937          35.000          33.250
 128280586.378 6  99958902.77142  24410982.694    24410984.501    24410983.302
                        38.500          17.250
 19  9 29 20 18  0.0000000  0  9G13G24G10G27G15G21G20G32G04
 126532325.713 6  98596617.44642  24078296.174    24078296.115    24078296.571
                        38.000          16.500
 109901805.725 8  85637800.331 7  20913611.153    20913613.029    20913611.381
  20913613.650          48.250          47.250
 119227146.331 7  92904284.324 7  22688164.604    22688166.953    22688165.006
  22688166.716          45.250          42.000
 127599115.521 6  99427901.800 6  24281302.452    24281305.200    24281303.082
  24281305.954          38.250          37.500
 111600192.218 8  86961210.021 7  21236803.807    21236803.299    21236804.070
  21236803.545          50.500          44.500
 110266266.894 8  85921763.09046  20982966.191    20982965.771    20982967.358
                        49.000          41.250
 108366173.886 8  84441189.48746  20621388.511    20621388.559    20621389.695
                        48.750          40.000
 128282320.711 5  99960264.439 5  24411308.042    24411312.311    24411308.261
  24411312.481          35.000          34.250
 128319278.215 6  99989052.25442  24418345.971    24418347.228    24418346.556
                        38.000          17.750
 19  9 29 20 18 30.0000000  0  9G13G24G10G27G15G21G20G32G04
 126633705.062 6  98675614.30143  24097588.261    24097588.912    24097588.645
                        38.000          18.000
 109854705.780 8  85601099.093 7  20904648.178    20904650.466    20904648.410
  20904650.631          48.250          47.000
 119151889.687 7  92845642.812 7  22673843.774    22673846.040    22673844.158
  22673846.015          45.250          42.000
 127603659.869 6  99431442.824 6  24282166.892    24282169.990    24282167.504
  24282170.199          38.500          37.500
 111671151.553 8  87016503.003 7  21250307.083    21250306.548    21250307.342
  21250306.667          50.500          44.000
 110272812.604 8  85926863.64046  20984211.929    20984211.426    20984213.096
                        48.500          41.250
 108317182.660 8  84403014.51546  20612066.003    20612065.928    20612067.192
                        48.500          40.000
 128191414.380 6  99889428.407 5  24394009.518    24394013.124    24394009.808
  24394014.373          37.000          33.250
 128358406.228 6 100019541.57842  24425791.974    24425793.039    24425792.582
                        38.500          16.750
 19  9 29 20 19  0.0000000  0  9G13G24G10G27G15G21G20G32G04
 126735121.816 6  98754640.28642  24116887.454    24116888.194    24116887.811
                        38.500          17.500
 109808172.642 8  85564839.525 7  20895793.032    20895795.652    20895793.260
  20895795.700          48.500          47.500
 119076708.123 7  92787059.806 7  22659537.192    22659539.469    22659537.581
  22659539.299          45.500          42.500
 127608742.614 6  99435403.405 6  24283134.407    24283137.756    24283135.015
  24283137.903          37.500          38.000
 111742357.133 8  87071987.866 7  21263856.788    21263856.298    21263857.056
  21263856.516          50.750          43.750
 110279849.004 8  85932346.54646  20985550.694    20985550.400    20985551.865
                        49.000          41.500
 108268445.794 8  84365037.74746  20602791.832    20602791.618    20602793.025
                        48.750          40.250
 128100658.085 6  99818709.327 5  24376739.310    24376742.828    24376739.524
  24376743.780          38.000          34.750
 128397968.107 6 100050369.01242  24433319.657    24433321.458    24433320.256
                        38.250          16.750
 19  9 29 20 19 30.0000000  0  9G13G24G10G27G15G21G20G32G04
 126836574.099 6  98833693.97443  24136192.846    24136193.762    24136193.212
                        39.500          18.250
 109762208.949 8  85529023.673 7  20887046.580    20887048.760    20887046.816
  20887048.993          48.750          47.000
 119001602.477 7  92728535.952 7  22645245.365    22645247.465    22645245.740
  22645246.999          45.750          42.750
 127614362.978 6  99439782.931 6  24284204.074    24284207.315    24284204.700
  24284207.324          37.250          38.500
 111813806.779 8  87127662.906 7  21277453.519    21277452.687    21277453.787
  21277453.146          51.000          44.000
 110287376.169 8  85938211.86546  20986983.020    20986982.782    20986984.191
                        49.000          41.250
 108219964.729 8  84327260.30146  20593565.925    20593565.864    20593567.109
                        49.000          40.250
 128010052.623 6  99748107.757 5  24359496.895    24359501.007    24359497.149
  24359502.209          37.000          32.750
 128437961.748 6 100081532.85342  24440930.593    24440932.442    24440931.125
                        38.750          17.250
 19  9 29 20 20  0.0000000  0  9G13G24G10G27G15G21G20G32G04
 126938060.037 6  98912773.89342  24155505.456    24155505.502    24155505.786
                        39.000          16.750
 109716816.066 8  85493652.614 7  20878408.601    20878410.668    20878408.829
  20878410.868          48.500          47.000
 118926573.599 7  92670071.899 7  22630967.873    22630969.794    22630968.244
  22630969.984          45.500          42.500
 127620520.102 6  99444580.680 6  24285375.732    24285378.679    24285376.308
  24285379.128          38.750          37.250
 111885498.551 8  87183526.614 7  21291095.757    21291095.281    21291096.029
  21291095.654          50.500          44.000
 110295394.550 8  85944459.95246  20988509.021    20988508.593    20988510.188
                        48.750          41.250
 108171740.993 8  84289683.37246  20584389.213    20584389.335    20584390.397
                        48.750          40.250
 127919598.863 6  99677624.344 5  24342285.408    24342288.073    24342285.698
  24342288.395          36.750          33.500
 128478384.671 6 100113031.24542  24448622.387    24448624.567    24448622.950
                        39.250          16.750
 19  9 29 20 20 30.0000000  0  9G13G24G10G27G15G21G20G32G04
 127039578.013 6  98991878.78642  24174822.989    24174823.663    24174823.315
                        38.500          17.000
 109671996.094 8  85458727.974 7  20869879.622    20869881.714    20869879.858
  20869882.047          48.000          47.500
 118851622.403 7  92611668.398 7  22616705.170    22616706.986    22616705.532
  22616706.844          45.250          42.500
 127627213.094 6  99449796.000 6  24286649.241    24286651.848    24286649.817
  24286652.519          38.000          36.250
 111957431.163 8  87239577.986 7  21304784.037    21304783.628    21304784.305
  21304783.941          50.250          44.250
 110303904.272 8  85951090.90046  20990128.336    20990127.956    20990129.503
                        48.500          41.500
 108123775.832 8  84252307.93146  20575261.743    20575261.743    20575262.923
                        48.500          40.500
 127829297.517 6  99607259.762 5  24325101.381    24325104.767    24325101.716
  24325105.165          38.500          33.500
 128519234.914 6 100144862.56742  24456396.546    24456398.411    24456397.113
                        38.250          17.000
 19  9 29 20 21  0.0000000  0  9G13G24G10G27G15G21G20G32G04
 127141126.331 6  99071007.31142  24194147.521    24194147.677    24194147.878
                        39.250          16.750
 109627750.562 8  85424250.954 7  20861459.925    20861462.217    20861460.161
  20861462.660          48.250          47.250
 118776749.723 7  92553326.087 7  22602457.057    22602459.166    22602457.419
  22602458.990          45.500          42.000
 127634441.138 6  99455428.252 6  24288025.335    24288027.342    24288025.871
  24288028.567          38.000          37.750
 112029601.963 8  87295814.970 7  21318517.703    21318517.144    21318517.971
  21318517.621          50.500          43.750
 110312905.485 8  85958104.82546  20991841.124    20991840.860    20991842.286
                        49.000          41.500
 108076070.602 8  84215135.03646  20566183.777    20566183.745    20566184.966
                        49.000          40.500
 127739149.490 6  99537014.564 5  24307946.299    24307949.745    24307946.616
  24307950.157          39.500          31.250
 128560509.872 6 100177024.85042  24464251.277    24464251.851    24464251.809
                        39.000          16.500
 19  9 29 20 21 30.0000000  0  9G13G24G10G27G15G21G20G32G04
 127242702.989 6  99150157.92342  24213476.965    24213477.298    24213477.340
                        37.750          15.250
 109584081.063 8  85390222.789 7  20853149.898    20853152.140    20853150.139
  20853152.436          48.250          47.250
 118701956.574 7  92495045.724 6  22588224.417    22588226.278    22588224.779
  22588226.248          45.750          41.750
 127642203.261 6  99461476.661 6  24289501.785    24289505.276    24289502.321
  24289504.316          38.250          36.250
 112102008.896 8  87352235.950 7  21332296.158    21332295.917    21332296.430
  21332296.005          50.500          44.000
 110322398.321 8  85965501.83946  20993647.667    20993647.248    20993648.829
                        49.000          41.000
 108028626.945 8  84178165.96246  20557155.583    20557155.562    20557156.763
                        49.000          40.250
 127649155.432 6  99466889.399 5  24290821.166    24290823.994    24290821.411
  24290825.692          38.500          33.250
 128602207.394 6 100209516.40142  24472185.535    24472186.566    24472186.111
                        39.250          16.500
 19  9 29 20 22  0.0000000  0  9G13G24G10G27G15G21G20G32G04
 127344306.688 6  99229329.63342  24232811.267    24232811.740    24232811.754
                        38.500          13.750
 109540989.479 8  85356644.943 7  20844949.618    20844952.061    20844949.859
  20844952.368          48.500          47.250
 118627243.703 7  92436827.928 7  22574006.753    22574009.040    22574007.106
  22574009.021          45.750          42.250
 127650498.590 6  99467940.579 6  24291080.743    24291083.401    24291081.293
  24291083.961          38.250          37.250
 112174650.350 8  87408839.666 7  21346119.356    21346119.196    21346119.619
  21346119.332          50.500          44.000
 110332383.142 8  85973282.21446  20995547.612    20995547.232    20995548.779
                        49.000          41.000
 107981446.110 8  84141401.68346  20548177.258    20548177.210    20548178.438
                        48.750          40.250
 127559316.170 6  99396884.808 5  24273724.995    24273728.127    24273725.178
  24273729.516          38.500          34.000
 128644325.456 6 100242335.67842  24480200.213    24480202.012    24480200.830
                        38.250          16.250
 19  9 29 20 22 30.0000000  0  9G13G24G10G27G15G21G20G32G04
 127445935.808 6  99308521.12842  24252151.004    24252151.297    24252151.527
                        38.250          14.000
 109498477.042 8  85323518.391 7  20836859.702    20836862.154    20836859.938
  20836862.503          48.250          47.500
 118552612.051 7  92378673.411 7  22559804.899    22559807.203    22559805.252
  22559806.662          45.000          42.750
 127659326.137 6  99474819.166 6  24292760.641    24292762.146    24292761.235
  24292762.800          37.250          37.000
 112247524.346 8  87465624.582 7  21359986.697    21359986.600    21359986.974
  21359986.867          50.250          44.000
 110342860.289 8  85981446.22146  20997541.488    20997541.057    20997542.655
                        48.500          41.250
 107934529.126 8  84104843.00346  20539249.270    20539249.365    20539250.454
                        48.500          40.500
 127469632.520 6  99327001.516 6  24256658.741    24256662.327    24256658.991
  24256662.921          39.750          36.000
 128686861.476 6 100275480.59142  24488294.369    24488296.150    24488295.021
                        37.000          15.000
 19  9 29 20 23  0.0000000  0  9G13G24G10G27G15G21G20G32G04
 127547588.371 6  99387730.89942  24271494.731    24271495.201    24271495.254
                        37.500          14.000
 109456545.723 8  85290844.651 7  20828880.541    20828882.950    20828880.786
  20828883.266          48.000          47.250
 118478062.564 7  92320582.921 7  22545618.835    22545620.851    22545619.174
  22545620.558          45.000          42.750
 127668684.946 6  99482111.778 6  24294541.231    24294543.869    24294541.789
  24294544.713          38.500          36.750
 112320628.820 8  87522589.102 7  21373898.165    21373898.019    21373898.437
  21373898.265          50.250          44.250
 110353829.694 8  85989993.80546  20999628.788    20999628.589    20999629.955
                        48.500          41.250
 107887877.988 8  84068491.47246  20530371.870    20530371.938    20530373.050
                        48.500          40.500
 127380105.201 6  99257240.061 5  24239622.318    24239625.946    24239622.577
  24239626.409          37.750          34.250
 128729813.483 6 100308949.69542  24496467.907    24496469.775    24496468.626
                        37.500          16.250
 19  9 29 20 23 30.0000000  0  9G13G24G10G27G15G21G20G32G04
 127649262.779 6  99466957.66242  24290842.837    24290843.094    24290843.328
                        38.000          13.750
 109415196.932 8  85258624.828 7  20821012.430    20821014.267    20821012.666
  20821014.725          48.250          47.750
 118403596.175 7  92262557.174 7  22531448.452    22531450.355    22531448.791
  22531450.332          45.500          42.750
 127678573.999 6  99489817.517 6  24296422.685    24296426.239    24296423.252
  24296426.310          38.500          37.750
 112393962.063 8  87579731.879 7  21387853.145    21387852.952    21387853.422
  21387853.172          50.500          44.000
 110365291.417 8  85998925.01246  21001809.930    21001809.489    21001811.097
                        48.750          41.250
 107841493.854 8  84032347.99746  20521545.472    20521545.187    20521546.648
                        48.750          40.500
 127290735.050 6  99187601.034 5  24222616.237    24222619.015    24222616.451
  24222620.115          41.000          34.250
 128773178.899 6 100342740.89542  24504720.251    24504722.007    24504720.966
                        37.250          16.750
 19  9 29 20 24  0.0000000  0  9G13G24G10G27G15G21G20G32G04
 127750957.452 6  99546200.23042  24310194.303    24310194.823    24310194.772
                        37.500          14.250
 109374432.277 8  85226860.193 7  20813254.714    20813257.205    20813254.950
  20813257.622          48.000          47.500
 118329213.768 7  92204596.888 7  22517293.768    22517295.814    22517294.085
  22517295.600          45.000          42.500
 127688992.239 6  99497935.644 6  24298405.475    24298408.652    24298406.038
  24298408.405          37.000          36.750
 112467522.237 8  87637051.475 7  21401851.078    21401850.812    21401851.359
  21401850.984          49.750          43.500
 110377245.645 8  86008239.98946  21004084.704    21004084.409    21004085.871
                        48.250          41.250
 107795378.234 8  83996413.75346  20512769.844    20512769.744    20512771.024
                        48.750          40.750
 127201522.766 6  99118085.056 5  24205639.286    24205642.066    24205639.482
  24205642.231          39.750          33.750
 128816955.019 6 100376852.12142  24513050.268    24513052.408    24513051.005
                        37.750          16.500
 19  9 29 20 24 30.0000000  0  9G13G24G10G27G15G21G20G32G04
 127852670.506 6  99625457.12442  24329549.708    24329550.460    24329550.168
                        37.750          14.000
 109334254.081 8  85195552.526 7  20805609.070    20805611.679    20805609.311
  20805611.819          48.500          47.750
 118254916.312 7  92146702.788 7  22503155.644    22503157.268    22503155.961
  22503157.510          46.000          42.750
 127699938.665 6  99506465.335 6  24300488.776    24300490.416    24300489.299
  24300491.863          39.000          36.750
 112541307.337 8  87694546.360 7  21415892.025    21415891.559    21415892.306
  21415891.721          50.500          43.500
 110389692.379 8  86017938.73546  21006453.216    21006452.996    21006454.387
                        49.000          41.000
 107749532.699 8  83960689.96646  20504045.843    20504045.591    20504047.014
                        48.750          40.750
 127112469.100 6  99048692.604 5  24188692.485    24188695.605    24188692.681
  24188696.192          38.250          32.750
 128861140.357 6 100411282.25742  24521457.961    24521460.520    24521458.756
                        38.500          15.500
 19  9 29 20 25  0.0000000  0  9G13G24G10G27G15G21G20G32G04
 127954400.435 6  99704727.18242  24348908.210    24348909.031    24348908.688
                        38.250          16.000
 109294663.406 8  85164702.661 7  20798075.465    20798077.630    20798075.706
  20798078.047          48.250          47.500
 118180704.755 7  92088875.629 7  22489033.268    22489035.213    22489033.572
  22489035.507          45.250          42.750
 127711412.196 6  99515405.758 6  24302671.839    24302674.527    24302672.375
  24302675.039          39.000          38.000
 112615315.430 8  87752214.986 7  21429975.248    21429974.850    21429975.543
  21429975.354          50.000          43.500
 110402631.841 8  86028021.42746  21008915.545    21008915.255    21008916.712
                        48.750          41.250
 107703958.306 8  83925177.46146  20495373.279    20495372.959    20495374.450
                        48.750          40.750
 127023574.815 6  98979424.441 5  24171777.124    24171778.782    24171777.334
  24171780.314          39.250          32.250
 128905731.849 6 100446028.81442  24529943.754    24529945.724    24529944.599
                        36.000          14.250
 19  9 29 20 25 30.0000000  0  9G13G24G10G27G15G21G20G32G04
 128056145.879 6  99784009.30142  24368270.182    24368270.808    24368270.673
                        38.500          16.250
 109255661.553 8  85134311.625 7  20790653.777    20790655.711    20790654.018
  20790656.068          49.000          47.500
 118106580.055 7  92031116.135 7  22474927.627    22474929.944    22474927.944
  22474929.999          46.000          43.250
 127723411.768 6  99524756.073 6  24304955.223    24304958.238    24304955.817
  24304958.905          37.000          38.250
 112689544.651 8  87810055.933 7  21444100.690    21444100.137    21444100.994
  21444100.550          50.500          43.250
 110416063.800 8  86038487.88046  21011471.512    21011471.221    21011472.674
                        48.750          41.000
 107658656.688 8  83889877.50546  20486752.531    20486752.436    20486753.707
                        48.750          40.750
 126934840.656 6  98910281.019 5  24154891.781    24154893.448    24154892.004
  24154894.576          40.500          33.250
 128950727.424 6 100481090.28942  24538506.897    24538508.568    24538507.728
                        36.250          15.750
 19  9 29 20 26  0.0000000  0  9G13G24G10G27G15G21G20G32G04
 128157905.133 6  99863302.18742  24387634.195    24387634.991    24387634.700
                        38.500          16.000
 109217250.023 8  85104380.582 7  20783343.942    20783346.133    20783344.183
  20783346.466          48.750          47.500
 118032543.155 7  91973425.068 7  22460838.907    22460841.167    22460839.228
  22460841.221          46.250          43.000
 127735936.171 6  99534515.376 6  24307337.606    24307341.595    24307338.223
  24307341.536          37.000          37.250
 112763993.340 8  87868067.882 7  21458267.600    21458267.186    21458267.904
  21458267.653          50.500          43.000
 110429988.855 8  86049338.56846  21014121.461    21014121.154    21014122.628
                        49.250          41.000
 107613629.245 8  83854791.18646  20478184.266    20478184.011    20478185.442
                        48.750          40.500
 126846267.343 6  98841262.910 5  24138035.902    24138039.164    24138036.080
  24138039.863          41.000          35.250
 128996124.607 6 100516464.69142  24547144.823    24547147.059    24547145.686
                        37.750          14.750
 19  9 29 20 26 30.0000000  0  9G13G24G10G27G15G21G20G32G04
 128259676.353 6  99942604.39642  24407000.463    24407001.870    24407000.923
                        38.000          15.000
 109179430.812 8  85074911.083 8  20776147.217    20776149.683    20776147.462
  20776149.756          48.000          48.000
 117958595.021 7  91915803.164 7  22446767.300    22446769.405    22446767.644
  22446769.129          46.000          42.750
 127748984.373 6  99544682.793 6  24309821.044    24309824.070    24309821.674
  24309825.197          38.250          37.750
 112838659.138 8  87926249.013 7  21472476.229    21472475.860    21472476.533
  21472476.091          50.500          43.500
 110444406.842 8  86060573.35746  21016865.106    21016864.888    21016866.268
                        48.750          41.000
 107568877.427 8  83819919.64746  20469667.965    20469667.971    20469669.145
                        48.750          40.750
 126757855.598 6  98772370.700 5  24121211.869    24121215.485    24121212.074
  24121214.573          41.000          35.500
 129041920.853 6 100552150.07342  24555859.909    24555861.750    24555860.776
                        37.250          14.000
 19  9 29 20 27  0.0000000  0  9G13G24G10G27G15G21G20G32G04
 128361458.140 6 100021914.86842  24426368.377    24426369.974    24426368.868
                        38.000          14.500
 109142205.259 8  85045904.174 7  20769063.518    20769065.792    20769063.768
  20769065.841          48.750          47.750
 117884736.638 7  91858251.197 7  22432712.357    22432714.514    22432712.687
  22432714.214          46.000          43.250
 127762555.162 6  99555257.451 6  24312404.396    24312407.246    24312405.017
  24312407.481          37.500          38.000
 112913540.670 8  87984598.246 7  21486725.694    21486725.379    21486726.007
  21486725.646          50.750          43.750
 110459317.209 8  86072191.81746  21019702.644    21019702.142    21019703.806
                        49.000          41.000
 107524402.611 8  83785263.95246  20461204.824    20461204.804    20461206.004
                        48.750          41.000
 126669606.182 6  98703604.989 5  24104418.499    24104422.289    24104418.709
  24104421.616          41.250          34.250
 129088114.040 6 100588144.72342  24564649.755    24564652.281    24564650.626
                        37.250          15.250
 19  9 29 20 27 30.0000000  0  9G13G24G10G27G15G21G20G32G04
 128463248.877 6 100101232.28342  24445738.198    24445740.318    24445738.680
                        38.000          15.500
 109105574.735 8  85017360.929 8  20762093.033    20762095.257    20762093.274
  20762095.542          48.750          48.000
 117810968.973 7  91800769.913 7  22418674.869    22418677.031    22418675.195
  22418676.756          46.000          43.000
 127776647.322 6  99566238.354 6  24315085.610    24315089.437    24315086.218
  24315088.964          37.750          38.000
 112988635.828 8  88043113.946 7  21501015.804    21501015.307    21501016.112
  21501015.600          50.500          43.250
 110474720.419 8  86084194.30946  21022633.645    21022633.214    21022634.803
                        49.000          41.000
 107480206.159 8  83750825.16446  20452794.483    20452794.496    20452795.663
                        49.250          41.000
 126581519.788 6  98634966.280 6  24087656.269    24087659.861    24087656.479
  24087660.818          41.500          36.250
 129134701.278 6 100624446.47442  24573515.217    24573517.469    24573516.097
                        38.500          15.500
 19  9 29 20 28  0.0000000  0  9G13G24G10G27G15G21G20G32G04
 128565046.829 6 100180555.33842  24465109.974    24465111.951    24465110.470
                        38.250          15.000
 109069540.261 8  84989282.127 7  20755235.844    20755238.091    20755236.085
  20755238.424          48.250          47.500
 117737293.042 7  91743360.130 7  22404655.032    22404656.871    22404655.376
  22404656.510          45.500          43.250
 127791259.763 6  99577624.642 6  24317865.927    24317869.414    24317866.508
  24317869.214          36.750          37.750
 113063942.610 8  88101794.549 7  21515346.210    21515345.892    21515346.531
  21515346.160          50.250          43.750
 110490616.271 8  86096580.68546  21025658.532    21025658.151    21025659.690
                        48.500          41.000
 107436289.535 8  83716604.42646  20444437.362    20444437.297    20444438.542
                        48.750          41.000
 126493597.123 6  98566455.157 5  24070925.433    24070928.382    24070925.616
  24070929.032          40.250          34.750
 129181680.592 6 100661053.69042  24582455.828    24582457.276    24582456.668
                        38.750          14.250
 19  9 29 20 28 30.0000000  0  9G13G24G10G27G15G21G20G32G04
 128666850.453 6 100259882.80742  24484483.289    24484484.643    24484483.740
                        38.000          15.000
 109034103.444 8  84961669.041 7  20748492.291    20748494.571    20748492.532
  20748494.903          48.250          47.750
 117663709.843 7  91686022.591 7  22390652.176    22390654.370    22390652.511
  22390654.453          45.500          43.000
 127806391.148 6  99589415.335 6  24320745.826    24320748.110    24320746.411
  24320749.020          37.500          37.250
 113139459.805 8  88160639.106 7  21529716.868    21529716.484    21529717.185
  21529716.768          50.250          43.500
 110507004.478 8  86109350.70846  21028777.230    21028776.687    21028778.392
                        48.750          41.000
 107392654.463 8  83682603.07846  20436134.232    20436133.852    20436135.399
                        48.750          41.250
 126405838.908 6  98498072.165 6  24054225.087    24054228.017    24054225.247
  24054228.740          39.500          36.500
 129229049.316 6 100697964.38942  24591469.923    24591470.837    24591470.754
                        38.000          13.500
 19  9 29 20 29  0.0000000  0  9G13G24G10G27G15G21G20G32G04
 128768658.358 6 100339213.64242  24503856.733    24503858.037    24503857.184
                        38.750          15.500
 108999265.417 8  84934522.540 7  20741862.786    20741865.150    20741863.022
  20741865.275          48.250          47.250
 117590220.348 7  91628758.077 7  22376667.734    22376669.817    22376668.064
  22376669.845          46.000          42.750
 127822040.260 6  99601609.450 6  24323723.170    24323726.399    24323723.755
  24323727.063          38.250          36.750
 113215184.928 8  88219645.680 7  21544126.781    21544126.399    21544127.102
  21544126.702          50.000          43.000
 110523885.447 8  86122504.70346  21031989.560    21031989.114    21031990.718
                        49.000          41.250
 107349302.045 8  83648821.97946  20427884.384    20427884.236    20427885.555
                        49.000          41.250
 126318245.825 6  98429817.902 6  24037556.463    24037559.977    24037556.601
  24037560.101          39.250          37.000
 129276805.292 6 100735176.78842  24600556.725    24600558.829    24600557.418
                        36.500          13.750
 19  9 29 20 29 30.0000000  0  9G13G24G10G27G15G21G20G32G04
 128870468.900 6 100418546.50042  24523230.620    24523231.695    24523231.120
                        37.250          14.500
 108965027.704 8  84907843.823 7  20735347.786    20735349.844    20735348.018
  20735350.190          48.500          47.500
 117516825.616 7  91571567.400 7  22362701.371    22362703.227    22362701.710
  22362703.198          45.750          43.000
 127838205.839 6  99614206.012 6  24326799.964    24326802.987    24326800.545
  24326803.484          39.000          37.250
 113291116.038 8  88278812.773 7  21558575.999    21558575.669    21558576.320
  21558575.961          50.000          43.000
 110541258.810 8  86136042.38146  21035295.542    21035295.195    21035296.704
                        48.500          41.250
 107306233.812 8  83615262.32346  20419688.582    20419688.517    20419689.749
                        48.500          41.250
 126230818.565 6  98361692.823 5  24020920.081    24020923.336    24020920.174
  24020923.458          40.000          35.750
 129324945.354 6 100772688.54342  24609718.681    24609720.119    24609719.369
                        37.500          14.500
                            4  1
RINEX FILE SPLICE; other post-header comments skipped       COMMENT
 19  9 29 20 30  0.0000000  0  9G13G24G10G27G15G21G20G32G04
 128972280.643 6 100497880.29342  24542604.765    24542605.747    24542605.288
                        37.250          15.000
 108931391.974 8  84881634.176 7  20728947.054    20728949.266    20728947.286
  20728949.572          48.500          47.500
 117443526.646 7  91514451.337 7  22348752.723    22348754.909    22348753.058
  22348754.954          46.000          43.000
 127854886.608 6  99627204.006 6  24329973.991    24329976.998    24329974.634
  24329977.949          38.000          36.500
 113367251.483 8  88338139.077 7  21573064.013    21573063.856    21573064.339
  21573064.133          49.750          43.000
 110559124.556 8  86149963.73646  21038695.300    21038694.912    21038696.458
                        48.750          41.250
 107263451.293 8  83581925.30346  20411547.459    20411547.284    20411548.621
                        48.500          41.250
 126143557.830 6  98293697.504 5  24004314.858    24004317.237    24004314.956
  24004318.431          40.000          34.500
 129373467.539 5 100810498.00441  24618951.076    24618953.443    24618951.804
                        35.500          11.500
 19  9 29 20 30 30.0000000  0  9G13G24G10G27G15G21G20G32G04
 129074092.008 6 100577213.82742  24561978.451    24561980.022    24561979.023
                        37.500          13.500
 108898359.101 8  84855894.291 8  20722660.925    20722663.377    20722661.157
  20722663.534          48.500          48.000
 117370324.462 7  91457410.685 7  22334822.772    22334824.977    22334823.107
  22334825.183          46.250          43.500
 127872081.188 6  99640602.358 6  24333245.892    24333248.415    24333246.509
  24333249.139          37.250          36.500
 113443589.646 8  88397623.349 7  21587590.628    21587590.392    21587590.954
  21587590.786          50.000          43.250
 110577482.270 8  86164268.44446  21042188.766    21042188.264    21042189.924
                        49.000          41.000
 107220955.963 8  83548812.06546  20403460.780    20403460.775    20403461.942
                        48.500          41.250
 126056464.337 6  98225832.485 5  23987741.909    23987743.803    23987741.971
  23987745.142          40.500          35.750
 129422369.084 6 100848603.06342  24628256.559    24628259.265    24628257.274
                        36.000          14.000
 19  9 29 20 31  0.0000000  0  9G13G24G10G27G15G21G20G32G04
 129175901.356 6 100656545.75441  24581352.828    24581353.782    24581353.319
                        36.000          11.750
 108865930.011 7  84830624.888 7  20716489.927    20716492.198    20716490.163
  20716492.401          47.750          47.750
 117297220.114 7  91400446.289 7  22320911.345    22320913.750    22320911.698
  22320913.818          45.750          43.250
 127889788.293 6  99654400.120 6  24336615.123    24336618.534    24336615.699
  24336618.208          37.500          36.750
 113520128.591 8  88457264.080 7  21602155.698    21602155.356    21602156.024
  21602155.857          49.750          43.500
 110596332.009 8  86178956.54746  21045775.512    21045775.176    21045776.679
                        48.250          40.500
 107178749.134 8  83515923.63446  20395428.843    20395428.994    20395430.010
                        48.000          41.000
 125969538.698 6  98158098.268 6  23971199.423    23971202.480    23971199.507
  23971203.497          40.250          36.250
 129471647.955 6 100887002.20442  24637634.637    24637636.571    24637635.339
                        36.750          14.000
 19  9 29 20 31 30.0000000  0  9G13G24G10G27G15G21G20G32G04
 129277707.595 6 100735875.23542  24600725.500    24600726.703    24600726.050
                        36.500          13.000
 108834106.589 8  84805827.429 7  20710434.467    20710436.235    20710434.703
  20710436.716          48.500          47.750
 117224214.648 7  91343558.938 7  22307019.269    22307021.242    22307019.631
  22307021.293          46.000          43.500
 127908006.586 6  99668596.180 6  24340082.589    24340086.139    24340083.152
  24340085.784          37.500          37.500
 113596866.580 8  88517059.904 7  21616758.373    21616758.070    21616758.694
  21616758.384          50.000          43.250
 110615673.394 8  86194027.75346  21049456.099    21049455.876    21049457.257
                        48.750          41.000
 107136832.252 8  83483261.14046  20387452.480    20387452.304    20387453.651
                        48.500          41.000
 125882781.589 6  98090495.366 6  23954690.445    23954693.428    23954690.529
  23954694.546          40.500          36.250
 129521301.219 6 100925693.01242  24647083.327    24647085.337    24647083.975
                        37.000          14.250
 19  9 29 20 32  0.0000000  0  9G13G24G10G27G15G21G20G32G04
 129379508.526 6 100815200.62542  24620098.126    24620098.952    24620098.711
                        36.250          12.250
 108802889.693 8  84781502.595 7  20704493.864    20704495.926    20704494.096
  20704496.321          48.500          47.750
 117151309.112 7  91286749.454 7  22293145.609    22293147.796    22293145.953
  22293147.287          45.750          43.500
 127926734.632 6  99683189.473 6  24343646.088    24343649.342    24343646.633
  24343649.482          38.250          37.250
 113673801.838 8  88577009.434 7  21631398.626    21631398.270    21631398.952
  21631398.900          50.250          43.000
 110635506.421 8  86209482.05146  21053230.341    21053229.935    21053231.490
                        48.750          40.750
 107095206.865 8  83450825.78346  20379531.539    20379531.450    20379532.710
                        49.000          41.000
 125796193.716 6  98023024.376 6  23938212.916    23938216.215    23938212.978
  23938216.947          40.500          37.250
 129571326.152 6 100964673.47742  24656602.166    24656604.729    24656602.832
                        36.250          13.250
 19  9 29 20 32 30.0000000  0  9G13G24G10G27G15G21G20G32G04
 129481303.052 5 100894521.02241  24639468.367    24639469.596    24639469.010
                        35.000          11.250
 108772280.479 8  84757651.278 7  20698668.909    20698671.405    20698669.145
  20698671.646          48.750          47.750
 117078504.577 7  91230018.660 7  22279291.297    22279293.444    22279291.654
  22279293.430          46.500          43.750
 127945971.089 6  99698178.909 6  24347306.586    24347309.294    24347307.162
  24347310.114          39.500          38.000
 113750932.463 8  88637111.226 7  21646076.129    21646075.785    21646076.446
  21646075.954          50.500          42.750
 110655830.835 8  86225319.24846  21057097.769    21057097.441    21057098.927
                        49.000          40.500
 107053874.417 8  83418618.68746  20371666.347    20371666.117    20371667.514
                        49.250          41.000
 125709775.689 6  97955685.710 6  23921768.402    23921771.317    23921768.473
  23921772.300          41.000          36.500
 129621720.491 6 101003941.74542  24666192.142    24666194.826    24666192.835
                        36.250          12.750
 19  9 29 20 33  0.0000000  0  9G13G24G10G27G15G21G20G32G04
 129583089.790 5 100973835.34941  24658837.951    24658838.836    24658838.648
                        34.250           9.500
 108742279.885 8  84734274.215 7  20692959.947    20692962.301    20692960.188
  20692962.511          48.250          47.500
 117005802.091 7  91173367.402 7  22265456.193    22265458.597    22265456.555
  22265458.490          46.500          43.500
 127965714.430 6  99713563.346 6  24351063.497    24351066.159    24351064.082
  24351066.831          37.750          37.750
 113828256.513 8  88697363.714 7  21660790.551    21660790.026    21660790.864
  21660790.242          50.250          42.750
 110676646.365 8  86241539.13346  21061058.962    21061058.530    21061060.120
                        49.000          40.750
 107012836.389 8  83386641.01046  20363857.004    20363856.701    20363858.166
                        49.250          41.250
 125623528.234 6  97888479.958 6  23905356.282    23905359.076    23905356.371
  23905360.133          41.500          38.250
 129672481.657 6 101043495.89042  24675852.311    24675854.469    24675852.986
                        37.750          14.250
 19  9 29 20 33 30.0000000  0  9G13G24G10G27G15G21G20G32G04
 129684866.978 5 101053142.22141  24678205.366    24678206.274    24678206.023
                        33.500           7.750
 108712889.455 8  84711372.590 7  20687367.306    20687369.384    20687367.542
  20687369.775          48.500          47.250
 116933202.755 7  91116796.500 7  22251640.934    22251643.483    22251641.305
  22251643.077          46.750          43.250
 127985963.362 6  99729341.715 6  24354917.077    24354920.541    24354917.618
  24354920.904          38.500          38.250
 113905772.353 8  88757765.643 7  21675541.115    21675540.764    21675541.432
  21675541.329          50.000          42.750
 110697952.669 8  86258141.43846  21065113.373    21065113.236    21065114.535
                        48.750          40.750
 106972093.934 8  83354893.65246  20356103.885    20356103.726    20356105.047
                        49.250          41.250
 125537451.972 6  97821407.603 6  23888976.371    23888979.612    23888976.460
  23888979.434          41.250          38.250
 129723607.128 6 101083333.94742  24685580.510    24685583.410    24685581.198
                        37.000          12.500
 19  9 29 20 34  0.0000000  0  9G13G24G10G27G15G21G20G32G04
 129786633.400 5 101132440.74841  24697570.419    24697571.700    24697570.973
                        34.750           7.250
 108684110.401 8  84688947.372 7  20681890.725    20681892.871    20681890.957
  20681893.116          49.000          47.750
 116860707.615 7  91060306.802 7  22237845.949    22237847.991    22237846.311
  22237847.862          46.500          43.500
 128006716.289 6  99745512.814 6  24358866.889    24358868.881    24358867.407
  24358869.902          38.500          37.000
 113983478.596 8  88818315.963 7  21690328.363    21690327.843    21690328.680
  21690328.333          50.500          43.000
 110719749.719 8  86275126.14446  21069261.130    21069260.930    21069262.288
                        49.000          40.750
 106931648.933 8  83323378.07646  20348407.720    20348407.397    20348408.887
                        49.000          41.500
 125451547.472 6  97754469.116 6  23872629.071    23872632.478    23872629.178
  23872632.706          41.250          37.250
 129775094.319 6 101123453.78241  24695378.490    24695381.120    24695379.133
                        36.000          11.250
 19  9 29 20 34 30.0000000  0  9G13G24G10G27G15G21G20G32G04
 129888387.774 5 101211729.80841  24716934.305    24716934.711    24716934.823
                        35.250           7.500
 108655943.281 8  84666998.984 7  20676530.813    20676532.871    20676531.049
  20676533.179          48.750          47.750
 116788317.797 7  91003899.160 7  22224070.578    22224072.617    22224070.926
  22224072.606          46.500          43.750
 128027971.769 6  99762075.518 5  24362911.014    24362913.987    24362911.564
  24362914.188          38.500          35.750
 114061372.989 8  88879012.871 7  21705151.252    21705150.637    21705151.560
  21705150.983          50.250          42.500
 110742037.016 8  86292492.86046  21073502.213    21073501.853    21073503.375
                        49.000          40.500
 106891502.699 8  83292095.30346  20340767.918    20340767.764    20340769.080
                        49.250          41.250
 125365815.496 6  97687665.018 6  23856314.868    23856317.567    23856314.961
  23856318.726          41.500          37.250
 129826940.479 6 101163853.36342  24705245.222    24705246.713    24705245.856
                        38.250          14.000
 19  9 29 20 35  0.0000000  0  9G13G24G10G27G15G21G20G32G04
 129990128.782 6 101291008.54941  24736295.421    24736295.589    24736295.769
                        36.250           8.250
 108628389.860 8  84645528.800 7  20671287.490    20671289.639    20671287.722
  20671290.162          48.500          47.750
 116716034.400 7  90947574.461 7  22210315.330    22210317.476    22210315.683
  22210317.362          46.750          43.750
 128049728.289 6  99779028.666 6  24367051.370    24367053.511    24367051.911
  24367054.341          38.750          36.250
 114139453.799 8  88939855.061 7  21720009.279    21720008.913    21720009.592
  21720009.371          50.000          42.500
 110764813.972 8  86310241.12946  21077836.642    21077836.429    21077837.804
                        49.250          40.750
 106851656.391 8  83261046.23946  20333185.386    20333185.202    20333186.553
                        48.750          41.500
 125280256.607 6  97620995.803 6  23840033.868    23840036.353    23840033.970
  23840037.239          41.000          38.250
 129879143.092 6 101204530.66642  24715179.050    24715180.445    24715179.698
                        36.500          12.000
 19  9 29 20 35 30.0000000  0  9G13G24G10G27G15G21G20G32G04
 130091854.090 5 101370274.99741  24755653.048    24755653.292    24755653.419
                        35.250           7.000
 108601450.181 8  84624536.862 8  20666161.263    20666163.304    20666161.495
  20666163.428          48.500          48.000
 116643858.518 7  90891333.527 7  22196580.797    22196582.897    22196581.145
  22196583.176          47.000          44.000
 128071984.327 6  99796371.009 6  24371286.714    24371289.900    24371287.286
  24371289.702          39.250          37.750
 114217719.402 8  89000841.225 7  21734902.986    21734902.430    21734903.303
  21734903.278          49.750          42.750
 110788080.900 8  86328371.19046  21082264.394    21082264.051    21082265.556
                        48.500          41.000
 106812111.918 8  83230232.37246  20325660.701    20325660.173    20325661.863
                        48.500          41.750
 125194871.403 6  97554461.939 6  23823785.373    23823788.297    23823785.484
  23823788.126          41.500          38.250
 129931699.170 6 101245483.47242  24725179.556    24725181.327    24725180.190
                        37.500          12.500
 19  9 29 20 36  0.0000000  0  9G13G24G10G27G15G21G20G32G04
 130193563.032 5 101449528.73641  24775007.404    24775007.767    24775007.734
                        34.250           8.000
 108575125.581 8  84604024.202 7  20661151.665    20661153.862    20661151.893
  20661154.293          48.750          47.750
 116571791.282 7  90835177.265 7  22182867.114    22182869.043    22182867.471
  22182868.664          46.750          43.750
 128094738.318 6  99814101.387 6  24375617.080    24375619.477    24375617.647
  24375618.996          39.500          36.500
 114296167.783 8  89061969.818 7  21749831.011    21749830.642    21749831.324
  21749831.266          49.750          42.750
 110811837.004 8  86346882.43046  21086784.761    21086784.499    21086785.923
                        49.000          40.750
 106772870.424 8  83199654.59046  20318192.920    20318192.831    20318194.087
                        48.750          41.500
 125109660.539 6  97488063.914 6  23807570.169    23807572.812    23807570.276
  23807573.032          40.250          39.250
 129984606.589 6 101286709.97341  24735247.528    24735249.543    24735248.203
                        36.000          11.000
 19  9 29 20 36 30.0000000  0  9G13G24G10G27G15G21G20G32G04
 130295253.992 6 101528768.40141  24794358.462    24794358.812    24794358.851
                        36.000           8.500
 108549417.463 8  84583991.910 7  20656259.631    20656261.732    20656259.859
  20656261.865          49.000          47.500
 116499833.800 7  90779106.513 7  22169173.815    22169175.915    22169174.172
  22169175.942          47.000          44.000
 128117988.705 6  99832218.596 6  24380040.491    24380043.557    24380041.085
  24380044.412          39.000          37.000
 114374797.621 8  89123239.810 7  21764793.756    21764793.461    21764794.060
  21764794.171          49.750          42.500
 110836082.002 8  86365774.62346  21091398.488    21091398.185    21091399.650
                        49.000          40.750
 106733933.581 8  83169314.20046  20310783.495    20310783.268    20310784.662
                        48.500          41.500
 125024624.630 6  97421802.240 6  23791388.431    23791391.619    23791388.596
  23791391.919          40.750          39.500
 130037862.458 5 101328208.05141  24745381.046    24745383.720    24745381.712
                        34.500          11.000
 19  9 29 20 37  0.0000000  0  9G13G24G10G27G15G21G20G32G04
 130396925.593 5 101607992.98841  24813706.363    24813706.383    24813706.774
                        34.000           9.250
 108524326.084 8  84564440.200 7  20651484.628    20651486.831    20651484.860
  20651487.260          48.750          47.500
 116427987.219 7  90723122.175 7  22155501.866    22155504.068    22155502.232
  22155503.699          46.750          44.250
 128141733.951 6  99850721.353 6  24384559.763    24384562.262    24384560.362
  24384563.223          39.000          37.750
 114453606.664 8  89184649.441 7  21779790.716    21779790.465    21779791.015
  21779790.744          50.000          42.250
 110860815.314 8  86385047.32846  21096105.164    21096104.899    21096106.326
                        48.750          40.750
 106695302.617 8  83139212.15746  20303432.457    20303431.983    20303433.628
                        48.500          41.500
 124939764.242 6  97355677.334 6  23775239.787    23775242.645    23775239.930
  23775243.049          39.250          39.000
 130091464.358 5 101369975.71641  24755582.149    24755583.782    24755582.699
                        35.250          10.500
 19  9 29 20 37 30.0000000  0  9G13G24G10G27G15G21G20G32G04
 130498576.462 5 101687201.3714   24833050.014    24833049.889    24833050.546
                        33.750           5.500
 108499852.848 8  84545370.163 7  20646827.752    20646829.694    20646827.980
  20646830.046          48.500          47.750
 116356252.671 7  90667225.140 7  22141851.294    22141853.380    22141851.656
  22141853.162          46.750          44.000
 128165972.382 6  99869608.424 6  24389172.302    24389175.322    24389172.910
  24389175.280          38.500          36.250
 114532593.452 8  89246197.586 7  21794821.511    21794821.287    21794821.806
  21794821.202          49.750          42.500
 110886036.454 8  86404700.15346  21100904.527    21100904.327    21100905.689
                        49.000          40.750
 106656978.857 8  83109349.49146  20296139.375    20296139.276    20296140.551
                        48.500          41.500
 124855080.054 6  97289689.700 6  23759124.923    23759128.080    23759125.115
  23759128.427          40.000          38.500
 130145409.102 5 101412010.54041  24765848.181    24765849.201    24765848.722
                        34.250          11.250
 19  9 29 20 38  0.0000000  0  9G13G24G10G27G15G21G20G32G04
 130600205.190 5 101766392.67641  24852389.232    24852389.102    24852389.902
                        34.000           8.000
 108475998.178 8  84526782.126 8  20642288.351    20642290.394    20642288.587
  20642290.616          48.500          48.000
 116284631.288 7  90611416.285 7  22128222.031    22128224.170    22128222.388
  22128224.182          46.750          44.250
 128190702.382 6  99888878.527 6  24393877.995    24393880.694    24393878.638
  24393880.721          38.500          36.500
 114611756.534 8  89307883.090 7  21809885.714    21809885.517    21809886.013
  21809885.816          49.250          42.750
 110911745.600 8  86424733.24646  21105796.698    21105796.685    21105797.865
                        49.000          40.750
 106618964.063 8  83079727.58246  20288905.323    20288905.260    20288906.494
                        48.750          41.500
 124770572.601 6  97223839.799 6  23743043.984    23743046.386    23743044.185
  23743047.263          40.750          39.250
 130199695.042 5 101454311.26041  24776176.525    24776179.396    24776177.137
                        35.250          10.500
 19  9 29 20 38 30.0000000  0  9G13G24G10G27G15G21G20G32G04
 130701810.311 5 101845565.46541  24871723.967    24871723.991    24871724.579
                        34.500           6.750
 108452763.466 8  84508677.165 7  20637866.736    20637868.957    20637866.968
  20637869.498          49.250          47.750
 116213124.238 7  90555696.527 7  22114614.725    22114616.799    22114615.091
  22114616.905          47.000          44.000
 128215922.237 6  99908530.360 6  24398676.692    24398679.684    24398677.331
  24398679.977          39.250          37.250
 114691093.722 8  89369704.256 7  21824983.096    21824982.802    21824983.409
  21824983.210          50.000          42.500
 110937941.823 8  86445145.87546  21110781.733    21110781.538    21110782.900
                        49.250          40.750
 106581259.785 8  83050347.63146  20281730.615    20281730.416    20281731.786
                        49.000          41.750
 124686242.465 6  97158128.052 6  23726995.313    23726998.663    23726995.518
  23726999.198          41.000          38.250
 130254318.486 5 101496874.92341  24786571.847    24786573.937    24786572.446
                        33.750           8.250
 19  9 29 20 39  0.0000000  0  9G13G24G10G27G15G21G20G32G04
 130803390.517 5 101924718.84541  24891053.352    24891054.350    24891054.058
                        34.500           7.500
 108430149.297 8  84491055.747 7  20633563.493    20633565.749    20633563.725
  20633565.930          48.750          47.750
 116141732.687 7  90500066.761 7  22101029.701    22101031.486    22101030.067
  22101031.464          47.250          44.250
 128241630.386 6  99928562.681 6  24403568.818    24403571.492    24403569.412
  24403572.889          39.500          37.500
 114770603.531 8  89431659.949 7  21840113.157    21840113.020    21840113.474
  21840113.288          50.000          42.250
 110964625.081 8  86465938.01546  21115859.366    21115859.222    21115860.533
                        49.250          40.500
 106543867.493 8  83021210.78646  20274615.091    20274614.934    20274616.262
                        49.000          41.500
 124602090.285 6  97092554.963 6  23710982.169    23710985.237    23710982.352
  23710985.356          40.500          39.250
 130309277.152 5 101539699.85441  24797030.152    24797032.276    24797030.773
                        32.500           8.000
 19  9 29 20 39 30.0000000  0  9G13G24G10G27G15G21G20G32G04
 130904944.629 5 102003851.94041  24910378.241    24910379.281    24910378.929
                        33.000           8.000
 108408156.278 8  84473918.344 7  20629378.317    20629380.494    20629378.549
  20629380.799          48.500          47.750
 116070457.813 7  90444527.923 7  22087466.405    22087468.277    22087466.771
  22087468.402          46.750          44.250
 128267825.085 6  99948974.125 6  24408553.985    24408556.837    24408554.597
  24408556.915          38.500          36.500
 114850284.473 8  89493748.988 7  21855275.989    21855275.863    21855276.310
  21855276.088          49.250          42.250
 110991794.766 8  86487109.18846  21121029.715    21121029.495    21121030.877
                        48.750          40.750
 106506788.607 8  82992318.15746  20267559.298    20267558.928    20267560.469
                        48.500          41.750
 124518116.556 6  97027120.953 6  23695002.871    23695005.697    23695003.090
  23695006.409          40.500          40.250
 130364568.457 5 101582783.93941  24807551.910    24807554.075    24807552.468
                        35.000          10.500
 19  9 29 20 40  0.0000000  0  9G13G24G10G27G15G21G20G32G04
 131006471.264 5 102082963.5944   24929698.707    24929699.221    24929699.449
                        33.000           5.250
 108386785.591 8  84457265.864 7  20625311.659    20625313.481    20625311.891
  20625313.767          48.750          47.500
 115999300.770 7  90389080.883 7  22073925.553    22073927.475    22073925.901
  22073927.447          47.000          44.250
 128294504.591 6  99969763.348 6  24413630.558    24413633.081    24413631.184
  24413634.007          38.750          37.000
 114930134.572 8  89555969.837 6  21870471.004    21870470.673    21870471.317
  21870471.047          49.750          41.750
 111019449.555 8  86508658.36446  21126292.336    21126292.103    21126293.498
                        49.000          40.750
 106470024.488 8  82963670.79946  20260563.264    20260563.034    20260564.435
                        49.000          41.750
 124434321.913 6  96961826.488 6  23679057.065    23679060.329    23679057.270
  23679060.805          40.750          40.000
 130420189.433 5 101626124.88641  24818135.959    24818138.513    24818136.625
                        33.750           8.500
 19  9 29 20 40 30.0000000  0  9G13G24G10G27G15G21G20G32G04
 131107968.933 4 102162052.5834   24949014.977    24949013.684    24949015.777
                        28.750           2.250
 108366037.600 8  84441098.610 7  20621363.235    20621365.531    20621363.471
  20621365.926          48.250          47.750
 115928262.752 7  90333726.606 7  22060407.298    22060409.429    22060407.637
  22060409.181          46.750          44.000
 128321667.256 6  99990929.033 6  24418799.817    24418802.496    24418800.456
  24418803.425          38.750          36.250
 115010152.228 8  89618321.236 6  21885697.947    21885697.433    21885698.264
  21885697.844          49.250          41.750
 111047589.865 8  86530585.86646  21131647.222    21131646.956    21131648.393
                        48.750          40.750
 106433576.556 8  82935269.81747  20253627.361    20253627.311    20253628.537
                        48.250          42.000
 124350706.909 6  96896671.987 6  23663145.239    23663148.691    23663145.449
  23663148.995          40.000          39.500
 130476137.437 5 101669720.72941  24828781.711    24828785.232    24828782.430
                        32.000           9.250
 19  9 29 20 41  0.0000000  0  9G13G24G10G27G15G21G20G32G04
 131209436.293 5                                                  24968322.484
                        31.000
 108345913.078 8  84425417.181 8  20617533.782    20617536.015    20617534.014
  20617536.185          49.000          48.000
 115857344.967 7  90278466.017 7  22046912.178    22046914.189    22046912.522
  22046914.043          47.250          44.250
 128349311.247 6 100012469.803 6  24424059.924    24424062.443    24424060.594
  24424063.340          38.500          36.750
 115090335.986 8  89680802.080 7  21900956.379    21900955.969    21900956.692
  21900956.239          49.500          42.250
 111076214.706 8  86552890.92746  21137094.265    21137094.050    21137095.432
                        49.000          40.500
 106397446.239 8  82907116.33046  20246752.116    20246751.771    20246753.287
                        48.500          41.750
 124267272.087 6  96831657.897 6  23647267.958    23647271.117    23647268.172
  23647271.999          39.500          40.250
 130532410.030 5 101713569.50541  24839490.987    24839493.578    24839491.769
                        34.500           8.750
 19  9 29 20 41 30.0000000  0  9G13G24G10G27G15G21G20G32G04
 131310872.228 4                                                  24987624.349
                        29.500
 108326412.847 8  84410222.214 7  20613823.145    20613825.217    20613823.377
  20613825.387          48.500          47.750
 115786548.598 7  90223300.037 7  22033440.085    22033442.138    22033440.438
  22033441.941          47.250          44.250
 128377434.859 6 100034384.254 6  24429412.318    24429414.551    24429412.961
  24429415.088          39.750          36.000
 115170683.674 8  89743410.651 6  21916245.939    21916245.806    21916246.243
  21916246.123          49.500          41.750
 111105323.574 8  86575573.15346  21142633.550    21142633.353    21142634.712
                        49.000          40.250
 106361635.081 8  82879211.53746  20239937.352    20239937.161    20239938.528
                        49.000          41.500
 124184018.055 6  96766784.669 6  23631425.722    23631428.288    23631425.896
  23631429.402          40.750          39.000
 130589004.282 5 101757668.83041  24850262.196    24850263.057    24850263.014
                        32.750           8.000
 19  9 29 20 42  0.0000000  0  9G13G24G10G27G15G21G20G32G04
 131412275.631 4                                                  25006921.598
                        28.750
 108307537.104 8  84395513.854 7  20610231.174    20610233.181    20610231.406
  20610233.549          48.750          47.750
 115715874.845 7  90168229.599 7  22019991.376    22019993.295    22019991.720
  22019993.207          47.000          44.500
 128406036.250 6 100056671.062 6  24434854.392    24434857.141    24434855.000
  24434858.164          38.750          36.250
 115251194.037 8  89806145.993 6  21931566.552    21931566.197    21931566.856
  21931566.588          49.500          41.750
 111134915.951 8  86598632.14046  21148264.902    21148264.633    21148266.064
                        49.000          40.250
 106326144.412 8  82851556.47646  20233183.852    20233183.544    20233185.023
                        48.500          41.500
 124100945.297 6  96702052.697 6  23615617.292    23615620.311    23615617.502
  23615620.995          40.500          39.500
 130645917.331 5 101802016.62441  24861090.725    24861093.076    24861091.520
                        32.750           9.500
 19  9 29 20 42 30.0000000  0  9G13G24G10G27G15G21G20G32G04
 131513644.612 4                                                  25026209.528
                        29.250
 108289286.906 8  84381292.928 8  20606758.031    20606760.277    20606758.259
  20606760.530          48.750          48.000
 115645324.975 7  90113255.683 7  22006566.025    22006568.098    22006566.364
  22006568.077          47.500          44.750
 128435113.669 6 100079328.787 6  24440387.959    24440390.627    24440388.558
  24440391.562          38.250          37.000
 115331865.249 8  89869006.645 7  21946917.825    21946917.345    21946918.133
  21946917.907          49.750          42.000
 111164991.168 8  86622067.36446  21153987.822    21153987.693    21153988.984
                        49.000          40.500
 106290975.701 8  82824152.29147  20226491.392    20226491.171    20226492.568
                        48.750          42.000
 124018054.392 6  96637462.463 6  23599843.685    23599846.917    23599843.881
  23599846.358          40.250          39.250
 130703146.561 5 101846610.86541  24871980.835    24871983.565    24871981.550
                        32.750           8.000
 19  9 29 20 43  0.0000000  0  9G13G24G10G27G15G21G20G32G04
 131614978.187 4                                                  25045494.116
                        29.000
 108271663.092 8  84367560.101 8  20603404.369    20603406.659    20603404.597
  20603406.861          48.750          48.000
 115574900.134 7  90058379.198 7  21993164.680    21993166.605    21993165.028
  21993166.659          47.250          45.000
 128464665.246 6 100102355.980 6  24446011.238    24446014.716    24446011.868
  24446014.595          38.750          36.500
 115412695.665 8  89931991.380 7  21962299.653    21962298.930    21962299.961
  21962299.302          49.000          42.000
 111195548.747 8  86645878.45846  21159802.738    21159802.712    21159803.900
                        48.750          40.500
 106256130.510 8  82797000.20246  20219860.557    20219860.332    20219861.737
                        48.500          41.750
 123935345.854 6  96573014.295 6  23584105.059    23584107.521    23584105.233
  23584107.893          40.750          39.250
 130760689.218 5 101891449.28141  24882932.595    24882933.675    24882933.310
                        31.250           8.750
 19  9 29 20 43 30.0000000  0  9G13G24G10G27G15G21G20G32G04
 131716275.138 4                                                  25064768.122
                        28.000
 108254666.166 8  84354315.755 8  20600170.135    20600172.102    20600170.358
  20600172.500          49.000          48.250
 115504601.606 7  90003601.159 7  21979787.231    21979789.263    21979787.575
  21979789.365          47.500          45.250
 128494689.149 6 100125751.234 6  24451723.771    24451727.326    24451724.374
  24451727.928          38.750          36.000
 115493683.553 8  89995098.808 7  21977710.884    21977710.404    21977711.197
  21977711.106          49.250          42.250
 111226587.669 8  86670064.61846  21165709.527    21165709.247    21165710.689
                        49.000          40.250
 106221610.347 8  82770101.38046  20213291.413    20213291.308    20213292.593
                        48.750          41.750
 123852820.254 6  96508708.706 6  23568400.754    23568403.058    23568400.941
  23568403.827          41.500          38.500
 130818542.789 5 101936529.90541  24893939.647    24893942.872    24893940.465
                        33.000           8.750
 19  9 29 20 44  0.0000000  0  9G13G24G10G27G15G21G20G32G04
 131817534.641 5                                                  25084040.649
                        30.750
 108238296.161 8  84341559.923 7  20597054.830    20597057.027    20597055.053
  20597057.302          48.750          47.750
 115434430.642 7  89948922.497 7  21966434.102    21966436.197    21966434.428
  21966436.227          47.250          45.250
 128525183.501 6 100149513.043 5  24457527.640    24457529.927    24457528.230
  24457531.204          38.250          34.750
 115574827.418 8  90058327.782 7  21993151.915    21993151.659    21993152.228
  21993152.312          49.000          42.000
 111258107.636 8  86694625.62146  21171707.449    21171707.173    21171708.616
                        49.000          40.250
 106187416.860 8  82743457.10847  20206784.812    20206784.525    20206785.996
                        48.750          42.000
 123770478.070 6  96444546.008 6  23552730.964    23552733.535    23552731.178
  23552735.122          41.000          38.000
 130876704.123 5 101981850.37641  24905009.106    24905010.545    24905009.745
                        35.000           9.750
 19  9 29 20 44 30.0000000  0  9G13G24G10G27G15G21G20G32G04
 131918754.830 4                                                  25103298.931
                        28.000
 108222554.096 8  84329293.393 8  20594059.292    20594061.446    20594059.515
  20594061.785          49.250          48.250
 115364388.450 8  89894344.196 7  21953105.467    21953107.587    21953105.784
  21953107.685          48.250          44.750
 128556146.435 6 100173639.972 6  24463419.456    24463422.452    24463420.055
  24463422.759          39.000          37.000
 115656125.519 8  90121676.935 7  22008622.528    22008622.467    22008622.836
  22008622.627          49.750          42.250
 111290107.879 8  86719560.86446  21177796.836    21177796.825    21177798.007
                        49.250          40.500
 106153551.230 8  82717068.31447  20200340.286    20200340.085    20200341.466
                        48.750          42.000
 123688319.889 6  96380526.675 6  23537097.511    23537099.737    23537097.698
  23537099.835          40.250          38.750
 130935170.515 5 102027408.56241  24916133.346    24916136.461    24916134.361
                        30.750           6.750
                            4  1
RINEX FILE SPLICE; other post-header comments skipped       COMMENT
 19  9 29 20 45  0.0000000  0  9G13G24G10G27G15G21G20G32G04
 132019934.408 4                                                  25122554.812
                        28.000
 108207440.442 8  84317516.532 8  20591183.048    20591185.433    20591183.271
  20591185.796          49.250          48.000
 115294476.314 8  89839867.210 7  21939801.587    21939803.683    21939801.908
  21939803.889          48.000          44.750
 128587576.043 6 100198130.588 6  24469400.774    24469403.655    24469401.364
  24469403.757          39.500          36.000
 115737576.378 8  90185145.116 7  22024122.122    22024122.122    22024122.430
  22024122.105          49.750          42.000
 111322587.404 8  86744869.57346  21183977.336    21183977.323    21183978.507
                        49.250          40.250
 106120014.761 8  82690936.00747  20193958.665    20193958.266    20193959.841
                        48.750          42.000
 123606346.127 6  96316651.088 6  23521497.701    23521500.826    23521497.888
  23521501.317          39.750          39.000
 130993939.266 5 102073202.34341  24927317.118    24927319.922    24927318.142
                        34.000          10.500
 19  9 29 20 45 30.0000000  0  9G13G24G10G27G15G21G20G32G04
 132121072.439 4                                                  25141800.071
                        25.750
 108192955.288 8  84306229.407 8  20588426.739    20588428.875    20588426.967
  20588429.185          48.500          48.000
 115224695.468 7  89785492.547 7  21926522.971    21926524.721    21926523.288
  21926525.005          47.250          45.250
 128619470.440 6 100222983.314 5  24475469.203    24475472.729    24475469.779
  24475472.647          38.500          35.750
 115819178.462 8  90248731.136 7  22039650.557    22039650.193    22039650.861
  22039650.703          49.000          42.250
 111355545.848 8  86770551.46746  21190249.285    21190249.038    21190250.461
                        48.750          40.250
 106086808.934 8  82665061.34447  20187639.624    20187639.474    20187640.800
                        48.750          42.000
 123524557.366 6  96252919.631 6  23505933.685    23505936.534    23505933.868
  23505937.396          41.250          38.250
 131053007.430 4 102119229.48141  24938556.239    24938559.971    24938557.164
                        29.250          10.000
 19  9 29 20 46  0.0000000  0  8G24G10G27G15G21G20G32G04
 108179099.283 8  84295432.531 8  20585789.975    20585792.214    20585790.207
  20585792.557          49.000          48.250
 115155047.178 8  89731221.179 7  21913269.203    21913271.306    21913269.520
  21913271.267          48.000          45.250
 128651827.597 6 100248196.683 6  24481626.971    24481629.746    24481627.552
  24481630.077          39.250          36.250
 115900929.932 8  90312433.557 7  22055207.243    22055206.843    22055207.542
  22055207.357          49.500          42.000
 111388982.150 8  86796605.71446  21196612.157    21196612.018    21196613.333
                        49.000          40.250
 106053935.737 8  82639445.87147  20181384.157    20181383.893    20181385.333
                        48.750          42.000
 123442954.124 6  96189332.734 6  23490405.481    23490407.859    23490405.655
  23490408.549          41.750          39.250
 131112372.409 5 102165487.85341  24949855.405    24949856.805    24949856.115
                        33.750          10.250
 19  9 29 20 46 30.0000000  0  8G24G10G27G15G21G20G32G04
 108165873.138 8  84285126.458 8  20583273.205    20583275.446    20583273.441
  20583275.660          49.250          48.000
 115085532.754 8  89677054.111 7  21900040.880    21900043.026    21900041.206
  21900043.286          48.500          44.750
 128684645.648 6 100273769.164 5  24487872.401    24487874.966    24487872.977
  24487875.205          39.250          35.750
 115982829.190 8  90376251.145 6  22070792.472    22070791.946    22070792.776
  22070792.474          48.750          41.500
 111422895.710 8  86823031.85346  21203065.682    21203065.446    21203066.849
                        49.250          40.000
 106021396.134 8  82614090.34246  20175191.962    20175191.837    20175193.142
                        49.000          41.750
 123361536.850 6  96125890.751 6  23474912.814    23474915.587    23474912.988
  23474915.103          41.000          39.000
 131172031.454 5 102211975.25041  24961206.813    24961209.611    24961207.622
                        33.500           9.500
 19  9 29 20 47  0.0000000  0  8G24G10G27G15G21G20G32G04
 108153277.084 8  84275311.363 7  20580876.468    20580878.348    20580876.696
  20580878.830          49.250          47.750
 115016153.470 8  89622992.342 7  21886838.335    21886840.618    21886838.670
  21886840.799          48.000          45.000
 128717922.544 6 100299699.211 6  24494204.804    24494207.611    24494205.394
  24494208.492          38.250          37.000
 116064875.102 8  90440183.007 6  22086405.006    22086404.821    22086405.314
  22086405.490          48.500          41.500
 111457285.949 8  86849829.42946  21209609.996    21209609.567    21209611.158
                        49.000          40.250
 105989191.705 8  82588995.99047  20169063.714    20169063.514    20169064.890
                        48.500          42.250
 123280306.065 6  96062594.075 6  23459454.894    23459457.479    23459455.072
  23459457.762          41.500          38.750
 131231981.632 5 102258689.71541  24972615.463    24972617.847    24972616.294
                        32.750          10.750
 19  9 29 20 47 30.0000000  0  9G13G24G10G27G15G21G20G32G04
                                                                  25218710.669
                        20.000
 108141311.256 8  84265987.354 8  20578599.254    20578601.331    20578599.486
  20578601.724          48.750          48.000
 114946910.602 7  89569036.879 7  21873662.034    21873664.155    21873662.364
  21873663.923          47.750          44.750
 128751656.388 6 100325985.312 6  24500624.037    24500626.366    24500624.609
  24500627.644          38.250          36.500
 116147065.575 8  90504227.521 6  22102045.585    22102045.336    22102045.875
  22102045.309          48.750          41.750
 111492151.960 8  86876997.73446  21216244.847    21216244.529    21216246.009
                        48.750          40.500
 105957323.770 8  82564163.83947  20162999.521    20162999.247    20163000.697
                        48.250          42.250
 123199262.250 6  95999443.102 6  23444032.132    23444034.526    23444032.319
  23444035.392          41.500          38.500
 131292219.844 5 102305628.55041  24984078.048    24984080.892    24984078.902
                        32.750           9.500
 19  9 29 20 48  0.0000000  0  9G13G24G10G27G15G21G20G32G04
                                                                  25237904.934
                        19.000
 108129975.726 8  84257154.476 8  20576442.364    20576444.251    20576442.596
  20576444.304          48.750          48.000
 114877805.463 7  89515188.742 7  21860511.930    21860513.654    21860512.238
  21860513.553          47.750          45.000
 128785845.073 6 100352625.828 5  24507129.245    24507132.523    24507129.830
  24507132.797          38.500          35.750
 116229399.423 8  90568383.748 7  22117713.190    22117713.003    22117713.480
  22117713.205          48.750          42.000
 111527493.402 8  86904536.50846  21222969.781    21222969.836    21222970.943
                        49.000          40.250
 105925794.083 8  82539595.26447  20156999.606    20156999.300    20157000.782
                        48.500          42.250
 123118405.867 6  95936438.144 6  23428646.195    23428648.424    23428646.364
  23428649.054          41.000          39.500
 131352743.507 5 102352789.82241  24995595.502    24995598.164    24995596.297
                        30.000          10.000
 19  9 29 20 48 30.0000000  0  8G24G10G27G15G21G20G32G04
 108119271.276 8  84248813.363 8  20574405.343    20574407.182    20574405.571
  20574407.577          49.250          48.000
 114808839.370 8  89461448.942 7  21847388.153    21847390.091    21847388.466
  21847389.919          48.250          45.500
 128820486.676 6 100379619.251 6  24513721.817    24513724.701    24513722.331
  24513725.986          38.500          36.000
 116311874.845 8  90632650.309 6  22133407.532    22133407.509    22133407.822
  22133407.671          48.750          41.750
 111563308.568 8  86932444.41346  21229785.255    21229785.090    21229786.422
                        49.000          40.000
 105894604.234 8  82515291.49347  20151064.341    20151064.084    20151065.521
                        48.750          42.000
 123037737.417 6  95873579.663 6  23413294.603    23413298.028    23413294.777
  23413298.496          41.750          38.500
 131413549.921 5 102400171.36941  25007166.073    25007169.096    25007166.801
                        32.500          10.500
 19  9 29 20 49  0.0000000  0  9G13G24G10G27G15G21G20G32G04
                                                                  25276281.244
                        20.000
 108109198.089 8  84240964.126 8  20572488.380    20572490.532    20572488.603
  20572490.696          49.000          48.000
 114740013.613 8  89407818.491 7  21834290.725    21834292.869    21834291.042
  21834292.690          48.250          45.000
 128855579.065 6 100406963.950 5  24520399.810    24520402.671    24520400.297
  24520403.285          38.250          35.250
 116394490.467 8  90697026.086 6  22149128.825    22149128.705    22149129.120
  22149129.150          48.500          41.500
 111599596.933 8  86960721.04746  21236690.644    21236690.662    21236691.820
                        48.750          40.000
 105863755.456 8  82491253.49347  20145194.125    20145193.796    20145195.305
                        48.500          42.000
 122957257.383 6  95810867.992 6  23397980.639    23397982.712    23397980.799
  23397983.181          41.250          38.500
 131474636.286 5 102447771.06841  25018791.596    25018793.642    25018792.271
                        31.500           9.250
 19  9 29 20 49 30.0000000  0  9G13G24G10G27G15G21G20G32G04
                                                                  25295457.096
                        21.500
 108099756.033 8  84233606.686 7  20570691.532    20570693.692    20570691.751
  20570693.922          49.000          47.500
 114671329.530 8  89354298.443 7  21821220.889    21821222.670    21821221.202
  21821222.712          48.000          45.000
 128891120.194 6 100434658.320 5  24527162.944    24527165.393    24527163.400
  24527166.487          38.250          35.000
 116477244.322 8  90761509.605 6  22164876.499    22164876.212    22164876.803
  22164876.842          48.500          41.500
 111636357.565 8  86989365.68646  21243686.012    21243685.889    21243687.188
                        49.000          40.000
 105833248.969 8  82467482.21247  20139388.599    20139388.516    20139389.783
                        48.750          42.000
 122876966.210 6  95748303.479 6  23382701.205    23382703.777    23382701.339
  23382704.463          41.500          38.750
 131535999.439 5 102495586.53041  25030469.161    25030470.640    25030469.760
                        32.500           9.750
 19  9 29 20 50  0.0000000  0  9G13G24G10G27G15G21G20G32G04
                                                                  25314619.362
                        19.500
 108090945.973 8  84226741.717 7  20569015.165    20569017.016    20569015.388
  20569017.455          48.750          47.750
 114602788.448 8  89300889.830 7  21808177.911    21808179.729    21808178.215
  21808179.496          48.000          44.750
 128927108.005 6 100462700.765 5  24534011.317    24534013.879    24534011.790
  24534015.265          36.500          34.500
 116560135.122 8  90826099.823 6  22180650.146    22180649.825    22180650.445
  22180650.448          48.500          41.500
 111673589.663 8  87018377.69046  21250771.223    21250771.014    21250772.403
                        48.750          39.500
 105803086.192 8  82443978.75847  20133649.076    20133648.764    20133650.256
                        48.250          42.000
 122796864.360 7  95685886.500 6  23367458.360    23367461.339    23367458.498
  23367461.418          42.500          39.250
 131597636.705 5 102543615.46541  25042196.522    25042200.073    25042197.063
                        31.500          10.000
 19  9 29 20 50 30.0000000  0  8G24G10G27G15G21G20G32G04
 108082767.752 8  84220369.078 8  20567458.819    20567460.856    20567459.038
  20567461.116          49.500          48.000
 114534391.704 8  89247593.681 7  21795162.412    21795164.142    21795162.725
  21795164.095          48.500          45.250
 128963540.425 6 100491089.662 5  24540944.855    24540947.345    24540945.382
  24540947.423          38.250          35.750
 116643161.444 8  90890795.637 6  22196449.491    22196449.222    22196449.790
  22196449.305          48.500          41.250
 111711292.156 8  87047756.24246  21257945.723    21257945.536    21257946.903
                        48.750          39.750
 105773268.529 8  82420744.22647  20127974.930    20127974.606    20127976.119
                        48.500          42.000
 122716952.249 7  95623617.358 6  23352251.754    23352254.201    23352251.923
  23352254.800          42.000          39.000
 131659545.166 5 102591855.80141  25053979.804    25053980.898    25053980.421
                        33.250           9.250
 19  9 29 20 51  0.0000000  0  8G24G10G27G15G21G20G32G04
 108075221.147 8  84214488.617 8  20566022.795    20566024.808    20566023.014
  20566024.966          49.250          48.000
 114466140.640 8  89194411.051 7  21782174.627    21782176.484    21782174.940
  21782176.466          48.250          45.000
 129000415.327 6 100519823.292 5  24547961.318    24547964.488    24547961.876
  24547964.692          37.500          35.000
 116726321.757 8  90955595.875 6  22212274.451    22212274.227    22212274.746
  22212273.977          48.750          41.000
 111749464.321 8  87077500.76846  21265209.613    21265209.535    21265210.784
                        49.000          39.750
 105743797.673 8  82397779.92947  20122366.871    20122366.512    20122368.060
                        48.500          42.250
 122637230.404 7  95561496.470 6  23337081.528    23337083.175    23337081.697
  23337084.120          42.000          37.750
 131721722.150 5 102640305.35341  25065810.750    25065812.928    25065811.474
                        34.750          11.250
 19  9 29 20 51 30.0000000  0  8G24G10G27G15G21G20G32G04
 108068306.791 8  84209100.822 8  20564707.215    20564709.051    20564707.438
  20564709.244          49.000          48.000
 114398036.622 8  89141342.994 7  21769214.818    21769216.689    21769215.131
  21769216.504          48.250          45.250
 129037730.555 6 100548900.079 5  24555062.192    24555064.485    24555062.742
  24555066.581          37.750          35.750
 116809614.634 8  91020499.399 6  22228124.397    22228124.099    22228124.696
  22228124.634          48.500          41.500
 111788105.180 8  87107610.51646  21272562.698    21272562.550    21272563.874
                        48.500          39.750
 105714675.017 8  82375086.96047  20116824.862    20116824.624    20116826.051
                        48.500          42.250
 122557699.207 7  95499524.134 6  23321946.663    23321949.183    23321946.815
  23321949.704          42.000          39.000
 131784164.697 5 102688961.85141  25077692.340    25077695.433    25077692.970
                        32.500          10.750
 19  9 29 20 52  0.0000000  0  8G24G10G27G15G21G20G32G04
 108062024.737 8  84204205.718 8  20563511.423    20563513.536    20563511.651
  20563513.889          49.000          48.000
 114330080.970 8  89088390.561 7  21756283.018    21756285.052    21756283.339
  21756284.941          48.500          45.000
 129075483.963 6 100578318.330 5  24562246.574    24562249.153    24562247.137
  24562250.144          38.750          35.500
 116893038.107 8  91085504.687 6  22243999.438    22243998.940    22243999.737
  22243999.661          48.250          40.750
 111827213.820 8  87138084.76146  21280004.825    21280004.739    21280006.005
                        49.250          39.500
 105685901.901 8  82352666.35647  20111349.494    20111349.203    20111350.683
                        48.500          42.000
 122478359.158 7  95437700.780 6  23306849.075    23306851.550    23306849.191
  23306852.040          42.000          39.250
 131846869.891 5 102737823.03342  25089625.663    25089627.269    25089626.333
                        35.000          13.000
 19  9 29 20 52 30.0000000  0  8G24G10G27G15G21G20G32G04
 108056375.230 8  84199803.501 8  20562436.482    20562438.598    20562436.687
  20562438.684          51.750          48.250
 114262275.106 8  89035554.838 7  21743380.399    21743382.077    21743380.725
  21743381.928          48.500          45.500
 129113673.454 6 100608076.364 6  24569513.921    24569516.944    24569514.484
  24569516.870          38.500          36.000
 116976591.034 8  91150610.848 6  22259899.068    22259898.608    22259899.363
  22259899.169          48.250          41.000
 111866788.909 8  87168922.48246  21287535.731    21287535.640    21287536.911
                        49.000          39.750
 105657479.757 8  82330519.23847  20105941.036    20105940.753    20105942.220
                        48.500          42.250
 122399210.628 7  95376026.637 6  23291787.302    23291789.779    23291787.431
  23291790.075          42.750          38.750
 131909834.916 5 102786886.60242  25101607.780    25101609.532    25101608.531
                        34.500          14.000
 19  9 29 20 53  0.0000000  0  8G24G10G27G15G21G20G32G04
 108051358.038 8  84195894.004 7  20561481.711    20561483.634    20561481.925
  20561483.942          51.750          47.750
 114194620.361 8  88982836.861 7  21730505.947    21730507.771    21730506.273
  21730507.926          48.500          45.750
 129152296.798 6 100638172.435 5  24576863.316    24576867.397    24576863.892
  24576866.919          38.000          35.500
 117060271.993 8  91215816.760 6  22275823.082    22275822.646    22275823.395
  22275823.228          48.500          41.000
 111906829.947 8  87200123.27546  21295155.317    21295155.316    21295156.488
                        48.750          39.500
 105629410.075 8  82308646.76347  20100599.651    20100599.168    20100600.835
                        48.250          42.000
 122320254.060 7  95314502.072 6  23276762.405    23276764.542    23276762.552
  23276765.271          42.000          39.000
 131973056.764 5 102836150.31641  25113637.329    25113640.446    25113638.048
                        33.500          10.000
 19  9 29 20 53 30.0000000  0  8G24G10G27G15G21G20G32G04
 108046973.094 8  84192477.181 8  20560647.351    20560649.203    20560647.579
  20560649.560          51.250          48.250
 114127118.127 8  88930237.741 7  21717660.680    21717662.624    21717661.001
  21717662.635          48.250          45.500
 129191351.768 6 100668604.880 5  24584295.591    24584298.018    24584296.190
  24584298.214          39.750          35.750
 117144079.259 7  91281121.106 6  22291771.294    22291770.648    22291771.602
  22291771.427          47.750          41.500
 111947335.642 8  87231686.14246  21302863.504    21302863.240    21302864.671
                        48.500          39.500
 105601694.146 8  82287049.94347  20095325.358    20095325.059    20095326.547
                        48.000          42.000
 122241489.847 6  95253127.404 6  23261774.150    23261776.642    23261774.288
  23261776.751          41.750          39.250
 132036532.639 5 102885612.00142  25125717.225    25125719.484    25125717.846
                        35.000          13.250
 19  9 29 20 54  0.0000000  0  8G24G10G27G15G21G20G32G04
 108043220.583 8  84189553.146 8  20559933.145    20559935.264    20559933.386
  20559935.427          51.750          48.250
 114059769.811 8  88877758.545 7  21704844.735    21704846.578    21704845.065
  21704846.604          48.250          45.750
 129230836.221 6 100699371.935 5  24591808.456    24591811.891    24591809.010
  24591812.194          37.750          35.250
 117228011.501 8  91346522.827 6  22307742.676    22307742.546    22307742.984
  22307743.018          48.250          41.500
 111988304.815 8  87263610.15946  21310659.431    21310659.550    21310660.602
                        48.750          39.500
 105574333.620 8  82265730.05747  20090119.010    20090118.632    20090120.199
                        48.500          42.250
 122162918.451 7  95191902.995 6  23246822.381    23246824.560    23246822.524
  23246825.414          42.250          39.000
 132100259.621 5 102935269.38341  25137843.904    25137846.090    25137844.583
                        33.250          11.750
 19  9 29 20 54 30.0000000  0  8G24G10G27G15G21G20G32G04
 108040100.349 8  84187121.799 8  20559339.357    20559341.397    20559339.602
  20559341.735          51.000          48.000
 113992576.793 8  88825400.364 7  21692058.294    21692060.228    21692058.611
  21692060.120          48.000          45.750
 129270747.915 6 100730471.944 5  24599404.058    24599407.353    24599404.634
  24599407.565          37.750          35.750
 117312067.169 7  91412020.735 6  22323738.110    22323737.683    22323738.405
  22323738.523          47.500          41.000
 112029736.573 8  87295894.63346  21318543.869    21318543.620    21318545.036
                        48.500          39.250
 105547330.058 7  82244688.32747  20084980.274    20084979.982    20084981.467
                        47.750          42.000
 122084540.250 7  95130829.131 6  23231907.337    23231909.463    23231907.466
  23231910.129          42.000          38.750
 132164234.978 5 102985120.24542  25150019.017    25150020.378    25150019.750
                        34.250          13.750
 19  9 29 20 55  0.0000000  0  8G24G10G27G15G21G20G32G04
 108037612.715 8  84185183.392 8  20558865.989    20558867.946    20558866.243
  20558868.442          51.750          48.000
 113925540.468 8  88773164.280 7  21679301.650    21679303.525    21679301.971
  21679303.478          48.500          45.500
 129311084.636 6 100761903.154 5  24607079.544    24607082.742    24607080.049
  24607083.287          37.750          35.000
 117396244.922 7  91477613.770 6  22339756.520    22339756.224    22339756.815
  22339756.656          47.000          40.750
 112071629.963 8  87328538.82546  21326515.794    21326515.628    21326516.956
                        48.500          39.250
 105520684.536 8  82223925.58447  20079909.803    20079909.426    20079910.992
                        48.000          42.000
 122006355.719 7  95069906.130 6  23217029.283    23217031.847    23217029.426
  23217031.724          42.500          39.250
 132228455.615 5 103035162.23441  25162238.637    25162241.412    25162239.392
                        33.250          11.750
 19  9 29 20 55 30.0000000  0  8G24G10G27G15G21G20G32G04
 108035756.947 8  84183737.346 8  20558512.899    20558514.996    20558513.158
  20558515.429          51.750          48.500
 113858662.238 8  88721051.393 7  21666575.440    21666577.046    21666575.757
  21666577.322          48.750          46.000
 129351844.057 6 100793663.725 5  24614836.484    24614838.927    24614836.953
  24614839.081          38.250          34.000
 117480543.601 7  91543301.026 6  22355797.928    22355797.830    22355798.223
  22355798.316          47.250          40.750
 112113983.822 8  87361541.82046  21334575.530    21334575.397    21334576.697
                        48.750          39.500
 105494398.360 8  82203442.85347  20074907.691    20074907.308    20074908.884
                        48.250          42.250
 121928365.177 7  95009134.337 6  23202188.773    23202190.921    23202188.875
  23202191.574          42.500          39.750
 132292918.875 6 103085393.27342  25174506.267    25174508.485    25174507.089
                        36.000          14.750
 19  9 29 20 56  0.0000000  0  8G24G10G27G15G21G20G32G04
 108034532.872 8  84182783.532 8  20558279.750    20558282.029    20558280.031
  20558282.033          51.250          48.000
 113791943.559 8  88669062.825 7  21653879.233    21653880.924    21653879.550
  21653880.790          48.500          45.250
 129393023.981 6 100825751.955 5  24622672.726    24622675.236    24622673.320
  24622676.440          37.500          34.250
 117564961.030 7  91609080.821 6  22371862.174    22371862.045    22371862.473
  22371862.257          47.500          40.500
 112156796.765 8  87394902.54346  21342722.624    21342722.550    21342723.786
                        48.500          39.500
 105468473.308 8  82183241.51747  20069974.508    20069973.973    20069975.701
                        48.250          42.250
 121850569.055 7  94948514.040 6  23187384.329    23187386.121    23187384.454
  23187386.888          42.500          38.250
 132357621.577 5 103135810.92742  25186818.632    25186821.232    25186819.463
                        35.500          15.250
 19  9 29 20 56 30.0000000  0  8G24G10G27G15G21G20G32G04
 108033940.657 8  84182322.075 8  20558167.154    20558169.286    20558167.435
  20558169.649          51.750          48.000
 113725385.836 8  88617199.679 7  21641213.360    21641215.371    21641213.686
  21641215.361          48.750          45.500
 129434622.073 6 100858166.047 5  24630588.503    24630591.479    24630589.097
  24630592.209          38.250          34.750
 117649495.881 7  91674952.123 6  22387948.606    22387948.551    22387948.896
  22387948.729          47.750          40.500
 112200067.707 8  87428620.14646  21350956.614    21350956.686    21350957.767
                        48.750          39.250
 105442910.378 8  82163322.35347  20065109.973    20065109.425    20065111.166
                        48.250          42.000
 121772967.703 7  94888045.491 6  23172617.177    23172619.464    23172617.306
  23172619.575          42.750          39.000
 132422561.086 5 103186413.10442  25199175.808    25199178.986    25199176.608
                        34.500          14.500
 19  9 29 20 57  0.0000000  0  8G24G10G27G15G21G20G32G04
 108033980.486 8  84182353.122 7  20558174.731    20558176.763    20558175.017
  20558176.902          51.500          47.500
 113658990.482 8  88565463.054 7  21628578.837    21628580.828    21628579.163
  21628580.811          48.500          46.000
 129476636.037 6 100890904.192 5  24638583.435    24638586.651    24638583.976
  24638587.192          38.000          34.500
 117734147.213 7  91740914.185 6  22404057.302    22404057.245    22404057.583
  22404057.516          47.250          40.750
 112243795.905 8  87462694.05846  21359277.828    21359277.772    21359278.986
                        48.500          39.250
 105417711.232 8  82143686.65947  20060314.522    20060314.231    20060315.711
                        48.000          42.000
 121695561.561 7  94827729.045 6  23157887.041    23157889.479    23157887.157
  23157889.825          43.000          38.500
 132487734.314 6 103237197.38642  25211578.313    25211581.318    25211579.095
                        36.750          16.000
 19  9 29 20 57 30.0000000  0  8G24G10G27G15G21G20G32G04
 108034651.315 8  84182875.849 8  20558302.507    20558304.397    20558302.797
  20558304.856          51.750          48.000
 113592758.955 8  88513854.087 7  21615975.219    21615977.243    21615975.549
  21615977.013          48.500          45.750
 129519063.585 6 100923964.605 5  24646656.594    24646659.727    24646657.197
  24646660.036          38.500          33.750
 117818913.667 7  91806965.958 6  22420187.933    22420187.760    22420188.214
  22420187.961          47.500          40.750
 112287980.047 8  87497123.24646  21367685.933    21367685.844    21367687.095
                        48.500          39.250
 105392877.366 8  82124335.60147  20055588.685    20055588.446    20055589.874
                        48.000          42.250
 121618350.958 7  94767565.006 6  23143194.429    23143196.308    23143194.527
  23143197.175          42.000          39.000
 132553138.190 6 103288161.43542  25224024.246    25224026.608    25224025.082
                        36.000          15.750
 19  9 29 20 58  0.0000000  0  8G24G10G27G15G21G20G32G04
 108035953.908 8  84183890.876 7  20558550.331    20558552.388    20558550.626
  20558552.769          51.250          47.750
 113526692.690 8  88462373.898 7  21603403.300    21603405.343    21603403.621
  21603405.064          48.500          45.750
 129561902.393 6 100957345.493 5  24654809.285    24654811.366    24654809.919
  24654812.138          39.250          33.500
 117903793.807 7  91873106.323 6  22436339.936    22436339.972    22436340.217
  22436340.060          47.000          40.750
 112332618.888 8  87531906.74846  21376180.466    21376180.425    21376181.624
                        48.250          39.000
 105368410.059 8  82105270.17247  20050932.749    20050932.535    20050933.938
                        48.000          42.000
 121541336.319 7  94707553.642 6  23128539.154    23128541.241    23128539.261
  23128541.871          43.000          39.000
 132618769.890 6 103339302.95942  25236512.838    25236515.970    25236513.701
                        37.250          16.250
 19  9 29 20 58 30.0000000  0  8G24G10G27G15G21G20G32G04
 108037887.278 8  84185397.408 8  20558918.103    20558920.354    20558918.407
  20558920.487          51.250          48.000
 113460793.154 8  88411023.620 7  21590863.080    21590864.901    21590863.406
  21590865.074          48.750          45.500
 129605150.131 6 100991045.018 5  24663038.673    24663041.289    24663039.316
  24663042.766          37.750          34.250
 117988785.722 7  91939333.780 6  22452513.453    22452513.231    22452513.748
  22452513.563          47.000          40.500
 112377711.114 8  87567043.53946  21384761.228    21384761.088    21384762.386
                        48.500          39.250
 105344310.728 7  82086491.48147  20046346.836    20046346.640    20046348.025
                        47.750          42.250
 121464517.990 7  94647695.242 6  23113921.157    23113923.252    23113921.255
  23113923.467          42.750          39.000
 132684626.680 6 103390619.89842  25249046.221    25249048.471    25249047.075
                        37.500          17.250
 19  9 29 20 59  0.0000000  0  8G24G10G27G15G21G20G32G04
 108040451.403 8  84187395.438 8  20559406.078    20559408.123    20559406.395
  20559408.299          51.750          48.000
 113395061.802 8  88359804.391 7  21578354.882    21578356.726    21578355.199
  21578356.847          48.750          46.000
 129648804.386 6 101025061.290 5  24671346.123    24671348.995    24671346.775
  24671349.452          36.500          34.750
 118073888.449 7  92005647.583 6  22468707.992    22468707.990    22468708.287
  22468708.177          47.250          41.000
 112423255.550 8  87602532.70246  21393428.063    21393427.938    21393429.230
                        48.250          39.000
 105320580.631 8  82068000.50547  20041831.234    20041830.869    20041832.418
                        48.000          42.250
 121387896.295 7  94587990.090 6  23099340.300    23099342.400    23099340.425
  23099343.447          42.750          39.250
 132750705.590 6 103442109.90042  25261620.434    25261622.597    25261621.368
                        37.750          15.750
 19  9 29 20 59 30.0000000  0  8G24G10G27G15G21G20G32G04
 108043646.369 8  84189885.026 8  20560014.006    20560016.018    20560014.327
  20560016.234          51.750          48.000
 113329500.107 8  88308717.375 7  21565878.869    21565880.707    21565879.186
  21565880.725          49.000          46.000
 129692862.789 6 101059392.488 5  24679730.277    24679732.469    24679730.907
  24679734.470          37.250          34.500
 118159100.192 7  92072046.327 6  22484922.995    22484923.051    22484923.294
  22484923.200          47.250          41.000
 112469251.003 8  87638373.30146  21402180.727    21402180.607    21402181.894
                        48.500          38.750
 105297221.176 8  82049798.34447  20037385.887    20037385.736    20037387.076
                        48.000          42.000
 121311471.647 7  94528438.453 6  23084797.052    23084799.011    23084797.190
  23084799.808          43.500          38.750
 132817003.367 6 103493770.46342  25274236.192    25274237.926    25274237.077
                        36.500          15.000
                            4  1
RINEX FILE SPLICE; other post-header comments skipped       COMMENT
 19  9 29 21  0  0.0000000  0  8G24G10G27G15G21G20G32G04
 108047471.242 8  84192865.458 8  20560741.770    20560743.949    20560742.096
  20560744.358          51.500          48.250
 113264109.504 8  88257763.674 7  21553435.581    21553437.322    21553435.902
  21553437.324          48.750          46.000
 129737323.032 6 101094036.816 5  24688190.094    24688193.231    24688190.630
  24688194.315          37.000          34.500
 118244419.845 7  92138529.165 6  22501159.000    22501158.779    22501159.286
  22501158.888          46.750          40.500
 112515696.292 8  87674564.42546  21411019.030    21411018.872    21411020.206
                        48.500          39.000
 105274233.703 7  82031886.03947  20033011.602    20033011.304    20033012.786
                        47.750          42.250
 121235244.391 7  94469040.622 6  23070291.229    23070293.921    23070291.376
  23070294.496          42.250          39.250
 132883517.454 6 103545599.56143  25286893.186    25286895.654    25286893.986
                        37.500          18.000
 19  9 29 21  0 30.0000000  0  8G24G10G27G15G21G20G32G04
 108051925.709 8  84196336.484 8  20561589.565    20561591.644    20561589.891
  20561591.882          51.250          48.000
 113198891.505 8  88206944.474 7  21541024.614    21541026.749    21541024.940
  21541026.495          49.000          45.750
 129782182.636 6 101128992.342 5  24696727.077    24696730.270    24696727.658
  24696729.503          37.750          33.500
 118329845.969 7  92205094.976 6  22517414.963    22517415.202    22517415.249
  22517415.270          47.000          41.000
 112562590.145 8  87711105.07646  21419942.362    21419942.527    21419943.533
                        48.500          39.000
 105251619.778 8  82014264.80847  20028708.283    20028707.949    20028709.463
                        48.000          42.250
 121159214.855 7  94409796.870 6  23055823.508    23055825.481    23055823.655
  23055825.917          42.500          39.000
 132950244.797 5 103597594.85442  25299591.325    25299593.765    25299592.044
                        35.750          15.250
 19  9 29 21  1  0.0000000  0  8G24G10G27G15G21G20G32G04
 108057009.000 8  84200297.509 8  20562556.692    20562558.887    20562557.027
  20562559.167          51.500          48.000
 113133847.614 8  88156260.931 7  21528647.383    21528649.200    21528647.709
  21528649.334          49.000          46.000
 129827439.172 6 101164257.148 5  24705338.825    24705342.284    24705339.316
  24705342.295          38.250          34.250
 118415377.424 7  92271742.855 6  22533690.833    22533691.273    22533691.114
  22533691.019          46.750          40.750
 112609931.124 8  87747994.14046  21428951.325    21428951.063    21428952.492
                        48.250          38.750
 105229380.686 7  81996935.65547  20024476.473    20024476.019    20024477.657
                        47.750          42.250
 121083383.381 7  94350707.477 6  23041393.183    23041395.206    23041393.330
  23041395.814          42.500          40.000
 133017182.440 6 103649754.01442  25312329.396    25312332.058    25312330.142
                        37.750          15.250
 19  9 29 21  1 30.0000000  0  8G24G10G27G15G21G20G32G04
 108062721.561 8  84204748.860 8  20563643.939    20563645.983    20563644.278
  20563646.187          51.750          48.250
 113068979.264 8  88105714.187 7  21516303.560    21516305.125    21516303.873
  21516305.149          49.250          46.000
 129873090.305 6 101199829.437 5  24714025.982    24714029.542    24714026.527
  24714030.918          37.250          33.500
 118501012.576 7  92338471.542 6  22549986.928    22549987.194    22549987.209
  22549987.323          46.250          41.000
 112657718.001 8  87785230.65546  21438044.734    21438044.742    21438045.901
                        48.500          38.750
 105207517.849 8  81979899.68847  20020316.175    20020315.666    20020317.355
                        48.250          42.250
 121007750.328 7  94291772.653 6  23027000.765    23027002.914    23027000.930
  23027003.438          43.000          38.500
 133084327.532 6 103702074.83342  25325106.256    25325108.830    25325106.966
                        37.250          16.000
 19  9 29 21  2  0.0000000  0  8G24G10G27G15G21G20G32G04
 108069062.386 8  84209689.778 8  20564850.420    20564852.557    20564850.759
  20564852.640          51.250          48.250
 113004288.004 8  88055305.428 7  21503992.996    21503994.788    21503993.313
  21503994.689          49.000          46.250
 129919133.513 6 101235707.248 5  24722787.595    24722791.244    24722788.261
  24722790.168          36.750          32.500
 118586750.134 7  92405280.008 6  22566302.070    22566302.409    22566302.369
  22566302.589          46.000          40.500
 112705949.507 8  87822813.64046  21447222.872    21447222.980    21447224.039
                        48.250          38.750
 105186032.511 7  81963157.87247  20016227.466    20016227.168    20016228.655
                        47.250          42.250
 120932315.970 7  94232992.690 6  23012645.355    23012648.021    23012645.515
  23012648.413          42.250          39.250
 133151677.093 6 103754554.91842  25337922.531    25337925.144    25337923.241
                        36.500          16.000
 19  9 29 21  2 30.0000000  0  8G24G10G27G15G21G20G32G04
 108076031.378 8  84215120.175 7  20566176.628    20566178.724    20566176.972
  20566179.070          51.250          47.750
 112939775.315 8  88005035.819 7  21491716.613    21491718.476    21491716.930
  21491718.364          48.750          45.750
 129965566.389 6 101271888.744 5  24731624.255    24731626.692    24731624.952
  24731628.418          36.250          34.750
 118672588.950 7  92472167.397 6  22582636.547    22582636.853    22582636.842
  22582637.146          46.500          40.000
 112754624.184 8  87860741.94846  21456485.379    21456485.262    21456486.541
                        48.500          38.500
 105164926.028 7  81946711.27147  20012211.105    20012210.730    20012212.294
                        47.750          42.250
 120857080.680 7  94174367.832 6  22998328.902    22998331.594    22998329.036
  22998332.056          42.750          39.750
 133219228.148 5 103807192.06641  25350776.507    25350779.776    25350777.213
                        34.750          11.750
 19  9 29 21  3  0.0000000  0  8G24G10G27G15G21G20G32G04
 108083627.231 8  84221039.036 8  20567622.125    20567624.113    20567622.473
  20567624.411          51.000          48.000
 112875442.748 8  87954906.566 7  21479474.407    21479476.345    21479474.724
  21479476.287          48.750          46.250
 130012386.418 6 101308371.860 5  24740533.204    24740536.194    24740533.879
  24740536.011          36.250          32.500
 118758527.478 7  92539132.469 6  22598990.303    22598990.292    22598990.602
  22598990.457          46.500          39.500
 112803740.697 8  87899014.54246  21465831.895    21465831.888    21465833.066
                        48.000          38.250
 105144199.809 7  81930560.97947  20008267.207    20008266.709    20008268.387
                        47.250          42.000
 120782044.790 7  94115898.338 6  22984050.150    22984052.644    22984050.306
  22984052.672          42.750          39.750
 133286977.724 6 103859983.89342  25363670.193    25363672.090    25363670.778
                        37.000          14.000
 19  9 29 21  3 30.0000000  0  8G24G10G27G15G21G20G32G04
 108091850.438 8  84227446.743 8  20569187.037    20569188.980    20569187.385
  20569189.335          52.000          48.250
 112811291.792 8  87904918.824 7  21467266.944    21467268.838    21467267.261
  21467268.525          49.500          46.250
 130059591.193 6 101345154.767 5  24749515.511    24749518.901    24749516.226
  24749518.973          37.000          33.500
 118844564.618 7  92606174.374 6  22615362.693    22615362.611    22615362.988
  22615363.207          47.000          40.250
 112853297.637 8  87937630.32446  21475262.340    21475262.410    21475263.511
                        48.750          38.750
 105123855.402 8  81914708.20147  20004395.520    20004395.201    20004396.704
                        48.250          42.250
 120707208.577 7  94057584.440 6  22969809.093    22969811.711    22969809.271
  22969811.576          43.500          39.500
 133354922.904 6 103912928.12742  25376600.164    25376601.979    25376600.767
                        36.000          14.000
 19  9 29 21  4  0.0000000  0  8G24G10G27G15G21G20G32G04
 108100700.067 8  84234342.567 8  20570870.960    20570873.136    20570871.313
  20570873.246          51.500          48.000
 112747323.976 8  87855073.793 7  21455094.394    21455096.142    21455094.711
  21455096.223          49.250          46.000
 130107178.182 6 101382235.537 5  24758570.348    24758574.608    24758570.982
  24758575.186          37.000          33.750
 118930698.660 7  92673291.815 6  22631753.336    22631753.594    22631753.640
  22631753.656          46.500          40.000
 112903293.919 8  87976588.45846  21484776.403    21484776.386    21484777.579
                        48.500          38.250
 105103893.912 8  81899153.80047  20000596.951    20000596.634    20000598.131
                        48.000          42.250
 120632572.382 7  93999426.396 6  22955606.737    22955608.134    22955606.924
  22955609.322          43.750          39.500
 133423060.651 5 103966022.41941  25389565.733    25389568.240    25389566.372
                        33.750          11.750
 19  9 29 21  4 30.0000000  0  8G24G10G27G15G21G20G32G04
 108110175.511 8  84241726.046 7  20572673.917    20572675.961    20572674.274
  20572676.341          51.500          47.750
 112683540.816 8  87805372.649 7  21442957.016    21442958.594    21442957.333
  21442958.504          49.250          46.000
 130155144.886 6 101419612.189 5  24767699.381    24767702.343    24767700.024
  24767703.870          36.500          34.250
 119016928.695 7  92740484.025 6  22648162.787    22648162.400    22648163.100
  22648163.246          46.500          39.750
 112953727.836 8  88015887.60246  21494373.716    21494373.696    21494374.900
                        48.250          38.250
 105084316.567 7  81883898.73247  19996871.646    19996871.142    19996872.830
                        47.500          42.000
 120558136.502 7  93941424.456 6  22941441.823    22941443.912    22941442.019
  22941444.589          43.000          39.500
 133491388.150 5 104019264.58041  25402568.841    25402570.533    25402569.382
                        35.250          11.250
 19  9 29 21  5  0.0000000  0  8G24G10G27G15G21G20G32G04
 108120276.507 8  84249596.955 7  20574596.129    20574598.114    20574596.482
  20574598.385          51.500          47.750
 112619943.873 8  87755816.600 7  21430854.655    21430856.460    21430854.972
  21430856.339          49.250          46.250
 130203488.783 6 101457282.709 5  24776899.541    24776901.978    24776900.243
  24776901.797          36.500          30.750
 119103253.261 7  92807749.908 6  22664589.606    22664589.317    22664589.914
  22664589.496          46.500          39.750
 113004597.936 8  88055526.63346  21504053.874    21504053.645    21504055.063
                        48.500          38.250
 105065124.763 8  81868944.08347  19993219.402    19993219.051    19993220.582
                        48.000          42.250
 120483901.266 7  93883578.857 6  22927315.235    22927317.573    22927315.427
  22927317.733          42.750          39.750
 133559902.401 5 104072652.29042  25415605.001    25415608.336    25415605.635
                        35.500          12.500
 19  9 29 21  5 30.0000000  0  8G24G10G27G15G21G20G32G04
 108131001.746 8  84257954.291 8  20576637.020    20576639.285    20576637.377
  20576639.460          51.250          48.250
 112556534.676 8  87706406.852 7  21418788.416    21418790.077    21418788.733
  21418790.101          49.500          46.250
 130252207.338 6 101495245.275 5  24786169.730    24786173.386    24786170.409
  24786173.421          37.000          32.750
 119189671.397 7  92875088.705 6  22681034.378    22681033.978    22681034.686
  22681035.224          46.250          40.000
 113055902.899 8  88095504.51146  21513816.850    21513816.821    21513818.034
                        48.250          38.500
 105046320.048 7  81854291.06547  19989641.048    19989640.747    19989642.228
                        47.500          42.500
 120409866.938 7  93825889.811 6  22913226.981    22913228.877    22913227.141
  22913229.855          43.750          40.500
 133628600.532 5 104126183.21042  25428678.711    25428681.317    25428679.278
                        34.750          12.750
 19  9 29 21  6  0.0000000  0  8G24G10G27G15G21G20G32G04
 108142350.941 8  84266797.830 8  20578796.824    20578798.819    20578797.181
  20578799.218          51.750          48.000
 112493314.793 8  87657144.615 7  21406757.992    21406759.709    21406758.309
  21406759.931          49.250          46.750
 130301298.018 5 101533497.674 5  24795511.119    24795515.035    24795511.812
  24795515.784          35.500          34.000
 119276181.553 7  92942499.210 6  22697496.803    22697496.547    22697497.124
  22697497.164          46.250          39.750
 113107641.359 8  88135820.18146  21523662.367    21523662.515    21523663.543
                        48.250          38.250
 105027903.846 7  81839940.78147  19986136.567    19986136.238    19986137.747
                        47.750          42.250
 120336033.826 7  93768357.549 6  22899177.311    22899179.128    22899177.458
  22899179.510          44.250          40.250
 133697479.371 5 104179855.00941  25441786.393    25441788.429    25441786.983
                        34.000           9.250
 19  9 29 21  6 30.0000000  0  8G24G10G27G15G21G20G32G04
 108154322.959 8  84276126.686 7  20581074.855    20581077.071    20581075.212
  20581077.303          51.750          47.750
 112430285.770 8  87608031.100 7  21394763.893    21394765.650    21394764.214
  21394765.642          49.750          46.000
 130350758.269 6 101572038.105 5  24804923.953    24804926.915    24804924.547
  24804925.047          37.250          32.750
 119362782.195 7  93009980.214 6  22713976.517    22713976.278    22713976.838
  22713976.739          46.250          39.250
 113159811.564 8  88176472.27746  21533590.124    21533590.023    21533591.300
                        48.250          38.000
 105009877.038 8  81825893.92347  19982706.170    19982705.887    19982707.350
                        48.000          42.250
 120262402.235 7  93710982.313 6  22885165.511    22885167.585    22885165.667
  22885167.943          42.750          40.000
 133766536.101 5 104233665.44041  25454927.464    25454929.379    25454927.982
                        33.000           6.500
 19  9 29 21  7  0.0000000  0  8G24G10G27G15G21G20G32G04
 108166917.965 8  84285940.986 7  20583471.614    20583473.785    20583471.985
  20583474.161          51.500          47.500
 112367449.184 8  87559067.543 7  21382806.730    21382808.295    21382807.056
  21382808.472          49.250          46.500
 130400585.531 5 101610864.523 5  24814404.685    24814408.454    24814405.221
  24814410.122          35.750          33.750
 119449472.355 7  93077530.975 6  22730472.968    22730472.983    22730473.281
  22730473.302          46.500          39.750
 113212412.340 8  88217459.88246  21543599.704    21543599.701    21543600.875
                        48.250          38.250
 104992240.812 8  81812151.41447  19979350.098    19979349.711    19979351.278
                        48.000          42.250
 120188972.443 7  93653764.342 6  22871192.149    22871194.216    22871192.305
  22871194.682          44.000          40.500
 133835767.893 5 104287612.21141  25468100.585    25468103.901    25468101.219
                        30.750           7.750
 19  9 29 21  7 30.0000000  0  8G24G10G27G15G21G20G32G04
 108180134.563 8  84296239.643 8  20585986.617    20585988.715    20585986.983
  20585989.027          51.500          48.000
 112304806.584 8  87510255.132 7  21370885.858    21370887.812    21370886.171
  21370887.908          49.500          46.750
 130450777.207 6 101649974.921 5  24823957.202    24823959.353    24823957.720
  24823960.654          36.000          33.750
 119536250.875 7  93145150.589 6  22746986.694    22746986.297    22746987.002
  22746986.840          46.750          40.000
 113265441.959 8  88258781.65246  21553690.947    21553690.865    21553692.118
                        48.250          38.250
 104974996.984 7  81798714.66847  19976068.809    19976068.282    19976069.985
                        47.500          42.500
 120115744.718 7  93596703.816 6  22857257.381    22857259.679    22857257.515
  22857259.473          43.500          40.750
 133905171.552 5 104341692.9954   25481309.850    25481310.928    25481310.386
                        30.000           5.750
 19  9 29 21  8  0.0000000  0  8G24G10G27G15G21G20G32G04
 108193971.800 8  84307021.918 8  20588619.782    20588621.866    20588620.153
  20588622.275          52.000          48.000
 112242359.562 8  87461595.133 7  21359002.728    21359004.645    21359003.041
  21359004.334          50.000          46.500
 130501330.733 5 101689367.254 5  24833576.868    24833579.620    24833577.368
  24833579.237          35.250          32.000
 119623116.421 7  93212838.016 6  22763516.210    22763516.557    22763516.505
  22763516.112          46.500          39.500
 113318898.991 8  88300436.47146  21563863.507    21563863.315    21563864.683
                        48.250          37.750
 104958146.619 7  81785584.51747  19972862.101    19972861.865    19972863.272
                        47.750          42.250
 120042719.323 7  93539800.957 6  22843361.169    22843363.119    22843361.294
  22843363.209          43.750          40.750
 133974744.160 5 104395905.3294   25494548.008    25494549.945    25494548.678
                        30.500           4.250
 19  9 29 21  8 30.0000000  0  8G24G10G27G15G21G20G32G04
 108208429.371 8  84318287.564 8  20591370.978    20591373.121    20591371.358
  20591373.519          51.500          48.000
 112180109.695 8  87413088.753 7  21347157.130    21347158.700    21347157.443
  21347158.617          49.250          46.500
 130552243.526 5 101729039.496 5  24843264.244    24843267.703    24843264.735
  24843269.151          35.250          34.750
 119710067.592 7  93280592.153 6  22780062.533    22780062.737    22780062.828
  22780062.916          46.250          39.500
 113372782.162 8  88342423.34646  21574116.822    21574117.031    21574117.993
                        48.250          37.750
 104941691.083 7  81772762.02547  19969730.861    19969730.392    19969732.037
                        47.500          42.000
 119969896.545 7  93483055.998 6  22829502.940    22829505.579    22829503.083
  22829505.999          43.250          40.500
 134044482.872 5 104450247.11141  25507819.291    25507820.880    25507819.724
                        30.250           6.000
 19  9 29 21  9  0.0000000  0  8G24G10G27G15G21G20G32G04
 108223506.277 8  84330035.810 7  20594240.043    20594242.275    20594240.418
  20594242.454          51.250          47.750
 112118058.578 8  87364737.245 7  21335349.043    21335350.906    21335349.351
  21335350.823          49.000          46.500
 130603512.990 5 101768989.705 5  24853021.319    24853023.898    24853021.788
  24853023.047          34.000          32.750
 119797103.318 7  93348412.215 6  22796624.977    22796624.983    22796625.267
  22796625.340          46.000          39.500
 113427089.350 7  88384740.62046  21584451.558    21584451.492    21584452.734
                        47.500          37.500
 104925631.458 7  81760248.02847  19966674.824    19966674.409    19966676.000
                        47.500          42.250
 119897276.642 7  93426469.110 6  22815684.101    22815685.756    22815684.239
  22815686.993          44.250          40.000
 134114384.505 5 104504715.87341  25521120.847    25521122.870    25521121.361
                        32.750           8.250
 19  9 29 21  9 30.0000000  0  8G24G10G27G15G21G20G32G04
 108239201.829 8  84342266.127 7  20597226.719    20597228.863    20597227.094
  20597229.226          51.500          47.750
 112056207.815 8  87316541.857 7  21323579.292    21323580.974    21323579.596
  21323580.801          49.750          46.750
 130655136.376 5 101809215.744 5  24862844.271    24862847.548    24862844.861
  24862848.003          35.500          33.000
 119884222.104 7  93416296.967 6  22813203.273    22813202.763    22813203.559
  22813203.389          46.000          39.250
 113481819.342 8  88427387.35046  21594866.027    21594866.156    21594867.203
                        48.000          37.500
 104909969.203 7  81748043.67947  19963694.398    19963694.127    19963695.574
                        47.500          42.250
 119824859.860 7  93370040.482 6  22801904.131    22801905.821    22801904.256
  22801906.260          44.000          41.000
 134184446.400 5 104559309.46341  25534453.473    25534455.501    25534454.058
                        34.000          10.500
 19  9 29 21 10  0.0000000  0  8G24G10G27G15G21G20G32G04
 108255514.855 8  84354977.589 8  20600330.946    20600333.077    20600331.326
  20600333.244          51.500          48.000
 111994558.989 8  87268503.820 7  21311847.817    21311849.757    21311848.125
  21311849.513          49.750          46.750
 130707111.227 5 101849715.576 5  24872735.143    24872738.061    24872735.706
  24872737.153          34.500          30.750
 119971423.151 7  93484245.814 6  22829797.323    22829796.825    22829797.591
  22829797.127          46.750          39.000
 113536970.383 8  88470362.17846  21605361.009    21605361.090    21605362.189
                        48.000          37.250
 104894705.602 7  81736149.96747  19960790.006    19960789.490    19960791.186
                        47.750          42.250
 119752646.465 7  93313770.353 6  22788161.639    22788164.073    22788161.764
  22788164.125          43.750          41.250
 134254665.500 5 104614025.57342  25547814.121    25547817.742    25547814.738
                        35.000          12.000
 19  9 29 21 10 30.0000000  0  8G24G10G27G15G21G20G32G04
 108272444.702 8  84368169.682 8  20603552.676    20603554.702    20603553.056
  20603555.166          51.750          48.000
 111933113.708 8  87220624.398 7  21300155.180    21300156.871    21300155.488
  21300156.867          49.750          46.750
 130759434.867 5 101890487.241 5  24882691.871    24882694.956    24882692.407
  24882696.423          34.000          33.000
 120058705.141 7  93552257.753 6  22846406.117    22846406.036    22846406.416
  22846406.493          46.500          39.500
 113592541.163 8  88513664.06846  21615935.993    21615936.044    21615937.182
                        48.000          37.500
 104879842.064 7  81724567.99247  19957961.179    19957960.988    19957962.355
                        47.750          42.250
 119680636.693 7  93257658.903 6  22774458.999    22774460.849    22774459.128
  22774461.201          44.250          40.750
 134325038.582 5 104668861.71541  25561207.130    25561209.044    25561207.782
                        33.250           8.750
 19  9 29 21 11  0.0000000  0  8G24G10G27G15G21G20G32G04
 108289990.104 8  84381841.436 8  20606891.384    20606893.663    20606891.768
  20606893.837          51.250          48.250
 111871873.593 8  87172904.839 7  21288501.527    21288503.278    21288501.835
  21288503.429          49.500          46.750
 130812104.587 5 101931528.488 5  24892715.222    24892717.781    24892715.843
  24892717.665          33.000          32.000
 120146066.800 7  93620331.765 6  22863030.472    22863030.380    22863030.771
  22863030.753          45.500          39.000
 113648529.944 8  88557291.68146  21626590.322    21626590.087    21626591.511
                        48.000          37.250
 104865379.353 7  81713298.35047  19955209.196    19955208.816    19955210.376
                        47.250          42.250
 119608830.809 7  93201706.283 6  22760794.563    22760796.406    22760794.661
  22760797.197          43.500          41.250
 134395562.954 5 104723815.74341  25574626.797    25574629.591    25574627.512
                        34.250          10.000
 19  9 29 21 11 30.0000000  0  8G24G10G27G15G21G20G32G04
 108308150.822 8  84395992.657 7  20610347.367    20610349.409    20610347.751
  20610349.639          51.500          47.750
 111810840.246 8  87125346.407 7  21276887.137    21276888.949    21276887.454
  21276889.008          50.000          46.500
 130865117.680 5 101972837.392 5  24902802.819    24902805.971    24902803.445
  24902805.713          34.500          33.500
 120233506.877 7  93688466.852 6  22879669.829    22879670.016    22879670.137
  22879669.998          45.750          39.250
 113704935.004 8  88601243.66646  21637323.733    21637323.636    21637324.917
                        48.250          37.500
 104851319.221 7  81702342.41147  19952533.478    19952533.198    19952534.654
                        47.750          42.500
 119537229.029 7  93145912.750 6  22747169.302    22747171.296    22747169.409
  22747171.387          43.750          40.750
 134466235.789 5 104778885.47741  25588076.386    25588078.134    25588077.150
                        32.500           7.000
 19  9 29 21 12  0.0000000  0  8G24G10G27G15G21G20G32G04
 108326925.339 8  84410622.166 8  20613920.025    20613922.052    20613920.409
  20613922.263          51.000          48.000
 111750015.314 8  87077950.370 7  21265312.719    21265314.373    21265313.040
  21265314.320          49.750          46.750
 130918471.556 5 102014411.876 5  24912956.561    24912959.036    24912957.204
  24912960.040          32.000          32.500
 120321024.301 7  93756662.245 6  22896324.141    22896323.859    22896324.449
  22896323.641          46.000          39.500
 113761754.609 7  88645518.66846  21648136.163    21648136.055    21648137.352
                        47.750          37.000
 104837662.702 7  81691700.97147  19949934.676    19949934.497    19949935.856
                        47.250          42.250
 119465831.607 7  93090278.424 6  22733582.456    22733584.540    22733582.572
  22733585.615          43.750          41.000
 134537053.672 4 104834068.14441  25601551.516    25601554.335    25601552.231
                        28.750           7.000
 19  9 29 21 12 30.0000000  0  8G24G10G27G15G21G20G32G04
 108346312.651 8  84425729.176 7  20617609.166    20617611.324    20617609.550
  20617611.596          51.750          47.750
 111689400.397 8  87030717.982 7  21253777.874    21253779.742    21253778.200
  21253779.843          49.500          46.750
 130972163.527 5 102056249.756 5  24923174.142    24923176.341    24923174.808
  24923177.654          33.250          34.500
 120408617.832 7  93824916.936 6  22912992.660    22912992.243    22912992.968
  22912992.381          46.000          38.500
 113818987.115 7  88690115.41746  21659027.030    21659027.166    21659028.219
                        47.750          37.000
 104824411.105 7  81681375.05747  19947413.226    19947412.833    19947414.402
                        47.500          42.250
 119394638.801 7  93034803.565 6  22720034.760    22720036.811    22720034.862
  22720037.757          44.500          40.500
 134608014.057 4 104889361.8674   25615054.674    25615057.584    25615055.787
                        29.500           4.250
 19  9 29 21 13  0.0000000  0  8G24G10G27G15G21G20G32G04
 108366311.485 8  84441312.689 7  20621415.071    20621416.872    20621415.460
  20621417.477          51.250          47.750
 111628997.163 8  86983650.542 7  21242283.459    21242285.289    21242283.785
  21242285.206          50.000          46.750
 131026190.918 5 102098348.956 5  24933455.547    24933457.258    24933456.155
  24933456.828          32.500          32.000
 120496286.321 7  93893230.021 6  22929675.059    22929674.982    22929675.372
  22929675.024          46.000          38.750
 113876631.119 7  88735032.80846  21669996.460    21669996.476    21669997.658
                        47.500          37.000
 104811565.449 7  81671365.46247  19944968.575    19944968.349    19944969.751
                        47.250          42.500
 119323650.820 7  92979488.285 6  22706526.547    22706528.482    22706526.654
  22706528.779          44.250          40.750
 134679113.845 4 104944764.2344   25628583.460    25628587.583    25628585.118
                        27.500           5.000
 19  9 29 21 13 30.0000000  0  8G24G10G27G15G21G20G32G04
 108386921.540 8  84457372.488 7  20625336.752    20625338.928    20625337.145
  20625339.135          51.500          47.750
 111568807.213 8  86936749.307 7  21230830.110    21230831.608    21230830.445
  21230831.472          50.250          47.000
 131080551.013 5 102140707.442 5  24943798.684    24943801.624    24943799.292
  24943801.997          33.000          34.500
 120584028.636 7  93961600.633 6  22946372.022    22946371.457    22946372.330
  22946372.246          46.000          38.500
 113934684.638 8  88780269.31046  21681043.524    21681043.705    21681044.717
                        48.250          36.750
 104799126.858 7  81661673.05847  19942601.656    19942601.327    19942602.832
                        47.500          42.250
 119252867.856 7  92924332.781 6  22693056.674    22693058.613    22693056.785
  22693059.560          44.000          40.750
 134750350.368 5                                                  25642141.507
                        30.000
 19  9 29 21 14  0.0000000  0  8G24G10G27G15G21G20G32G04
 108408141.078 8  84473907.199 7  20629374.946    20629376.919    20629375.339
  20629377.108          51.250          47.750
 111508832.200 8  86890015.548 7  21219416.920    21219418.663    21219417.259
  21219418.659          49.750          46.750
 131135241.071 5 102183323.034 5  24954204.893    24954208.753    24954205.666
  24954210.557          30.500          34.000
 120671843.736 7  94030027.993 6  22963082.852    22963082.058    22963083.173
  22963083.280          45.500          38.500
 113993146.099 7  88825823.68546  21692168.403    21692168.606    21692169.601
                        47.750          36.750
 104787096.909 7  81652299.07747  19940312.531    19940312.205    19940313.707
                        47.250          42.000
 119182290.156 7  92869337.207 6  22679626.179    22679628.346    22679626.272
  22679629.016          44.250          41.250
 134821720.286 4                                                  25655723.921
                        29.000
 19  9 29 21 14 30.0000000  0  8G24G10G27G15G21G20G32G04
 108429969.683 8  84490916.514 7  20633528.623    20633530.650    20633529.016
  20633530.935          51.500          47.750
 111449073.797 8  86843450.572 7  21208045.057    21208047.045    21208045.392
  21208047.211          50.250          46.750
 131190258.329 5 102226193.627 5  24964672.977    24964678.132    24964673.831
  24964678.151          32.750          34.250
 120759730.253 7  94098510.980 6  22979806.939    22979806.714    22979807.256
  22979807.260          45.750          38.750
 114052013.721 7  88871694.55046  21703370.815    21703370.691    21703371.999
                        47.750          36.500
 104775476.836 7  81643244.48147  19938101.286    19938100.805    19938102.457
                        47.750          42.250
 119111917.946 7  92814501.749 6  22666234.969    22666236.900    22666235.071
  22666237.229          44.750          41.000
 134893220.939 5                                                  25669328.050
                        32.000
                            4  1
RINEX FILE SPLICE; other post-header comments skipped       COMMENT
 19  9 29 21 15  0.0000000  0  8G24G10G27G15G21G20G32G04
 108452405.530 8  84508399.000 8  20637798.106    20637800.083    20637798.499
  20637800.352          51.250          48.250
 111389533.655 8  86797055.672 7  21196715.052    21196716.938    21196715.387
  21196716.956          50.250          47.000
 131245600.222 5 102269317.113 5  24975205.514    24975209.214    24975206.417
  24975210.016          31.750          34.750
 120847687.308 7  94167048.920 6  22996544.716    22996545.025    22996545.024
  22996544.374          45.500          39.500
 114111285.961 7  88917880.69946  21714649.771    21714649.818    21714650.955
                        47.500          36.500
 104764267.547 7  81634509.97647  19935968.166    19935967.872    19935969.346
                        47.500          42.250
 119041751.406 7  92759826.571 6  22652882.276    22652884.904    22652882.401
  22652885.123          44.250          41.250
 134964848.935 5                                                  25682959.443
                        31.500
 19  9 29 21 15 30.0000000  0  8G24G10G27G15G21G20G32G04
 108475447.901 8  84526354.102 8  20642182.930    20642184.867    20642183.323
  20642185.227          51.000          48.000
 111330213.416 8  86750832.131 7  21185426.852    21185428.586    21185427.182
  21185428.666          50.000          46.750
 131301263.809 4 102312691.347 5  24985798.919    24985801.791    24985799.741
  24985802.960          28.250          35.250
 120935713.474 7  94235640.715 6  23013295.438    23013295.518    23013295.742
  23013296.105          46.000          39.000
 114170960.881 7  88964380.62146  21726005.579    21726005.709    21726006.768
                        47.250          36.250
 104753470.560 7  81626096.74047  19933913.535    19933913.188    19933914.715
                        47.250          42.250
 118971790.772 7  92705311.826 6  22639569.753    22639571.296    22639569.887
  22639571.559          44.250          41.250
                                                                  25696614.037
                        24.750
 19  9 29 21 16  0.0000000  0  8G24G10G27G15G21G20G32G04
 108499095.549 8  84544780.854 7  20646682.633    20646684.858    20646683.026
  20646685.290          51.750          47.750
 111271114.760 8  86704781.240 7  21174180.930    21174182.536    21174181.274
  21174182.560          50.250          47.000
 131357246.527 5 102356314.199 5  24996450.682    24996455.069    24996451.607
  24996455.613          33.250          35.250
 121023807.819 7  94304285.662 6  23030059.457    23030058.897    23030059.765
  23030059.802          45.500          38.000
 114231036.754 8  89011192.97746  21737437.440    21737437.609    21737438.633
                        48.000          36.500
 104743086.741 7  81618005.46347  19931937.708    19931937.277    19931938.888
                        47.750          42.500
 118902036.207 7  92650957.660 6  22626295.973    22626297.571    22626296.102
  22626298.385          44.250          41.250
                                                                  25710290.678
                        26.750
 19  9 29 21 16 30.0000000  0  8G24G10G27G15G21G20G32G04
 108523347.346 8  84563678.372 7  20651297.847    20651299.792    20651298.244
  20651300.361          51.750          47.750
 111212239.355 8  86658904.312 7  21162976.987    21162978.899    21162977.326
  21162978.821          50.500          47.250
 131413545.462 5 102400183.462 5  25007165.375    25007168.540    25007166.264
  25007169.439          32.250          35.000
 121111969.635 7  94372983.156 6  23046835.723    23046835.343    23046836.031
  23046836.196          45.500          38.250
 114291511.887 8  89058316.44546  21748945.563    21748945.459    21748946.761
                        48.000          36.250
 104733117.383 7  81610237.14047  19930040.400    19930040.182    19930041.580
                        47.750          42.000
 118832487.944 7  92596764.242 6  22613061.217    22613063.102    22613061.342
  22613063.988          44.000          41.500
                                                                  25723991.815
                        23.250
 19  9 29 21 17  0.0000000  0  8G24G10G27G15G21G20G32G04
 108548201.628 8  84583045.352 7  20656027.337    20656029.463    20656027.730
  20656029.656          51.000          47.750
 111153588.867 8  86613202.651 7  21151816.204    21151818.114    21151816.548
  21151818.134          50.000          46.750
 131470157.955 5 102444297.036 5  25017937.924    25017941.650    25017938.818
  25017943.338          31.000          34.250
 121200196.951 7  94441731.699 6  23063625.034    23063624.618    23063625.333
  23063625.388          45.750          38.000
 114352384.423 7  89105749.57846  21760529.247    21760529.421    21760530.440
                        47.250          36.250
 104723563.912 7  81602792.88047  19928222.491    19928222.114    19928223.671
                        47.250          42.250
 118763146.175 7  92542731.734 6  22599865.653    22599867.513    22599865.773
  22599868.009          44.000          41.250
                                                                  25737712.219
                        21.250
 19  9 29 21 17 30.0000000  0  8G24G10G27G15G21G20G32G04
 108573657.567 8  84602881.156 7  20660871.404    20660873.469    20660871.797
  20660873.868          51.250          47.750
 111095164.999 8  86567677.567 7  21140698.571    21140700.323    21140698.910
  21140700.276          50.500          47.000
 131527081.253 5 102488652.841 5  25028771.393    25028773.677    25028772.256
  25028774.380          35.000          34.250
 121288489.285 7  94510530.911 6  23080426.633    23080426.668    23080426.923
  23080426.325          46.000          38.750
 114413652.372 7  89153490.81845  21772188.424    21772188.269    21772189.617
                        47.500          35.750
 104714426.984 7  81595673.20347  19926483.677    19926483.489    19926484.857
                        47.500          42.250
 118694011.078 7  92488860.274 6  22586709.319    22586711.642    22586709.448
  22586712.410          45.000          41.500
                                                                  25751455.528
                        23.000
 19  9 29 21 18  0.0000000  0  7G24G10G27G15G21G20G32
 108599713.940 8  84623184.837 8  20665829.784    20665831.836    20665830.177
  20665832.076          51.750          48.000
 111036969.428 8  86522330.380 7  21129624.509    21129625.974    21129624.853
  21129626.135          50.250          47.250
 131584312.543 5 102533248.635 6  25039661.507    25039664.783    25039662.316
  25039665.922          33.250          36.500
 121376845.482 7  94579379.886 6  23097240.216    23097240.005    23097240.497
  23097240.551          45.250          38.250
 114475314.346 7  89201539.09245  21783922.227    21783922.277    21783923.420
                        47.250          35.750
 104705707.856 7  81588879.08147  19924824.518    19924824.379    19924825.698
                        47.250          42.250
 118625082.861 7  92435149.990 6  22573593.452    22573594.808    22573593.572
  22573595.637          45.000          41.500
 19  9 29 21 18 30.0000000  0  7G24G10G27G15G21G20G32
 108626369.460 8  84643955.377 7  20670902.181    20670904.266    20670902.578
  20670904.593          51.250          47.750
 110979003.821 8  86477162.387 7  21118593.801    21118595.689    21118594.140
  21118595.598          50.000          47.250
 131641849.000 5 102578082.195 5  25050610.831    25050613.564    25050611.743
  25050613.420          35.250          35.250
 121465264.283 7  94648277.615 6  23114065.570    23114065.567    23114065.860
  23114066.148          44.500          38.000
 114537368.009 7  89249892.57846  21795730.574    21795730.718    21795731.767
                        47.250          36.000
 104697408.092 7  81582411.74147  19923245.270    19923244.796    19923246.454
                        47.000          42.250
 118556361.651 7  92381601.035 6  22560515.789    22560517.865    22560515.914
  22560518.146          44.500          41.250
 19  9 29 21 19  0.0000000  0  7G24G10G27G15G21G20G32
 108653622.850 8  84665191.791 8  20676088.350    20676090.436    20676088.747
  20676090.742          51.250          48.000
 110921269.905 8  86432174.931 7  21107607.477    21107609.122    21107607.816
  21107609.119          50.500          47.250
 131699687.836 5 102623151.399 6  25061615.074    25061620.110    25061615.954
  25061620.228          33.250          36.000
 121553744.671 7  94717223.368 6  23130902.750    23130902.648    23130903.040
  23130902.517          44.750          38.000
 114599811.698 7  89298549.98245  21807613.295    21807613.210    21807614.488
                        47.500          35.750
 104689528.575 7  81576271.86147  19921745.805    19921745.470    19921746.989
                        47.750          42.250
 118487847.654 7  92328213.549 7  22547478.076    22547479.915    22547478.192
  22547480.583          44.500          42.000
 19  9 29 21 19 30.0000000  0  8G24G10G27G15G21G20G32G04
 108681472.558 8  84686892.875 7  20681387.805    20681389.908    20681388.207
  20681390.352          51.500          47.250
 110863769.115 8  86387369.139 7  21096665.236    21096667.030    21096665.575
  21096667.074          50.750          47.000
 131757826.234 5 102668454.048 5  25072680.399    25072683.065    25072681.230
  25072684.346          35.500          34.000
 121642285.769 7  94786216.401 6  23147751.674    23147751.659    23147751.973
  23147751.910          45.250          38.500
 114662643.715 7  89347509.98145  21819569.695    21819569.725    21819570.893
                        47.500          35.500
 104682070.400 7  81570460.30147  19920326.641    19920326.101    19920327.825
                        47.750          42.250
 118419541.061 7  92274987.654 6  22534479.558    22534481.602    22534479.687
  22534481.933          44.500          41.500
                                                                  25806635.829
                        25.500
 19  9 29 21 20  0.0000000  0  8G24G10G27G15G21G20G32G04
 108709917.247 8  84709057.572 7  20686800.757    20686802.821    20686801.154
  20686802.965          50.750          47.750
 110806503.656 8  86342746.710 7  21085768.331    21085769.910    21085768.670
  21085769.833          50.250          47.250
 131816261.516 5 102713987.938 5  25083798.732    25083803.181    25083799.474
  25083802.934          34.000          35.500
 121730886.426 7  94855255.848 6  23164612.115    23164611.952    23164612.423
  23164612.050          45.250          38.000
 114725862.146 7  89396771.07545  21831599.542    21831599.852    21831600.758
                        47.000          35.500
 104675034.715 7  81564977.95247  19918987.728    19918987.253    19918988.917
                        47.000          42.250
 118351442.038 7  92221923.514 6  22521520.982    22521522.911    22521521.107
  22521523.237          44.500          41.500
                                                                  25820476.502
                        24.750
 19  9 29 21 20 30.0000000  0  9G24G10G12G27G15G21G20G32G04
 108738955.758 8  84731684.985 7  20692326.602    20692328.790    20692327.004
  20692328.998          51.250          47.500
 110749475.007 8  86298308.815 7  21074915.979    21074917.595    21074916.323
  21074917.580          50.000          47.250
                                                                  24787745.457
                        32.000
 131874990.682 5 102759750.899 5  25094975.621    25094978.428    25094976.278
  25094979.920          34.250          35.500
 121819545.522 7  94924340.843 6  23181482.950    23181482.946    23181483.240
  23181483.349          45.500          38.250
 114789464.949 7  89446331.68545  21843703.068    21843703.126    21843704.279
                        46.750          35.250
 104668422.357 7  81559825.47047  19917729.579    19917729.010    19917730.768
                        47.250          42.250
 118283550.715 7  92169021.209 6  22508601.395    22508603.486    22508601.524
  22508604.184          44.500          41.750
                                                                  25834331.664
                        19.250
 19  9 29 21 21  0.0000000  0  9G24G10G12G27G15G21G20G32G04
 108768586.387 8  84754773.796 7  20697965.062    20697967.094    20697965.459
  20697967.581          51.500          47.250
 110692684.842 8  86254056.749 7  21064108.984    21064110.819    21064109.328
  21064110.942          50.500          47.250
                                                                  24771448.235
                        34.000
 131934010.993 5 102805740.786 6  25106206.802    25106209.874    25106207.459
  25106210.387          35.500          36.750
 121908262.235 7  94993470.729 6  23198365.299    23198365.069    23198365.585
  23198365.965          45.250          37.750
 114853450.171 7  89496190.28145  21855879.129    21855879.225    21855880.340
                        47.250          35.250
 104662234.793 7  81555003.99447  19916552.065    19916551.676    19916553.258
                        47.500          42.250
 118215867.282 7  92116280.912 7  22495721.820    22495723.567    22495721.940
  22495724.109          45.250          42.000
                                                                  25848216.906
                        22.250
 19  9 29 21 21 30.0000000  0  9G24G10G12G27G15G21G20G32G04
 108798807.750 8  84778322.909 8  20703716.034    20703718.236    20703716.440
  20703718.526          51.000          48.000
 110636134.925 8  86209991.879 7  21053347.846    21053349.730    21053348.190
  21053349.820          50.250          47.500
 130089251.315 5                                                  24755161.022
                        32.750
 131993319.682 6 102851955.291 6  25117493.078    25117496.343    25117493.699
  25117497.076          36.000          36.000
 121997035.010 7  95062644.284 6  23215258.356    23215258.131    23215258.646
  23215258.567          44.750          38.000
 114917815.942 7  89546345.41245  21868127.439    21868127.670    21868128.641
                        47.000          35.250
 104656473.342 7  81550514.55647  19915455.556    19915455.172    19915456.745
                        47.250          42.250
 118148391.885 7  92063702.708 6  22482881.739    22482883.603    22482881.868
  22482883.889          44.750          41.500
                                                                  25862115.263
                        25.000
 19  9 29 21 22  0.0000000  0  9G14G24G10G12G27G15G21G20G32
 128729165.608 5                                                  24496344.302
                        32.750
 108829618.480 8  84802331.272 7  20709579.145    20709581.208    20709579.556
  20709581.624          51.000          47.500
 110579826.947 8  86166115.555 7  21042633.065    21042634.680    21042633.409
  21042634.856          50.500          47.250
 130003734.637 5                                                  24738889.094
                        33.750
 132052913.826 5 102898392.284 5  25128832.046    25128836.249    25128832.672
  25128837.839          34.250          35.250
 122085863.361 7  95131861.164 6  23232162.134    23232161.968    23232162.424
  23232162.788          44.250          38.250
 114982560.388 7  89596795.61345  21880447.996    21880448.054    21880449.198
                        46.750          35.250
 104651138.339 7  81546357.41047  19914440.251    19914440.002    19914441.444
                        47.250          42.500
 118081124.709 7  92011286.766 7  22470081.127    22470082.935    22470081.256
  22470083.646          44.750          42.000
 19  9 29 21 22 30.0000000  0  9G14G24G10G12G27G15G21G20G32
 128649585.862 5 100246415.08041  24481201.000    24481201.694    24481201.469
                        33.000           7.500
 108861016.989 8  84826797.648 7  20715554.063    20715556.083    20715554.474
  20715556.324          51.000          47.750
 110523762.660 8  86122429.104 7  21031964.017    21031965.984    21031964.361
  21031965.848          50.500          47.250
 129918290.776 5                                                  24722629.008
                        30.500
 132112790.566 5 102945049.462 6  25140228.047    25140230.685    25140228.753
  25140231.205          35.250          36.500
 122174746.210 7  95201120.506 6  23249075.629    23249076.288    23249075.924
  23249076.102          44.250          38.250
 115047682.106 7  89647539.79345  21892840.397    21892840.302    21892841.595
                        46.750          35.250
 104646231.401 7  81542533.81847  19913506.701    19913506.282    19913507.894
                        47.250          42.250
 118014065.863 7  91959033.155 7  22457320.451    22457322.163    22457320.576
  22457322.730          44.250          42.000
 19  9 29 21 23  0.0000000  0  9G14G24G10G12G27G15G21G20G32
 128570144.252 5 100184512.62941  24466083.929    24466083.984    24466084.188
                        32.500           7.750
 108893002.245 8  84851721.236 7  20721640.597    20721642.646    20721641.003
  20721643.230          51.000          47.500
 110467943.770 8  86078933.878 7  21021342.503    21021343.948    21021342.842
  21021344.010          50.500          47.500
 129832923.229 5                                                  24706383.188
                        32.250
 132172947.093 5 102991924.653 6  25151674.595    25151678.142    25151675.310
  25151678.909          33.250          36.000
 122263682.311 7  95270421.350 6  23265999.688    23266000.145    23265999.969
  23266000.128          44.750          38.000
 115113178.564 7  89698575.97345  21905303.790    21905303.837    21905304.974
                        47.000          35.000
 104641753.426 7  81539044.49047  19912654.438    19912653.929    19912655.627
                        47.250          42.250
 117947215.523 7  91906942.016 7  22444599.128    22444600.768    22444599.248
  22444601.541          44.500          42.250
 19  9 29 21 23 30.0000000  0 10G14G24G10G12G27G15G21G20G32G04
 128490840.871 5 100122717.76441  24450993.112    24450993.255    24450993.420
                        32.500           6.000
 108925572.350 8  84877100.534 7  20727838.552    20727840.597    20727838.963
  20727841.017          51.000          47.750
 110412372.024 8  86035631.223 7  21010767.400    21010769.004    21010767.739
  21010769.197          51.000          47.500
 129747634.973 5                                                  24690153.851
                        33.750
 132233380.559 5 103039015.637 6  25163174.832    25163178.556    25163175.534
  25163179.042          35.500          37.250
 122352670.804 7  95339763.012 6  23282933.733    23282933.442    23282934.028
  23282934.320          44.500          37.000
 115179047.821 7  89749902.65345  21917838.395    21917838.345    21917839.571
                        47.000          34.750
 104637705.438 7  81535890.21047  19911884.138    19911883.853    19911885.327
                        47.500          42.250
 117880573.809 7  91855013.433 7  22431917.809    22431919.201    22431917.911
  22431919.799          45.750          42.000
                                                                  25917847.899
                        18.750
 19  9 29 21 24  0.0000000  0  9G14G24G10G12G27G15G21G20G32
 128411676.301 5 100061031.22641  24435928.032    24435928.501    24435928.479
                        31.250           6.000
 108958726.258 8  84902934.762 7  20734147.542    20734149.761    20734147.953
  20734149.880          51.500          47.500
 110357049.172 8  85992522.526 7  21000239.786    21000241.512    21000240.125
  21000241.243          50.750          47.250
 129662429.313 5                                                  24673938.733
                        35.750
 132294088.063 5 103086320.152 6  25174727.108    25174730.944    25174727.742
  25174731.539          34.750          36.500
 122441710.799 7  95409144.809 6  23299877.465    23299877.367    23299877.764
  23299878.198          44.750          38.000
 115245287.740 7  89801518.16445  21930443.387    21930443.590    21930444.571
                        46.750          34.750
 104634088.498 7  81533071.81647  19911196.091    19911195.576    19911197.275
                        47.500          42.250
 117814140.863 7  91803247.534 6  22419275.540    22419277.714    22419275.674
  22419277.766          45.750          41.750
 19  9 29 21 24 30.0000000  0  9G14G24G10G12G27G15G21G20G32
 128332650.687 5  99999452.88241  24420890.575    24420890.345    24420891.102
                        32.500           7.500
 108992462.081 8  84929222.413 7  20740567.199    20740569.218    20740567.610
  20740569.619          51.250          47.500
 110301976.924 8  85949609.090 7  20989759.706    20989761.549    20989760.041
  20989761.494          51.000          47.500
 129577309.627 5                                                  24657740.888
                        35.500
 132355066.808 6 103133836.027 6  25186331.708    25186334.567    25186332.302
  25186335.242          36.500          36.000
 122530801.391 7  95478566.029 6  23316830.867    23316830.469    23316831.157
  23316831.179          44.500          37.500
 115311896.372 7  89853420.98245  21943118.678    21943118.842    21943119.849
                        47.000          35.000
 104630903.780 7  81530590.22147  19910589.793    19910589.412    19910590.982
                        47.500          42.250
 117747916.824 7  91751644.421 7  22406673.795    22406675.336    22406673.955
  22406675.755          45.500          42.000
 19  9 29 21 25  0.0000000  0  9G14G24G10G12G27G15G21G20G32
 128253764.313 5  99937983.05041  24405878.306    24405878.903    24405878.681
                        34.750          10.250
 109026777.666 8  84955961.842 7  20747097.261    20747099.236    20747097.667
  20747099.669          51.250          47.500
 110247157.055 8  85906892.321 7  20979327.877    20979329.656    20979328.216
  20979329.594          51.000          47.750
 129492279.078 5 100903085.93841  24641559.790    24641563.156    24641559.321
                        33.250           7.500
 132416313.865 5 103181560.936 6  25197986.000    25197989.641    25197986.545
  25197989.978          35.250          36.750
 122619941.182 7  95548025.590 6  23333793.400    23333793.091    23333793.677
  23333794.282          44.750          36.750
 115378871.811 7  89905609.61645  21955863.517    21955863.816    21955864.693
                        46.500          34.750
 104628152.130 7  81528446.07947  19910066.345    19910065.875    19910067.534
                        47.750          42.500
 117681901.821 7  91700204.192 7  22394111.430    22394113.162    22394111.577
  22394113.445          45.750          42.000
 19  9 29 21 25 30.0000000  0  9G14G24G10G12G27G15G21G20G32
 128175017.574 5  99876622.01641  24390892.264    24390893.789    24390892.639
                        33.000           7.500
 109061671.876 8  84983152.139 7  20753737.456    20753739.452    20753737.858
  20753739.865          51.000          47.500
 110192591.278 8  85864373.545 7  20968944.613    20968946.204    20968944.943
  20968946.068          51.000          47.500
 129407340.816 5 100836900.40141  24625396.483    24625397.927    24625396.247
                        33.000           6.500
 132477826.256 6 103229492.659 6  25209692.335    25209695.254    25209692.907
  25209695.906          38.250          37.000
 122709129.474 7  95617522.948 6  23350765.734    23350765.501    23350766.029
  23350765.859          44.000          38.250
 115446212.249 7  89958082.67845  21968677.897    21968677.984    21968679.064
                        47.000          34.500
 104625834.652 7  81526640.25147  19909625.275    19909624.937    19909626.464
                        47.500          42.250
 117616095.997 7  91648926.965 7  22381589.033    22381590.844    22381589.176
  22381591.115          45.250          42.500
 19  9 29 21 26  0.0000000  0  9G14G24G10G12G27G15G21G20G32
 128096410.487 5  99815369.75741  24375935.225    24375935.380    24375935.506
                        33.500           8.250
 109097143.446 8  85010792.326 7  20760487.407    20760489.456    20760487.813
  20760489.855          50.750          47.500
 110138281.382 8  85822054.152 7  20958609.692    20958611.211    20958610.022
  20958611.227          50.750          47.500
 129322498.325 5 100770789.45041  24609252.117    24609252.575    24609252.233
                        34.500           7.500
 132539601.238 5 103277628.978 6  25221446.277    25221450.917    25221446.849
  25221450.882          34.500          37.250
 122798365.363 7  95687057.374 6  23367746.845    23367746.608    23367747.117
  23367747.449          42.750          37.750
 115513915.748 7  90010838.63945  21981561.488    21981561.636    21981562.672
                        46.500          34.500
 104623952.195 7  81525173.40547  19909266.926    19909266.630    19909268.115
                        47.250          42.500
 117550499.488 7  91597812.816 7  22369106.201    22369108.072    22369106.339
  22369108.599          45.500          42.250
 19  9 29 21 26 30.0000000  0  9G14G24G10G12G27G15G21G20G32
 128017943.561 5  99754226.76741  24361002.599    24361003.420    24361003.180
                        34.000           7.000
 109133190.364 8  85038880.842 7  20767347.014    20767349.202    20767347.420
  20767349.375          51.250          47.750
 110084229.125 8  85779935.519 7  20948323.859    20948325.442    20948324.194
  20948325.248          50.750          47.750
 129237754.922 6 100704755.69841  24593125.315    24593126.518    24593125.449
                        36.000           9.250
 132601635.894 6 103325967.624 6  25233252.058    25233255.491    25233252.581
  25233255.952          36.750          36.750
 122887647.701 7  95756628.006 6  23384736.398    23384736.342    23384736.670
  23384736.744          44.000          37.250
 115581980.108 7  90063875.78845  21994513.998    21994514.004    21994515.165
                        46.750          34.250
 104622505.839 7  81524046.37747  19908991.873    19908991.509    19908993.066
                        47.500          42.250
 117485112.368 7  91546861.842 7  22356663.350    22356665.157    22356663.484
  22356665.505          45.750          42.000
 19  9 29 21 27  0.0000000  0  9G14G24G10G12G27G15G21G20G32
 127939617.167 5  99693193.33741  24346096.039    24346098.125    24346096.705
                        35.250          10.000
 109169810.887 8  85067416.314 7  20774315.600    20774317.547    20774316.006
  20774318.016          51.000          47.000
 110030436.258 8  85738019.008 7  20938087.329    20938089.075    20938087.655
  20938089.037          50.750          47.500
 129153113.702 5 100638801.61641  24577018.028    24577020.051    24577018.323
                        34.000           9.500
 132663927.305 6 103374506.345 6  25245105.974    25245109.118    25245106.483
  25245109.632          36.250          36.000
 122976975.614 7  95826234.149 6  23401735.038    23401735.398    23401735.315
  23401735.785          43.750          37.250
 115650402.790 7  90117192.15245  22007534.375    22007534.475    22007535.542
                        46.500          34.000
 104621496.655 7  81523259.99747  19908799.708    19908799.400    19908800.906
                        47.500          42.000
 117419934.770 7  91496074.155 7  22344260.389    22344262.320    22344260.518
  22344262.969          45.500          42.000
 19  9 29 21 27 30.0000000  0  9G14G24G10G12G27G15G21G20G32
 127861431.279 5  99632269.33142  24331219.330    24331219.816    24331220.085
                        35.000          12.000
 109207004.007 8  85096397.973 7  20781392.989    20781395.128    20781393.395
  20781395.275          51.000          47.250
 109976904.538 8  85696305.989 7  20927900.657    20927902.205    20927900.983
  20927902.232          50.500          47.750
 129068578.105 5 100572929.84141  24560932.019    24560933.621    24560932.421
                        34.500          11.000
 132726472.544 6 103423242.864 6  25257008.042    25257011.370    25257008.551
  25257011.887          37.000          38.250
 123066348.398 7  95895875.259 6  23418742.262    23418742.351    23418742.548
  23418742.434          44.500          37.250
 115719182.257 7  90170786.53445  22020622.712    22020622.775    22020623.883
                        46.750          34.250
 104620925.539 7  81522814.97447  19908691.222    19908690.618    19908692.415
                        47.500          42.250
 117354966.825 7  91445449.808 7  22331897.350    22331899.276    22331897.470
  22331900.324          45.750          42.750
 19  9 29 21 28  0.0000000  0  9G14G24G10G12G27G15G21G20G32
 127783386.301 5  99571455.12241  24316366.803    24316368.641    24316367.509
                        33.000          10.750
 109244767.108 8  85125823.766 7  20788579.226    20788581.240    20788579.632
  20788581.588          50.750          47.500
 109923635.754 8  85654797.855 8  20917763.811    20917765.537    20917764.137
  20917765.498          50.750          48.000
 128984151.220 5 100507142.77041  24544865.920    24544867.502    24544866.072
                        33.250           9.000
 132789268.697 6 103472174.869 6  25268958.122    25268960.382    25268958.663
  25268961.353          36.000          36.500
 123155764.947 7  95965550.481 6  23435757.806    23435757.609    23435758.092
  23435757.817          43.500          37.500
 115788316.257 7  90224657.17545  22033778.192    22033778.378    22033779.359
                        46.000          34.000
 104620793.433 7  81522712.03547  19908665.712    19908665.591    19908666.901
                        47.000          42.500
 117290208.614 7  91394988.891 7  22319574.265    22319576.218    22319574.385
  22319576.399          45.750          42.750
 19  9 29 21 28 30.0000000  0  9G14G24G10G12G27G15G21G20G32
 127705482.307 6  99510750.80042  24301542.518    24301544.000    24301543.220
                        36.750          12.500
 109283099.177 8  85155692.914 7  20795873.543    20795875.722    20795873.949
  20795876.005          51.000          47.500
 109870631.669 8  85613495.980 7  20907677.379    20907679.198    20907677.696
  20907679.286          51.000          47.750
 128899836.480 5 100441443.05241  24528821.082    24528822.869    24528821.171
                        35.000           9.500
 132852312.831 6 103521300.118 6  25280953.850    25280957.450    25280954.391
  25280959.309          36.500          36.750
 123245224.194 7  96035258.946 6  23452781.124    23452781.281    23452781.396
  23452781.863          43.500          37.500
 115857802.664 7  90278802.41545  22047001.170    22047001.105    22047002.323
                        46.750          34.000
 104621101.246 7  81522951.89447  19908724.381    19908724.218    19908725.574
                        47.250          42.250
 117225660.298 7  91344691.530 7  22307291.432    22307293.109    22307291.548
  22307293.601          46.250          42.000
 19  9 29 21 29  0.0000000  0  9G14G24G10G12G27G15G21G20G32
 127627719.675 6  99450156.64542  24286745.168    24286746.172    24286745.856
                        36.750          15.000
 109321997.897 8  85186003.606 7  20803275.903    20803277.957    20803276.305
  20803277.952          50.750          47.000
 109817894.032 8  85572401.730 7  20897641.956    20897643.509    20897642.277
  20897643.586          50.750          47.500
 128815636.982 5 100375833.12041  24512797.794    24512800.173    24512798.022
                        33.250          11.250
 132915602.203 6 103570616.508 6  25292998.685    25293001.439    25292999.190
  25293002.306          38.250          37.500
 123334725.444 7  96105000.154 6  23469813.198    23469812.985    23469813.479
  23469812.453          43.500          37.250
 115927639.823 7  90333220.96645  22060290.770    22060290.848    22060291.937
                        46.000          33.500
 104621849.952 7  81523535.30247  19908867.007    19908866.555    19908868.200
                        47.250          42.250
 117161321.910 7  91294557.745 7  22295048.041    22295049.847    22295048.166
  22295050.652          46.000          42.500
 19  9 29 21 29 30.0000000  0  9G14G24G10G12G27G15G21G20G32
 127550098.745 6  99389672.86542  24271974.360    24271975.217    24271975.115
                        38.000          14.500
 109361462.428 8  85216755.191 7  20810785.670    20810787.546    20810786.076
  20810787.988          51.250          47.250
 109765424.631 8  85531516.501 7  20887657.203    20887658.881    20887657.524
  20887658.989          51.250          47.750
 128731556.462 5 100310302.982 5  24496797.922    24496800.081    24496798.176
  24496800.258          34.250          32.250
 132979133.745 5 103620121.567 6  25305087.512    25305091.079    25305088.021
  25305091.532          34.500          36.250
 123424267.683 7  96174773.297 6  23486852.091    23486851.423    23486852.354
  23486851.984          43.500          36.250
 115997824.917 7  90387910.63345  22073646.828    22073646.967    22073647.995
                        46.250          34.000
 104623040.835 7  81524463.26647  19909093.696    19909093.190    19909094.889
                        47.500          42.500
 117097193.612 7  91244587.680 7  22282844.902    22282846.579    22282845.031
  22282847.406          46.000          42.500
                            4  1
RINEX FILE SPLICE; other post-header comments skipped       COMMENT
 19  9 29 21 30  0.0000000  0  9G14G24G10G12G27G15G21G20G32
 127472619.499 6  99329299.49842  24257230.873    24257231.062    24257231.651
                        38.750          16.250
 109401490.090 8  85247945.576 7  20818402.553    20818404.745    20818402.959
  20818404.843          50.750          47.500
 109713225.270 8  85490841.688 7  20877723.991    20877725.690    20877724.312
  20877725.501          51.000          47.500
 128647597.821 5 100244880.75515  24480821.903    24480823.131    24480822.211
  24480823.012          32.750          32.000
 133042904.483 6 103669813.026 6  25317223.240    25317226.606    25317223.807
  25317226.707          38.000          37.000
 123513850.244 7  96244577.843 6  23503899.254    23503899.153    23503899.499
  23503899.356          43.500          37.750
 116068356.141 7  90442870.00845  22087068.300    22087068.516    22087069.462
                        46.250          33.500
 104624674.455 7  81525736.21547  19909404.555    19909404.102    19909405.753
                        47.250          42.000
 117033275.454 7  91194781.346 7  22270681.590    22270683.349    22270681.706
  22270683.808          46.250          43.000
 19  9 29 21 30 30.0000000  0  9G14G24G10G12G27G15G21G20G32
 127395282.416 6  99269036.90542  24242513.480    24242514.308    24242514.275
                        38.500          17.250
 109442079.088 8  85279573.366 7  20826126.756    20826128.472    20826127.162
  20826128.925          50.750          47.250
 109661297.715 8  85450378.675 7  20867842.550    20867844.191    20867842.871
  20867844.200          51.000          47.750
 128563764.457 5 100179556.192 5  24464867.066    24464870.116    24464867.544
  24464870.389          34.000          32.500
 133106911.452 5 103719688.559 5  25329402.401    25329406.600    25329402.991
  25329406.722          35.500          35.000
 123603471.918 7  96314412.914 6  23520953.656    23520954.092    23520953.901
  23520953.837          43.250          38.000
 116139231.385 7  90498097.45445  22100555.442    22100555.470    22100556.609
                        46.250          33.500
 104626751.706 7  81527354.85747  19909799.541    19909799.362    19909800.734
                        47.500          42.250
 116969567.566 7  91145138.870 7  22258558.286    22258560.052    22258558.411
  22258560.517          46.250          42.250
 19  9 29 21 31  0.0000000  0  9G14G24G10G12G27G15G21G20G32
 127318087.489 6  99208885.07042  24227822.672    24227824.831    24227823.481
                        37.750          16.250
 109483228.021 8  85311637.477 7  20833956.757    20833958.945    20833957.163
  20833959.292          51.250          47.500
 109609643.726 8  85410128.836 7  20858013.062    20858014.563    20858013.383
  20858014.894          51.000          47.750
 128480059.796 5 100114331.921 5  24448939.880    24448941.687    24448940.255
  24448941.901          35.500          33.750
 133171151.930 5 103769746.006 5  25341626.766    25341631.211    25341627.365
  25341631.068          35.000          33.250
 123693131.963 7  96384277.862 6  23538015.407    23538016.243    23538015.657
  23538015.266          43.250          37.750
 116210448.576 7  90553591.34645  22114107.455    22114107.818    22114108.608
                        46.500          33.250
 104629273.456 7  81529319.86147  19910279.343    19910279.310    19910280.532
                        47.500          42.000
 116906070.022 7  91095660.284 7  22246475.410    22246476.959    22246475.544
  22246477.470          46.750          42.250
 19  9 29 21 31 30.0000000  0  9G14G24G10G12G27G15G21G20G32
 127241035.125 6  99148844.35142  24213161.081    24213162.090    24213161.818
                        38.250          15.750
 109524935.276 8  85344136.636 7  20841893.657    20841895.547    20841894.059
  20841895.751          51.000          47.250
 109558265.128 8  85370093.575 8  20848236.092    20848237.629    20848236.413
  20848237.745          51.000          48.000
 128396486.991 6 100049210.386 5  24433036.637    24433038.402    24433037.057
  24433038.574          36.750          32.750
 133235622.805 5 103819983.048 5  25353896.200    25353899.559    25353896.776
  25353901.073          35.750          35.250
 123782829.464 7  96454171.988 6  23555084.152    23555084.010    23555084.397
  23555084.563          42.500          36.500
 116282005.717 7  90609350.13445  22127724.427    22127724.459    22127725.580
                        46.000          33.250
 104632240.744 7  81531632.03847  19910844.099    19910843.956    19910845.288
                        47.250          42.250
 116842782.913 7  91046345.681 7  22234432.152    22234433.913    22234432.281
  22234434.409          46.250          43.000
 19  9 29 21 32  0.0000000  0  9G14G24G10G12G27G15G21G20G32
 127164125.594 6  99088914.89142  24198525.368    24198526.358    24198526.132
                        37.500          16.500
 109567198.932 8  85377069.366 7  20849936.002    20849937.894    20849936.399
  20849938.245          50.500          47.250
 109507163.674 8  85330274.279 7  20838511.668    20838513.397    20838511.985
  20838513.135          50.500          47.500
 128313049.541 6  99984194.291 5  24417158.645    24417160.113    24417159.092
  24417160.791          37.250          30.000
 133300321.193 5 103870397.319 5  25366207.265    25366211.626    25366207.815
  25366211.846          33.250          35.500
 123872563.589 7  96524094.654 6  23572160.160    23572158.673    23572160.388
  23572160.428          43.250          36.000
 116353900.278 7  90665371.84645  22141405.315    22141405.402    22141406.468
                        45.250          33.000
 104635654.400 7  81534292.03747  19911493.865    19911493.401    19911495.054
                        47.000          42.250
 116779706.177 7  90997195.002 7  22222429.004    22222430.674    22222429.129
  22222430.901          46.000          42.750
 19  9 29 21 32 30.0000000  0  9G14G24G10G12G27G15G21G20G32
 127087358.862 6  99029096.73442  24183917.207    24183917.924    24183917.962
                        39.000          16.500
 109610016.541 8  85410433.736 7  20858083.790    20858086.121    20858084.183
  20858086.063          50.750          47.500
 109456341.177 8  85290672.341 8  20828840.488    20828842.038    20828840.805
  20828842.163          51.250          48.000
 128229750.650 6  99919286.126 5  24401307.440    24401308.685    24401307.905
  24401308.590          38.750          30.000
 133365244.260 5 103920986.680 5  25378561.994    25378565.825    25378562.539
  25378564.836          32.000          33.000
 123962333.432 7  96594045.157 6  23589241.962    23589242.480    23589242.185
  23589243.329          42.500          37.500
 116426130.168 7  90721654.85545  22155150.832    22155150.351    22155151.985
                        46.250          32.750
 104639515.231 7  81537300.47847  19912228.521    19912228.182    19912229.714
                        47.750          42.250
 116716840.179 7  90948208.544 7  22210465.981    22210467.586    22210466.106
  22210468.194          46.500          43.250
 19  9 29 21 33  0.0000000  0  9G14G24G10G12G27G15G21G20G32
 127010735.309 6  98969390.14843  24169336.504    24169336.871    24169337.295
                        39.750          18.500
 109653386.390 8  85444228.436 7  20866337.091    20866338.876    20866337.488
  20866339.397          50.500          47.000
 109405799.429 8  85251289.182 8  20819222.793    20819224.338    20819223.110
  20819224.470          51.000          48.250
 128146593.802 6  99854488.645 5  24385482.950    24385484.167    24385483.383
  24385483.395          39.000          30.750
 133430388.932 5 103971748.732 5  25390957.700    25390962.652    25390958.375
  25390962.205          35.000          34.250
 124052138.275 7  96664022.936 6  23606331.455    23606332.302    23606331.642
  23606332.791          42.250          37.750
 116498692.925 7  90778197.24245  22168958.815    22168958.838    22168959.982
                        45.500          32.750
 104643824.121 7  81540658.05947  19913048.594    19913048.117    19913049.783
                        47.000          42.000
 116654184.872 7  90899386.250 7  22198543.071    22198544.778    22198543.187
  22198545.004          46.000          43.000
 19  9 29 21 33 30.0000000  0  9G14G24G10G12G27G15G21G20G32
 126934254.947 6  98909795.09443  24154782.577    24154783.658    24154783.350
                        39.250          18.500
 109697306.928 8  85478452.231 7  20874694.803    20874696.665    20874695.200
  20874697.169          50.500          47.500
 109355540.233 8  85212126.177 7  20809658.703    20809660.400    20809659.024
  20809660.322          51.000          47.750
 128063582.224 6  99789804.407 5  24369686.693    24369688.142    24369687.108
  24369689.046          39.750          33.250
 133495752.243 5 104022681.080 5  25403397.217    25403400.891    25403397.901
  25403401.506          34.750          35.000
 124141977.469 7  96734027.482 6  23623428.084    23623427.784    23623428.280
  23623428.346          42.000          37.000
 116571586.952 7  90834997.75245  22182830.276    22182830.330    22182831.438
                        45.750          33.000
 104648581.867 7  81544365.39647  19913953.777    19913953.540    19913954.970
                        47.250          42.250
 116591740.308 7  90850728.195 7  22186660.266    22186661.906    22186660.373
  22186662.226          46.500          42.750
 19  9 29 21 34  0.0000000  0  9G14G24G10G12G27G15G21G20G32
 126857918.221 6  98850311.98942  24140255.451    24140256.631    24140256.229
                        37.750          17.250
 109741776.184 8  85513103.615 7  20883156.885    20883158.911    20883157.287
  20883159.288          50.750          47.000
 109305565.356 8  85173184.724 8  20800148.771    20800150.435    20800149.092
  20800150.546          51.250          48.000
 127980719.015 6  99725235.757 5  24353917.871    24353919.730    24353918.277
  24353919.579          39.500          32.750
 133561331.220 5 104073781.553 5  25415875.612    25415880.425    25415876.233
  25415880.753          35.250          33.750
 124231849.501 7  96804057.584 6  23640530.135    23640529.845    23640530.345
  23640530.105          42.750          37.250
 116644809.571 7  90892054.31445  22196763.805    22196764.027    22196764.963
                        46.000          32.750
 104653789.432 7  81548423.24347  19914944.655    19914944.385    19914945.844
                        47.250          42.250
 116529506.580 7  90802234.406 7  22174817.365    22174819.100    22174817.476
  22174819.669          46.500          43.000
 19  9 29 21 34 30.0000000  0  9G14G24G10G12G27G15G21G20G32
 126781725.310 6  98790940.97643  24125757.351    24125757.752    24125758.115
                        39.000          18.500
 109786791.965 8  85548180.852 7  20891723.360    20891725.109    20891723.757
  20891725.497          50.750          47.250
 109255876.622 8  85134466.242 8  20790693.437    20790695.002    20790693.758
  20790695.111          51.750          48.000
 127898007.577 6  99660785.389 5  24338178.598    24338179.896    24338178.991
  24338179.623          38.750          31.750
 133627122.977 5 104125047.837 4  25428396.893    25428400.172    25428397.532
  25428400.300          34.750          29.500
 124321753.958 7  96874112.994 6  23657637.667    23657637.960    23657637.886
  23657638.616          42.000          36.750
 116718358.979 7  90949365.51645  22210759.734    22210760.134    22210760.896
                        45.750          32.750
 104659447.510 7  81552832.13647  19916021.468    19916021.178    19916022.657
                        47.750          42.250
 116467483.757 7  90753904.952 7  22163014.709    22163016.409    22163014.843
  22163017.355          47.250          43.000
 19  9 29 21 35  0.0000000  0  9G14G24G10G12G27G15G21G20G32
 126705676.241 6  98731682.01042  24111284.941    24111286.026    24111285.741
                        37.500          17.750
 109832352.117 8  85583682.272 7  20900392.724    20900394.834    20900393.121
  20900395.196          50.250          47.250
 109206475.853 8  85095972.144 8  20781292.716    20781294.296    20781293.033
  20781294.318          51.000          48.000
 127815451.225 6  99596455.869 5  24322468.211    24322469.436    24322468.658
  24322470.282          38.000          32.500
 133693124.620 5 104176477.573 5  25440955.615    25440959.963    25440956.165
  25440959.931          33.750          34.750
 124411690.063 7  96944193.034 6  23674752.032    23674752.393    23674752.273
  23674752.627          42.000          37.250
 116792232.434 7  91006929.21645  22224817.628    22224817.739    22224818.786
                        44.750          32.500
 104665556.713 7  81557592.55347  19917184.021    19917183.653    19917185.214
                        46.750          42.250
 116405671.914 7  90705739.917 7  22151252.409    22151254.146    22151252.543
  22151254.496          46.250          43.000
 19  9 29 21 35 30.0000000  0  9G14G24G10G12G27G15G21G20G32
 126629771.385 6  98672535.43242  24096841.697    24096841.236    24096842.506
                        38.000          17.250
 109878455.699 8  85619607.145 7  20909166.293    20909168.086    20909166.686
  20909168.513          50.250          47.250
 109157364.803 8  85057703.801 8  20771947.226    20771948.846    20771947.547
  20771948.533          51.250          48.500
 127733053.403 6  99532249.825 5  24306788.503    24306789.821    24306788.945
  24306790.775          39.250          33.500
 133759332.984 5 104228068.463 5  25453554.645    25453559.184    25453555.244
  25453559.737          33.500          32.250
 124501656.796 6  97014296.975 6  23691872.603    23691873.136    23691872.853
  23691873.312          41.500          38.250
 116866428.138 7  91064744.03645  22238936.448    22238936.534    22238937.606
                        45.250          32.250
 104672118.403 7  81562705.55747  19918432.547    19918432.282    19918433.736
                        47.250          42.250
 116344071.093 7  90657739.307 7  22139530.216    22139531.894    22139530.341
  22139532.463          46.750          43.500
 19  9 29 21 36  0.0000000  0  9G14G24G10G12G27G15G21G20G32
 126554011.006 6  98613501.44243  24082424.314    24082424.640    24082425.123
                        39.000          18.250
 109925099.807 8  85655953.215 7  20918042.050    20918044.405    20918042.447
  20918044.657          51.000          47.500
 109108545.325 8  85019662.656 8  20762657.232    20762658.782    20762657.549
  20762658.767          51.750          48.250
 127650817.775 6  99468170.211 5  24291139.912    24291140.533    24291140.381
  24291141.994          39.750          34.000
 133825745.304 5 104279818.305 5  25466193.034    25466197.268    25466193.597
  25466196.112          32.500          30.750
 124591653.686 6  97084424.376 6  23708998.762    23708998.726    23708999.030
  23708998.941          41.000          36.750
 116940943.843 7  91122808.19845  22253116.244    22253116.698    22253117.411
                        45.500          32.500
 104679132.703 7  81568171.24747  19919767.579    19919767.084    19919768.763
                        47.500          42.250
 116282681.360 7  90609903.170 7  22127847.989    22127849.660    22127848.127
  22127850.247          47.000          43.000
 19  9 29 21 36 30.0000000  0  9G14G24G10G12G27G15G21G20G32
 126478394.905 6  98554579.87142  24068034.659    24068035.191    24068035.504
                        38.750          17.000
 109972282.112 8  85692718.652 7  20927020.893    20927022.828    20927021.282
  20927023.012          50.250          47.000
 109060019.220 8  84981850.110 8  20753423.101    20753424.448    20753423.418
  20753424.502          51.500          48.250
 127568746.947 6  99404219.018 5  24275521.776    24275522.957    24275522.276
  24275524.080          39.000          33.750
 133892358.572 5 104331724.735 5  25478868.822    25478873.147    25478869.443
  25478873.809          33.250          35.500
 124681679.581 6  97154574.419 6  23726129.920    23726129.628    23726130.192
  23726129.870          41.000          36.750
 117015776.820 7  91181119.58445  22267356.389    22267357.040    22267357.560
                        45.250          32.250
 104686600.426 7  81573990.25147  19921188.441    19921188.121    19921189.625
                        47.250          42.000
 116221502.785 7  90562231.591 7  22116206.402    22116207.831    22116206.558
  22116208.370          46.250          43.250
 19  9 29 21 37  0.0000000  0  9G14G24G10G12G27G15G21G20G32
 126402923.401 6  98495770.94943  24053672.894    24053673.211    24053673.748
                        38.750          18.000
 110020001.496 8  85729902.588 7  20936101.191    20936103.102    20936101.602
  20936103.725          50.500          47.000
 109011788.277 8  84944267.566 8  20744245.040    20744246.514    20744245.357
  20744246.614          51.250          48.250
 127486844.731 6  99340399.141 5  24259935.925    24259937.644    24259936.430
  24259938.087          39.750          33.250
 133959169.636 5 104383785.249 5  25491584.092    25491587.025    25491584.785
  25491586.327          30.500          32.750
 124771733.798 6  97224746.503 6  23743266.387    23743266.214    23743266.668
  23743266.581          41.750          36.500
 117090924.991 7  91239676.58345  22281656.882    22281656.833    22281658.053
                        45.500          31.750
 104694522.684 7  81580163.43447  19922695.937    19922695.710    19922697.121
                        47.250          42.000
 116160535.409 7  90514724.560 7  22104604.728    22104606.014    22104604.875
  22104606.956          46.500          43.000
 19  9 29 21 37 30.0000000  0  9G14G24G10G12G27G15G21G20G32
 126327596.649 6  98437074.82543  24039339.181    24039338.804    24039340.088
                        38.250          18.000
 110068255.590 8  85767503.186 7  20945283.856    20945285.901    20945284.258
  20945286.143          50.500          47.000
 108963854.333 8  84906916.444 8  20735123.479    20735125.008    20735123.796
  20735124.969          51.250          48.000
 127405114.426 6  99276713.296 5  24244383.845    24244385.185    24244384.354
  24244385.140          38.750          33.750
 134026175.754 4 104435997.675 4  25504333.432    25504338.076    25504334.044
  25504338.372          28.750          29.250
 124861815.574 7  97294940.054 6  23760408.245    23760408.022    23760408.531
  23760409.109          42.000          36.250
 117166386.295 7  91298477.58145  22296016.623    22296016.832    22296017.794
                        45.250          32.000
 104702900.087 7  81586691.28247  19924290.271    19924289.947    19924291.455
                        47.000          42.000
 116099779.292 7  90467382.155 7  22093043.195    22093044.392    22093043.329
  22093045.349          46.750          42.750
 19  9 29 21 38  0.0000000  0  9G14G24G10G12G27G15G21G20G32
 126252414.947 6  98378491.74143  24025032.383    24025032.648    24025033.214
                        37.750          18.500
 110117042.012 8  85805518.581 7  20954567.773    20954569.615    20954568.175
  20954569.849          50.250          46.750
 108916219.181 8  84869798.159 8  20726058.805    20726060.278    20726059.122
  20726060.012          51.250          48.250
 127323559.185 6  99213163.836 5  24228864.114    24228864.952    24228864.574
  24228865.870          38.250          33.000
 134093373.789 4 104488359.801 5  25517121.044    25517125.222    25517121.585
  25517125.449          29.250          31.250
 124951924.033 6  97365154.401 6  23777555.920    23777555.402    23777556.156
  23777556.518          39.750          36.750
 117242158.795 7  91357521.06445  22310435.798    22310435.905    22310436.965
                        45.250          31.750
 104711733.428 7  81593574.40247  19925971.122    19925970.821    19925972.311
                        47.000          42.250
 116039234.509 7  90420204.430 7  22081521.999    22081523.337    22081522.119
  22081523.406          46.750          43.250
 19  9 29 21 38 30.0000000  0  9G14G24G10G12G27G15G21G20G32
 126177378.183 6  98320021.59543  24010752.406    24010753.728    24010753.282
                        37.750          18.500
 110166359.202 8  85843947.567 7  20963952.351    20963954.366    20963952.762
  20963954.605          50.500          47.000
 108868884.648 8  84832914.119 8  20717051.183    20717052.740    20717051.496
  20717052.630          51.250          48.000
 127242182.485 6  99149753.514 5  24213378.619    24213379.428    24213379.057
  24213380.349          38.250          34.000
 134160760.675 5 104540869.109 4  25529943.891    25529948.579    25529944.458
  25529948.233          30.250          28.000
 125042058.468 6  97435389.001 6  23794708.137    23794708.493    23794708.382
  23794708.287          41.000          37.500
 117318240.051 7  91416805.14745  22324913.697    22324913.781    22324914.873
                        45.000          31.500
 104721023.275 7  81600813.24447  19927738.993    19927738.650    19927740.177
                        46.750          42.250
 115978901.078 7  90373191.391 7  22070040.431    22070042.254    22070040.565
  22070042.441          47.000          43.250
 19  9 29 21 39  0.0000000  0  9G14G24G10G12G27G15G21G20G32
 126102486.600 6  98261664.58043  23996501.070    23996502.006    23996501.959
                        38.000          19.000
 110216205.076 8  85882788.507 7  20973437.748    20973439.532    20973438.154
  20973440.141          50.500          46.750
 108821852.542 8  84796265.741 8  20708101.262    20708102.895    20708101.575
  20708102.824          51.250          48.250
 127160987.215 6  99086484.556 5  24197927.669    24197928.944    24197928.111
  24197928.519          38.500          32.500

  25542808.397                          23.000
 125132218.335 6  97505643.388 6  23811864.309    23811865.420    23811864.568
  23811865.240          41.250          37.750
 117394626.642 7  91476327.14945  22339449.373    22339449.496    22339450.549
                        45.250          31.250
 104730770.628 7  81608408.58747  19929593.893    19929593.475    19929595.082
                        47.250          42.000
 115918779.055 7  90326343.098 7  22058599.376    22058601.254    22058599.528
  22058601.852          46.750          43.000
 19  9 29 21 39 30.0000000  0  9G14G24G10G12G27G15G21G20G32
 126027740.436 6  98203420.87643  23982277.679    23982278.418    23982278.604
                        38.250          18.500
 110266577.144 8  85922039.472 7  20983023.103    20983025.135    20983023.523
  20983025.317          50.500          47.000
 108775124.661 8  84759854.423 8  20699209.286    20699210.854    20699209.599
  20699210.735          51.250          48.000
 127079977.345 6  99023360.079 5  24182512.501    24182513.436    24182512.903
  24182513.536          37.750          32.500
                                                                  25555697.876
  25555701.503          22.500          25.250
 125222402.691 6  97575916.904 6  23829025.996    23829025.933    23829026.264
  23829026.741          41.000          36.250
 117471317.109 7  91536085.94345  22354043.405    22354043.155    22354044.581
                        45.000          31.000
 104740975.854 7  81616360.71147  19931535.910    19931535.447    19931537.099
                        47.250          42.000
 115858868.496 7  90279659.576 7  22047199.174    22047200.504    22047199.308
  22047201.032          46.750          42.750
 19  9 29 21 40  0.0000000  0  9G14G24G10G12G27G15G21G20G32
 125953139.879 6  98145290.61643  23968081.849    23968081.960    23968082.765
                        38.500          18.500
 110317473.152 8  85961698.709 7  20992708.339    20992710.571    20992708.759
  20992710.900          50.250          46.750
 108728702.827 8  84723681.578 8  20690375.390    20690376.922    20690375.707
  20690377.091          51.750          48.000
 126999156.182 6  98960382.654 5  24167131.874    24167133.192    24167132.294
  24167133.340          38.000          32.500
                                                                  25568625.078
  25568629.022          29.000          19.250
 125312610.794 6  97646208.890 6  23846191.942    23846192.291    23846192.201
  23846192.627          41.750          36.750
 117548309.170 7  91596079.74045  22368694.425    22368694.556    22368695.596
                        45.750          31.750
 104751639.656 7  81624670.17047  19933564.874    19933564.790    19933566.058
                        47.500          42.000
 115799169.426 7  90233140.839 7  22035838.754    22035840.333    22035838.883
  22035840.589          47.250          43.250
 19  9 29 21 40 30.0000000  0  9G14G24G10G12G27G15G21G20G32
 125878684.932 6  98087273.83343  23953913.372    23953913.696    23953914.252
                        38.750          19.500
 110368891.691 8  86001765.102 7  21002492.935    21002494.875    21002493.359
  21002495.556          50.750          46.750
 108682588.875 8  84687748.642 8  20681600.125    20681601.824    20681600.438
  20681601.837          51.750          48.250
 126918526.949 6  98897554.784 5  24151788.740    24151789.651    24151789.191
  24151789.343          38.000          32.250
                                                                  25581586.988
  25581591.992          26.000          19.500
 125402841.745 6  97716518.707 6  23863362.140    23863362.611    23863362.403
  23863362.536          41.250          36.500
 117625600.326 7  91656306.59545  22383402.179    22383402.555    22383403.363
                        45.250          31.250
 104762762.812 7  81633337.56247  19935681.831    19935681.370    19935683.020
                        47.250          42.250
 115739681.909 7  90186786.950 7  22024518.629    22024520.171    22024518.763
  22024520.697          47.500          43.500
 19  9 29 21 41  0.0000000  0  9G14G24G10G12G27G15G21G20G32
 125804375.993 6  98029370.81743  23939772.782    23939773.106    23939773.653
                        39.000          19.500
 110420829.791 8  86042236.350 7  21012376.313    21012378.480    21012376.737
  21012378.885          50.500          47.000
 108636784.616 8  84652057.032 8  20672883.898    20672885.607    20672884.215
  20672885.452          52.000          48.000
 126838092.668 6  98834878.838 5  24136482.719    24136483.050    24136483.184
  24136484.452          36.750          32.250

  25594585.811                          25.000
 125493095.018 7  97786845.880 6  23880537.648    23880537.416    23880537.902
  23880537.944          42.250          37.000
 117703188.505 7  91716764.89745  22398166.805    22398167.066    22398167.972
                        45.000          30.750
 104774346.000 7  81642363.43047  19937886.062    19937885.513    19937887.246
                        47.500          42.250
 115680405.939 7  90140597.909 7  22013238.680    22013240.234    22013238.814
  22013240.640          47.750          43.750
 19  9 29 21 41 30.0000000  0  9G14G24G10G12G27G15G21G20G32
 125730212.970 6  97971581.52943  23925659.921    23925660.459    23925660.837
                        36.500          18.000
 110473285.761 8  86083111.133 7  21022358.483    21022360.554    21022358.907
  21022360.894          49.750          46.750
 108591291.832 8  84616608.123 8  20664226.981    20664228.546    20664227.298
  20664228.480          51.250          48.250
 126757857.081 6  98772357.743 5  24121214.601    24121215.079    24121215.021
  24121216.365          37.750          33.250


 125583369.647 6  97857189.730 6  23897715.909    23897716.415    23897716.154
  23897716.777          40.500          37.000
 117781071.006 7  91777452.54545  22412987.720    22412987.655    22412988.891
                        44.500          31.250
 104786389.744 7  81651748.16647  19940177.751    19940177.488    19940178.935
                        47.250          42.250
 115621341.593 7  90094573.769 7  22001998.933    22002000.829    22001999.080
  22002000.836          47.000          43.500
 19  9 29 21 42  0.0000000  0  9G14G24G10G12G27G15G21G20G32
 125656196.037 6  97913906.06643  23911575.038    23911576.261    23911575.968
                        37.500          18.750
 110526257.783 8  86124388.035 7  21032438.717    21032440.924    21032439.146
  21032441.036          50.000          46.500
 108546112.374 8  84581403.358 8  20655629.521    20655631.248    20655629.838
  20655631.028          51.250          48.250
 126677823.340 6  98709993.857 5  24105983.770    24105985.042    24105984.217
  24105985.153          38.250          32.500


 125673665.054 6  97927549.758 6  23914898.780    23914899.282    23914899.021
  23914899.474          41.000          36.750
 117859245.721 7  91838367.88745  22427863.897    22427863.943    22427865.041
                        44.500          30.750
 104798894.771 7  81661492.34747  19942557.499    19942557.062    19942558.683
                        47.000          42.250
 115562488.869 7  90048714.525 7  21990799.710    21990801.445    21990799.870
  21990801.673          47.000          43.500
 19  9 29 21 42 30.0000000  0  9G14G24G10G12G27G15G21G20G32
 125582325.348 6  97856344.53643  23897518.184    23897518.281    23897519.131
                        38.000          19.750
 110579742.916 8  86166064.766 7  21042616.711    21042618.485    21042617.135
  21042618.966          50.000          46.500
 108501248.040 8  84546444.145 8  20647092.367    20647093.731    20647092.684
  20647093.989          51.500          48.000
 126597994.730 6  98647789.863 5  24090793.185    24090793.956    24090793.578
  24090795.064          38.500          33.250

  25633770.130                          21.000
 125763980.454 6  97997925.356 6  23932084.736    23932085.288    23932085.013
  23932085.490          40.750          37.000
 117937710.374 7  91899509.14745  22442794.697    22442795.361    22442795.855
                        44.750          30.750
 104811861.794 7  81671596.52447  19945025.023    19945024.553    19945026.212
                        47.000          42.000
 115503847.818 7  90003020.233 7  21979640.740    21979642.296    21979640.909
  21979642.771          47.000          43.250
 19  9 29 21 43  0.0000000  0  8G14G24G10G12G15G21G20G32
 125508600.748 6  97798896.86243  23883487.890    23883488.829    23883488.851
                        37.250          18.750
 110633739.375 8  86208139.935 7  21052891.808    21052893.621    21052892.228
  21052894.130          50.000          46.750
 108456700.658 8  84511731.908 8  20638614.951    20638616.631    20638615.272
  20638616.716          51.500          48.250
 126518374.719 6  98585748.422 5  24075641.536    24075642.561    24075641.947
  24075643.499          39.000          33.500
 125854315.215 6  98068316.042 6  23949275.957    23949275.864    23949276.225
  23949275.255          40.500          37.000
 118016462.499 7  91960874.41545  22457780.866    22457781.557    22457782.015
                        44.250          30.250
 104825291.249 7  81682061.03447  19947580.716    19947580.125    19947581.905
                        47.000          42.000
 115445418.497 7  89957490.898 7  21968522.120    21968523.571    21968522.289
  21968524.177          47.250          43.750
 19  9 29 21 43 30.0000000  0  9G14G24G10G12G27G15G21G20G32
 125435022.623 6  97741563.30843  23869486.461    23869487.239    23869487.391
                        38.000          18.500
 110688244.901 8  86250611.771 7  21063263.861    21063266.041    21063264.281
  21063266.290          50.000          47.000
 108412472.038 8  84477268.052 8  20630198.762    20630200.295    20630199.088
  20630200.256          51.250          48.500
 126438966.655 6  98523872.166 5  24060530.727    24060531.736    24060531.107
  24060532.190          39.750          34.000
                                                                  25660031.536
  25660043.555          25.250          25.250
 125944668.631 6  98138721.248 6  23966468.894    23966469.521    23966469.162
  23966469.905          41.250          37.000
 118095499.598 7  92022461.74745  22472821.446    22472821.431    22472822.586
                        44.500          30.000
 104839183.652 7  81692886.28247  19950224.033    19950223.861    19950225.222
                        47.500          42.250
 115387200.846 7  89912126.534 7  21957443.280    21957445.130    21957443.440
  21957445.205          47.250          43.500
 19  9 29 21 44  0.0000000  0  9G14G24G10G12G27G15G21G20G32
 125361590.936 6  97684343.89443  23855513.213    23855513.897    23855514.129
                        38.000          18.500
 110743257.003 8  86293478.344 7  21073732.345    21073734.467    21073732.760
  21073734.503          50.000          46.750
 108368564.016 8  84443054.014 8  20621843.084    20621844.889    20621843.405
  20621844.758          52.000          48.500
 126359773.845 6  98462163.597 5  24045461.159    24045461.572    24045461.548
  24045461.419          40.000          33.250
                                                                  25673213.048
  25673220.233          23.000          21.000
 126035040.051 6  98209140.538 6  23983665.754    23983666.134    23983665.995
  23983666.834          41.500          36.250
 118174819.224 7  92084269.23145  22487915.327    22487915.093    22487916.480
                        44.500          30.000
 104853539.983 7  81704073.03647  19952956.050    19952955.700    19952957.243
                        47.500          42.000
 115329194.974 7  89866927.171 7  21946405.469    21946406.926    21946405.629
  21946407.486          47.250          44.000
 19  9 29 21 44 30.0000000  0  9G14G24G10G12G27G15G21G20G32
 125288306.190 6  97627238.93443  23841567.646    23841568.682    23841568.544
                        38.250          19.000
 110798773.815 8  86336738.200 7  21084296.622    21084298.613    21084297.046
  21084299.141          50.250          46.500
 108324978.418 8  84409091.211 8  20613549.014    20613550.776    20613549.344
  20613550.654          51.750          48.250
 126280799.427 6  98400625.172 5  24030432.201    24030432.950    24030432.549
  24030433.248          39.750          32.500
                                                                  25686426.361
                        28.000
 126125428.778 6  98279573.319 6  24000866.721    24000866.221    24000866.966
  24000866.936          41.250          36.250
 118254419.047 7  92146295.04145  22503062.708    22503062.764    22503063.848
                        44.000          30.000
 104868360.171 7  81715621.23647  19955776.263    19955775.792    19955777.456
                        47.500          42.250
 115271400.882 7  89821892.838 7  21935407.656    21935409.091    21935407.816
  21935409.479          47.750          43.500
                            4  1
RINEX FILE SPLICE; other post-header comments skipped       COMMENT
 19  9 29 21 45  0.0000000  0  9G14G24G10G12G27G15G21G20G32
 125215168.062 6  97570248.25343  23827649.435    23827650.448    23827650.315
                        37.750          19.000
 110854792.922 8  86380389.457 7  21094956.986    21094958.859    21094957.406
  21094959.183          49.750          46.500
 108281717.018 8  84375381.033 8  20605316.806    20605318.385    20605317.123
  20605318.304          52.000          48.000
 126202046.883 6  98339259.649 5  24015446.822    24015446.767    24015447.206
  24015447.421          40.500          31.250

  25699666.120                          20.250
 126215833.993 6  98350018.918 6  24018070.270    24018070.055    24018070.569
  24018070.232          39.250          36.500
 118334296.456 7  92208537.14445  22518262.932    22518263.222    22518264.072
                        44.250          30.000
 104883645.137 7  81727531.59647  19958684.781    19958684.560    19958685.979
                        47.250          42.250
 115213818.644 7  89777023.592 7  21924449.982    21924451.532    21924450.147
  21924451.888          47.750          44.000
 19  9 29 21 45 30.0000000  0  9G14G24G10G12G27G15G21G20G32
 125142176.850 6  97513372.05043  23813759.739    23813760.207    23813760.642
                        38.250          19.500
 110911312.099 8  86424430.378 7  21105712.222    21105714.202    21105712.628
  21105714.608          50.250          46.500
 108238781.676 8  84341924.925 8  20597146.296    20597148.064    20597146.622
  20597148.082          51.750          48.250
 126123519.480 7  98278069.553 5  24000503.134    24000503.114    24000503.523
  24000503.695          42.000          31.000
                                                                  25712930.921
  25712937.297          19.250          22.250
 126306254.976 6  98420476.803 6  24035276.871    24035277.024    24035277.197
  24035277.389          41.500          36.500
 118414449.297 7  92270993.88244  22533515.678    22533515.868    22533516.782
                        44.000          29.500
 104899395.315 7  81739804.46047  19961681.941    19961681.665    19961683.139
                        47.500          42.000
 115156448.169 7  89732319.344 7  21913532.752    21913534.360    21913532.908
  21913534.739          47.750          43.500
 19  9 29 21 46  0.0000000  0  9G14G24G10G12G27G15G21G20G32
 125069332.444 6  97456610.24343  23799898.109    23799898.306    23799899.025
                        37.500          19.000
 110968329.102 8  86468859.211 7  21116561.931    21116564.245    21116562.346
  21116564.310          49.250          46.750
 108196174.181 8  84308724.285 8  20589038.540    20589040.065    20589038.866
  20589040.016          51.500          48.500
 126045220.631 6  98217057.546 5  23985602.830    23985603.060    23985603.272
  23985603.807          41.000          30.000

  25726228.913                          19.250
 126396691.300 6  98490946.630 6  24052486.006    24052486.672    24052486.296
  24052485.918          40.750          37.000
 118494875.387 7  92333663.53744  22548820.276    22548819.970    22548821.376
                        44.250          29.250
 104915611.234 7  81752440.23847  19964767.832    19964767.469    19964769.039
                        47.250          42.250
 115099289.502 7  89687780.152 7  21902655.556    21902657.134    21902655.703
  21902658.072          46.750          43.750
 19  9 29 21 46 30.0000000  0  9G14G24G10G12G27G15G21G20G32
 124996634.972 6  97399962.91643  23786064.293    23786064.707    23786065.173
                        39.000          19.500
 111025841.589 8  86513674.143 7  21127506.420    21127508.238    21127506.835
  21127508.659          50.000          46.500
 108153896.354 8  84275780.528 8  20580993.300    20580994.797    20580993.630
  20580994.931          52.000          48.500
 125967153.703 6  98156226.229 5  23970747.173    23970747.838    23970747.642
  23970748.600          41.750          31.500
                                                                  25739551.312
                        20.000
 126487142.147 6  98561427.794 6  24069698.042    24069698.538    24069698.359
  24069699.019          41.000          36.500
 118575572.177 7  92396544.13044  22564176.066    22564176.259    22564177.174
                        44.500          29.250
 104932293.479 7  81765439.39347  19967942.312    19967942.013    19967943.514
                        47.500          42.000
 115042342.691 7  89643406.045 7  21891819.078    21891820.640    21891819.234
  21891820.648          47.750          43.750
 19  9 29 21 47  0.0000000  0  9G14G24G10G12G15G21G20G18G32
 124924084.396 6  97343430.07343  23772257.658    23772258.966    23772258.521
                        39.000          20.000
 111083847.017 8  86558873.189 7  21138544.515    21138546.313    21138544.921
  21138546.842          49.750          46.750
 108111950.032 8  84243095.088 8  20573011.058    20573012.804    20573011.388
  20573012.704          52.000          48.750
 125889321.929 6  98095578.185 5  23955936.864    23955937.042    23955937.293
  23955937.440          41.250          32.250
 126577606.865 6  98631919.740 6  24086913.168    24086913.278    24086913.498
  24086914.435          40.750          36.500
 118656537.015 7  92459633.58844  22579583.137    22579583.651    22579584.245
                        43.750          28.750
 104949442.412 7  81778802.19747  19971205.579    19971205.398    19971206.781
                        47.500          42.000
                                                                  24871124.630
                        32.000
 114985607.715 7  89599197.004 7  21881022.975    21881024.345    21881023.135
  21881024.665          47.750          44.250
 19  9 29 21 47 30.0000000  0 10G14G24G10G12G27G15G21G20G18G32
 124851681.365 6  97287012.17643  23758480.395    23758480.274    23758481.258
                        37.750          19.250
 111142343.478 8  86604454.849 7  21149675.814    21149678.091    21149676.225
  21149678.399          49.750          46.750
 108070337.010 8  84210669.375 8  20565092.385    20565094.021    20565092.711
  20565094.181          51.250          48.250
 125811728.607 6  98035115.923 5  23941171.191    23941171.337    23941171.633
  23941171.381          40.750          32.250

  25766280.221                          22.500
 126668084.889 6  98702422.116 5  24104130.675    24104130.586    24104130.992
  24104131.552          41.500          35.500
 118737767.364 7  92522929.93744  22595040.753    22595041.071    22595041.879
                        43.750          28.750
 104967058.579 7  81792529.08247  19974557.943    19974557.564    19974559.141
                        47.250          42.000
                                                                  24853045.123
                        30.750
 114929084.635 7  89555153.064 7  21870266.694    21870268.363    21870266.846
  21870268.645          47.000          44.000
 19  9 29 21 48  0.0000000  0 10G14G24G10G12G27G15G21G20G18G32
 124779425.412 6  97230708.89143  23744729.800    23744731.094    23744730.609
                        38.250          19.250
 111201328.385 8  86650417.117 7  21160900.320    21160902.458    21160900.731
  21160902.500          49.750          46.500
 108029059.109 8  84178504.782 8  20557237.582    20557239.200    20557237.903
  20557238.987          51.750          48.500
 125734377.272 7  97974842.240 5  23926451.126    23926451.847    23926451.582
  23926452.436          42.000          32.500

  25779677.498                          21.750
 126758575.280 6  98772934.055 6  24121350.357    24121350.429    24121350.670
  24121351.409          39.750          36.750
 118819261.207 7  92586431.60144  22610548.618    22610548.908    22610549.735
                        43.750          28.500
 104985142.438 7  81806620.40047  19977999.129    19977998.911    19978000.327
                        47.250          42.000
                                                                  24835031.057
                        33.500
 114872773.407 7  89511274.208 7  21859551.153    21859552.696    21859551.291
  21859553.104          47.250          44.000
 19  9 29 21 48 30.0000000  0  9G14G24G10G12G15G21G20G18G32
 124707316.687 6  97174520.34043  23731009.026    23731009.115    23731009.821
                        38.500          19.500
 111260799.417 8  86696758.193 7  21172217.313    21172219.116    21172217.715
  21172219.757          49.750          46.250
 107988118.126 8  84146602.730 8  20549446.573    20549448.444    20549446.899
  20549448.359          51.750          48.750
 125657270.992 7  97914759.529 5  23911778.501    23911779.572    23911778.974
  23911779.318          42.000          32.250
 126849077.928 6  98843455.539 5  24138572.473    24138572.060    24138572.794
  24138572.907          40.750          35.000
 118901015.940 7  92650136.55344  22626106.302    22626106.546    22626107.415
                        44.000          28.500
 105003694.658 7  81821076.67547  19981529.495    19981529.159    19981530.693
                        47.500          42.000
 130414631.738 5                                                  24817079.036
                        35.250
 114816674.068 7  89467560.470 7  21848875.798    21848877.301    21848875.936
  21848877.432          47.500          44.250
 19  9 29 21 49  0.0000000  0  9G14G24G10G12G15G21G20G18G32
 124635355.409 6  97118446.68043  23717315.350    23717315.402    23717316.150
                        38.500          19.500
 111320754.152 8  86743476.177 7  21183626.408    21183628.259    21183626.823
  21183628.568          49.500          46.250
 107947515.886 8  84114964.635 8  20541720.294    20541721.936    20541720.629
  20541721.992          52.000          48.500
 125580412.928 7  97854870.197 5  23897152.790    23897153.333    23897153.259
  23897154.654          42.250          34.000
 126939591.554 6  98913985.645 6  24155796.785    24155796.750    24155797.084
  24155797.169          40.750          36.000
 118983028.839 7  92714042.68244  22641712.863    22641713.269    22641713.976
                        44.750          28.750
 105022715.113 7  81835897.80847  19985149.126    19985148.700    19985150.324
                        47.250          42.000
 130320629.338 5                                                  24799191.053
                        34.250
 114760786.614 8  89424011.834 7  21838240.457    21838242.182    21838240.604
  21838242.627          48.000          44.000
 19  9 29 21 49 30.0000000  0  9G14G24G10G12G15G21G20G18G32
 124563541.588 6  97062487.92243  23703648.999    23703649.564    23703649.777
                        39.000          20.000
 111381190.050 8  86790569.094 7  21195126.855    21195129.058    21195127.275
  21195129.408          49.750          46.500
 107907254.195 8  84083591.910 8  20534058.805    20534060.339    20534059.140
  20534060.419          51.500          48.500
 125503806.935 6  97795177.312 5  23882575.206    23882575.195    23882575.679
  23882576.142          41.500          33.000
 127030115.904 6  98984524.068 6  24173022.619    24173023.703    24173022.918
  24173023.475          40.750          36.750
 119065298.070 7  92778148.55444  22657367.955    22657368.330    22657369.081
                        44.000          28.500
 105042204.652 7  81851084.46346  19988857.613    19988857.241    19988858.811
                        47.250          41.750
 130226964.923 5                                                  24781368.255
                        31.500
 114705111.061 7  89380628.300 7  21827645.851    21827647.517    21827645.994
  21827647.982          47.500          44.250
 19  9 29 21 50  0.0000000  0  9G14G24G10G12G15G21G20G18G32
 124491875.605 6  97006644.37343  23690011.350    23690011.921    23690012.101
                        38.500          20.000
 111442104.884 8  86838035.200 7  21206718.653    21206720.796    21206719.064
  21206720.934          49.500          46.250
 107867334.843 8  84052485.941 8  20526462.288    20526463.969    20526462.627
  20526464.004          51.750          48.250
 125427455.994 6  97735683.143 5  23868046.460    23868046.876    23868046.898
  23868047.019          41.250          34.250
 127120650.233 6  99055070.266 5  24190250.980    24190251.112    24190251.288
  24190251.135          41.500          34.500
 119147820.178 7  92842451.46744  22673071.592    22673071.752    22673072.736
                        43.500          27.500
 105062163.593 7  81866636.88847  19992655.814    19992655.491    19992657.012
                        47.250          42.000
 130133641.486 5                                                  24763609.460
                        33.250
 114649647.398 7  89337409.885 7  21817091.405    21817093.120    21817091.548
  21817093.493          47.750          44.250
 19  9 29 21 50 30.0000000  0  9G14G24G10G12G15G21G20G18G32
 124420356.951 6  96950915.61743  23676401.742    23676402.613    23676402.515
                        39.000          20.250
 111503496.402 8  86885872.759 7  21218400.919    21218402.816    21218401.348
  21218403.357          49.750          46.250
 107827759.650 8  84021648.133 8  20518931.591    20518933.014    20518931.926
  20518933.014          52.000          48.500
 125351363.481 7  97676390.377 5  23853565.813    23853566.742    23853566.264
  23853567.409          43.250          33.250
 127211194.034 7  99125623.824 5  24207481.150    24207480.770    24207481.445
  24207481.800          42.250          34.750
 119230593.435 7  92906950.08744  22688822.653    22688822.958    22688823.793
                        43.000          27.500
 105082592.176 7  81882555.26746  19996543.393    19996542.936    19996544.582
                        47.500          41.750
 130040661.890 5 101330399.31541  24745914.529    24745917.553    24745914.422
                        34.250           7.750
 114594395.667 8  89294356.609 7  21806577.558    21806579.002    21806577.696
  21806579.479          48.000          44.250
 19  9 29 21 51  0.0000000  0  9G14G24G10G12G15G21G20G18G32
 124348985.789 6  96895301.78243  23662820.131    23662820.471    23662820.909
                        39.500          21.000
 111565362.365 8  86934080.002 7  21230173.667    21230175.507    21230174.100
  21230176.003          49.750          46.250
 107788530.407 8  83991079.912 8  20511466.346    20511467.931    20511466.681
  20511467.954          52.250          48.500
 125275532.877 6  97617301.688 5  23839136.295    23839135.300    23839136.719
  23839137.405          41.500          32.750
 127301746.708 6  99196184.345 5  24224712.318    24224712.105    24224712.622
  24224712.977          41.750          34.250
 119313615.230 7  92971642.37444  22704621.423    22704621.522    22704622.558
                        44.000          27.750
 105103490.776 7  81898839.89647  20000520.040    20000519.698    20000521.229
                        47.750          42.000
 129948028.908 5 101258217.78141  24728287.476    24728288.199    24728287.811
                        34.250           9.000
 114539355.809 8  89251468.432 7  21796103.810    21796105.157    21796103.935
  21796106.022          48.250          44.250
 19  9 29 21 51 30.0000000  0  9G14G24G10G12G15G21G20G18G32
 124277762.320 6  96839803.03343  23649266.653    23649266.988    23649267.457
                        39.250          20.500
 111627700.084 8  86982654.857 7  21242036.276    21242038.123    21242036.687
  21242038.525          49.500          46.250
 107749648.910 8  83960782.656 8  20504067.372    20504068.992    20504067.707
  20504068.950          52.000          48.750
 125199967.231 7  97558419.453 5  23824756.366    23824756.530    23824756.795
  23824756.786          43.500          34.750
 127392307.529 6  99266751.180 5  24241945.941    24241946.458    24241946.254
  24241946.512          40.750          35.750
 119396882.843 7  93036526.20344  22720466.519    22720466.757    22720467.668
                        43.250          27.500
 105124859.982 7  81915491.22947  20004586.716    20004586.138    20004587.905
                        47.500          42.000
 129855745.543 5 101186308.68741  24710726.780    24710727.234    24710726.976
                        34.250          11.750
 114484527.852 8  89208745.368 7  21785670.462    21785671.806    21785670.587
  21785672.339          48.000          44.000
 19  9 29 21 52  0.0000000  0  9G14G24G10G12G15G21G20G18G32
 124206686.725 6  96784419.51043  23635741.643    23635742.158    23635742.430
                        38.500          20.750
 111690507.282 8  87031595.531 7  21253987.831    21253990.166    21253988.237
  21253990.511          49.250          46.250
 107711116.977 8  83930757.780 8  20496735.098    20496736.618    20496735.433
  20496736.453          51.750          48.500
 125124670.002 6  97499746.361 5  23810427.274    23810428.745    23810427.694
  23810428.631          41.750          34.250
 127482876.094 6  99337324.039 5  24259180.454    24259181.214    24259180.767
  24259180.256          41.250          34.750
 119480393.970 7  93101599.78444  22736358.182    22736358.546    22736359.349
                        44.000          27.250
 105146699.998 7  81932509.42447  20008742.529    20008742.242    20008743.722
                        47.750          42.000
 129763814.197 5 101114673.90941  24693231.891    24693233.478    24693232.074
                        34.500          10.000
 114429911.802 7  89166187.428 7  21775277.048    21775278.695    21775277.173
  21775278.883          47.500          44.250
 19  9 29 21 52 30.0000000  0  9G14G24G10G12G15G21G20G18G32
 124135758.998 6  96729151.21343  23622244.772    23622244.776    23622245.532
                        38.750          21.000
 111753781.803 8  87080900.361 7  21266028.778    21266030.797    21266029.189
  21266031.156          49.750          46.250
 107672936.371 8  83901006.666 8  20489469.588    20489471.121    20489469.923
  20489471.064          52.000          48.750
 125049644.433 7  97441284.968 5  23796150.909    23796150.286    23796151.338
  23796151.207          43.000          33.750
 127573451.683 6  99407902.407 5  24276416.301    24276416.801    24276416.631
  24276417.229          41.750          34.250
 119564145.795 7  93166860.92744  22752295.719    22752296.115    22752296.903
                        43.500          27.500
 105169011.185 7  81949894.76547  20012988.458    20012987.829    20012989.651
                        47.500          42.000
 129672238.081 5 101043315.88541  24675806.329    24675806.894    24675806.565
                        32.750          10.750
 114375507.641 8  89123794.605 7  21764924.265    21764925.964    21764924.381
  21764926.126          48.250          44.250
 19  9 29 21 53  0.0000000  0  9G14G24G10G12G15G21G20G18G32
 124064978.901 6  96673997.94843  23608775.728    23608775.927    23608776.515
                        39.250          21.000
 111817520.591 8  87130566.955 7  21278157.732    21278159.694    21278158.138
  21278160.160          49.500          46.250
 107635108.939 8  83871530.753 8  20482271.309    20482272.828    20482271.644
  20482272.843          52.000          48.750
 124974893.863 7  97383037.858 5  23781925.829    23781925.491    23781926.271
  23781926.334          42.250          34.500
 127664033.580 7  99478485.652 5  24293653.688    24293653.216    24293654.027
  24293653.377          42.750          33.000
 119648136.357 7  93232308.08944  22768278.665    22768278.835    22768279.827
                        43.000          26.750
 105191793.950 7  81967647.57347  20017323.485    20017323.246    20017324.678
                        47.750          42.000
 129581020.009 5 100972236.91142  24658449.304    24658448.726    24658449.482
                        32.500          12.250
 114321315.383 8  89081566.883 7  21754611.985    21754613.351    21754612.096
  21754613.962          48.000          44.250
 19  9 29 21 53 30.0000000  0  9G14G24G10G12G15G21G20G18G32
 123994346.642 6  96618959.86043  23595333.991    23595334.627    23595334.840
                        38.750          20.250
 111881721.408 8  87180593.563 7  21290374.752    21290376.855    21290375.149
  21290377.161          49.250          46.250
 107597636.427 8  83842331.403 8  20475140.495    20475141.945    20475140.830
  20475141.927          52.000          48.500
 124900421.506 7  97325007.576 5  23767754.015    23767754.709    23767754.480
  23767754.877          42.750          34.750
 127754621.538 7  99549073.677 5  24310891.823    24310891.285    24310892.136
  24310892.195          42.250          34.250
 119732362.760 7  93297939.03044  22784306.808    22784306.373    22784307.975
                        43.250          27.000
 105215048.964 7  81985768.36447  20021748.640    20021748.592    20021749.833
                        47.500          42.000
 129490162.760 6 100901439.09642  24641158.215    24641159.148    24641158.402
                        36.000          12.500
 114267335.007 8  89039504.271 7  21744339.865    21744341.238    21744339.985
  21744341.756          48.000          44.500
 19  9 29 21 54  0.0000000  0  9G14G24G10G12G15G21G20G18G32
 123923862.301 6  96564037.06343  23581921.897    23581922.456    23581922.733
                        37.750          21.250
 111946382.094 8  87230978.520 7  21302679.348    21302681.365    21302679.737
  21302681.750          49.500          46.250
 107560520.649 8  83813410.019 8  20468077.656    20468079.000    20468077.991
  20468079.129          52.000          48.750
 124826230.646 7  97267196.559 5  23753636.500    23753637.345    23753636.973
  23753637.032          42.750          35.750
 127845214.777 6  99619665.770 5  24328131.492    24328131.541    24328131.800
  24328131.963          41.250          34.750
 119816822.362 7  93363751.67644  22800378.646    22800378.865    22800379.826
                        43.250          26.750
 105238775.694 7  82004256.72846  20026264.029    20026263.589    20026265.222
                        47.500          41.750
 129399669.173 5 100830924.66642  24623937.193    24623938.890    24623937.461
                        34.500          12.000
 114213566.509 8  88997606.761 7  21734107.911    21734109.531    21734108.045
  21734109.943          48.250          44.750
 19  9 29 21 54 30.0000000  0  9G14G24G10G12G15G21G20G18G32
 123853525.749 6  96509229.42843  23568536.750    23568537.253    23568537.604
                        38.750          20.500
 112011499.886 8  87281719.657 7  21315070.735    21315072.938    21315071.137
  21315073.050          49.250          46.250
 107523763.401 8  83784768.022 8  20461082.797    20461084.336    20461083.132
  20461084.343          51.750          48.750
 124752324.588 6  97209607.549 5  23739571.896    23739571.785    23739572.338
  23739572.710          41.750          33.750
 127935812.601 6  99690261.418 5  24345371.018    24345371.153    24345371.353
  24345372.268          41.250          33.000
 119901513.445 7  93429744.71044  22816494.952    22816495.040    22816496.132
                        42.500          26.500
 105262974.699 7  82023113.10047  20030868.860    20030868.408    20030870.049
                        47.500          42.000
 129309541.804 5 100760695.58741  24606786.164    24606788.147    24606786.365
                        32.250          10.000
 114160009.883 7  88955874.346 7  21723916.536    21723918.046    21723916.661
  21723918.493          47.750          44.500
 19  9 29 21 55  0.0000000  0  9G14G24G10G12G15G21G20G18G32
 123783337.215 6  96454537.10443  23555180.164    23555180.378    23555181.018
                        39.750          21.000
 112077072.721 8  87332815.379 7  21327548.937    21327550.947    21327549.334
  21327551.250          49.500          45.750
 107487366.447 8  83756406.764 8  20454156.883    20454158.329    20454157.218
  20454158.251          52.000          48.750
 124678706.574 7  97152242.959 5  23725563.187    23725562.545    23725563.647
  23725563.899          43.000          34.500
 128026414.579 6  99760860.352 5  24362612.655    24362612.178    24362612.968
  24362613.607          41.250          34.500
 119986432.542 7  93495915.41744  22832654.288    22832654.562    22832655.472
                        42.500          26.000
 105287646.320 7  82042337.73546  20035563.754    20035563.464    20035564.943
                        47.750          41.750
 129219783.706 5 100690754.26641  24589705.510    24589707.555    24589705.612
                        32.500           7.750
 114106665.139 8  88914307.035 7  21713765.223    21713766.720    21713765.348
  21713766.974          48.000          44.500
 19  9 29 21 55 30.0000000  0  9G14G24G10G12G15G21G20G18G32
 123713296.865 6  96399960.26243  23541852.184    23541852.819    23541853.060
                        39.500          20.750
 112143097.273 8  87384263.087 7  21340112.910    21340114.834    21340113.299
  21340115.366          49.250          46.250
 107451331.555 8  83728327.640 8  20447299.553    20447301.069    20447299.888
  20447300.916          52.000          48.750
 124605379.854 7  97095105.320 5  23711609.645    23711609.160    23711610.105
  23711609.860          42.750          34.000
 128117020.252 7  99831462.154 5  24379854.484    24379854.777    24379854.805
  24379854.921          42.250          34.250
 120071577.451 7  93562262.06844  22848856.697    22848856.910    22848857.881
                        42.500          26.250
 105312790.756 7  82061930.80247  20040348.408    20040348.181    20040349.592
                        47.750          42.000
 129130397.758 5 100621102.95541  24572696.957    24572698.026    24572697.010
                        32.500           8.250
 114053532.247 8  88872904.800 7  21703654.319    21703655.787    21703654.439
  21703656.164          48.250          44.500
 19  9 29 21 56  0.0000000  0  9G14G24G10G12G15G21G20G18G32
 123643404.316 6  96345498.58143  23528551.978    23528552.165    23528552.863
                        39.750          21.250
 112209571.971 8  87436061.557 7  21352762.681    21352764.598    21352763.074
  21352765.068          49.250          45.750
 107415660.530 8  83700532.046 8  20440511.659    20440513.016    20440511.994
  20440513.097          51.750          48.500
 124532347.596 7  97038197.132 5  23697711.653    23697711.656    23697712.122
  23697712.156          42.750          34.000
 128207628.951 6  99902066.310 5  24397096.220    24397096.379    24397096.559
  24397097.391          41.250          33.000
 120156945.686 7  93628782.75344  22865101.770    22865102.051    22865102.941
                        42.500          26.250
 105338408.180 7  82081892.43547  20045223.479    20045222.943    20045224.663
                        47.750          42.000
 129041386.708 5 100551743.71241  24555759.326    24555759.842    24555759.268
                        34.000           9.500
 114000611.198 8  88831667.637 7  21693583.743    21693585.420    21693583.863
  21693585.797          48.250          44.500
 19  9 29 21 56 30.0000000  0  9G14G24G10G12G15G21G20G18G32
 123573659.727 6  96291152.19543  23515280.485    23515280.716    23515281.321
                        39.750          21.250
 112276493.987 8  87488208.585 7  21365497.419    21365499.542    21365497.816
  21365499.764          49.000          46.000
 107380355.137 8  83673021.356 8  20433793.183    20433794.681    20433793.518
  20433794.679          51.750          48.500
 124459613.325 6  96981521.185 5  23683870.468    23683871.104    23683870.928
  23683871.361          41.500          35.250
 128298240.004 6  99972672.279 5  24414338.435    24414339.407    24414338.739
  24414340.609          39.750          32.500
 120242534.646 7  93695475.43944  22881388.989    22881388.733    22881390.160
                        42.750          25.500
 105364499.007 7  82102222.94546  20050188.331    20050187.937    20050189.511
                        47.500          41.750
 128952753.157 5 100482678.65441  24538893.152    24538893.324    24538893.108
                        35.750          10.750
 113947901.995 8  88790595.562 7  21683553.592    21683555.267    21683553.721
  21683555.685          48.250          44.750
 19  9 29 21 57  0.0000000  0  9G14G24G10G12G15G21G20G18G32
 123504063.148 6  96236921.14743  23502035.996    23502036.875    23502036.854
                        40.000          21.500
 112343860.407 8  87540701.899 7  21378317.001    21378318.969    21378317.398
  21378319.291          49.000          45.750
 107345417.127 8  83645796.939 8  20427144.736    20427146.254    20427145.066
  20427146.228          51.750          48.750
 124387180.353 6  96925080.001 6  23670086.560    23670087.707    23670087.007
  23670087.611          41.500          36.250
 128388853.032 6 100043279.827 5  24431582.618    24431583.106    24431582.899
  24431583.995          40.750          34.250
 120328342.078 7  93762338.36144  22897717.760    22897717.954    22897718.904
                        42.250          26.000
 105391063.281 7  82122922.37547  20055243.288    20055242.955    20055244.468
                        47.750          42.000
 128864499.902 6 100413909.88041  24522098.213    24522099.332    24522098.280
                        36.500          10.000
 113895404.610 8  88749688.537 7  21673563.632    21673565.237    21673563.752
  21673565.508          48.250          45.000
 19  9 29 21 57 30.0000000  0  9G14G24G10G12G15G21G20G18G32
 123434614.809 6  96182805.60443  23488820.622    23488821.146    23488821.476
                        40.000          21.250
 112411668.968 8  87593539.747 7  21391220.550    21391222.542    21391220.947
  21391222.865          49.500          45.750
 107310848.274 8  83618860.175 8  20420566.512    20420567.934    20420566.842
  20420567.940          52.000          48.500
 124315051.794 6  96868876.021 6  23656361.105    23656361.972    23656361.547
  23656361.967          41.500          36.000
 128479467.418 6 100113888.417 5  24448825.872    24448827.516    24448826.140
  24448826.992          41.250          34.500
 120414365.175 7  93829369.33044  22914087.254    22914087.250    22914088.407
                        42.250          25.250
 105418101.077 8  82143990.78746  20060388.633    20060388.066    20060389.809
                        48.000          41.750
 128776630.072 5 100345439.92141  24505377.574    24505378.196    24505377.685
                        35.000          10.750
 113843119.025 8  88708946.550 7  21663614.051    21663615.426    21663614.176
  21663615.986          48.500          45.250
 19  9 29 21 58  0.0000000  0  9G14G24G10G12G15G21G20G18G32
 123365314.300 6  96128805.27543  23475633.175    23475633.401    23475634.020
                        39.500          22.000
 112479917.272 8  87646720.240 7  21404207.792    21404209.686    21404208.181
  21404210.091          49.000          45.500
 107276650.364 8  83592212.459 8  20414058.799    20414060.248    20414059.129
  20414060.361          52.250          48.750
 124243230.816 7  96812911.681 5  23642694.210    23642694.722    23642694.661
  23642695.105          42.000          34.750
 128570082.916 6 100184497.849 5  24466069.209    24466070.016    24466069.463
  24466070.056          39.750          31.750
 120500601.232 6  93896566.24444  22930497.509    22930497.282    22930498.689
                        41.750          24.750
 105445612.946 8  82165428.60646  20065623.893    20065623.420    20065625.069
                        48.000          41.750
 128689146.129 6 100277270.64641  24488730.450    24488730.577    24488730.561
                        37.250          11.750
 113791045.238 8  88668369.593 7  21653704.629    21653706.042    21653704.758
  21653706.868          48.500          45.000
 19  9 29 21 58 30.0000000  0  9G14G24G10G12G15G21G20G18G32
 123296161.718 6  96074920.17743  23462474.101    23462473.255    23462474.914
                        39.500          21.500
 112548602.809 8  87700241.448 7  21417277.894    21417279.993    21417278.287
  21417280.453          49.250          45.500
 107242825.124 8  83565855.139 8  20407622.242    20407623.602    20407622.572
  20407623.502          51.750          48.750
 124171720.702 7  96757189.596 5  23629086.534    23629086.005    23629086.958
  23629086.761          42.000          35.500
 128660698.909 6 100255107.696 5  24483313.396    24483312.566    24483313.615
  24483313.026          40.750          32.000
 120587047.972 6  93963927.32044  22946947.848    22946947.438    22946949.041
                        41.500          25.000
 105473598.751 8  82187235.72947  20070949.203    20070948.944    20070950.379
                        48.000          42.000
 128602051.042 6 100209404.40842  24472156.047    24472157.058    24472156.261
                        37.000          12.500
 113739183.227 8  88627957.650 7  21643835.718    21643837.166    21643835.843
  21643837.467          48.250          44.750
 19  9 29 21 59  0.0000000  0  9G14G24G10G12G15G21G20G18G32
 123227157.058 6  96021150.38143  23449342.508    23449343.033    23449343.326
                        40.000          21.750
 112617722.833 8  87754101.208 7  21430431.205    21430433.168    21430431.611
  21430433.418          49.250          45.750
 107209374.334 8  83539789.593 8  20401256.565    20401258.015    20401256.895
  20401258.084          52.000          48.750
 124100524.707 7  96701712.293 6  23615538.220    23615538.241    23615538.649
  23615538.769          42.250          36.250
 128751314.655 6 100325717.368 5  24500556.859    24500556.189    24500557.060
  24500555.510          41.750          33.000
 120673702.741 7  94031450.50844  22963437.685    22963437.767    22963438.852
                        42.000          25.250
 105502058.572 8  82209412.21047  20076365.135    20076364.718    20076366.306
                        48.000          42.000
 128515347.158 6 100141842.94842  24455657.416    24455657.715    24455657.675
                        37.500          12.000
 113687532.992 8  88587710.741 7  21634006.741    21634008.504    21634006.857
  21634009.108          48.500          45.250
 19  9 29 21 59 30.0000000  0  9G14G24G10G12G15G21G20G18G32
 123158300.730 6  95967496.14343  23436239.849    23436240.021    23436240.662
                        40.250          21.500
 112687275.222 8  87808297.883 7  21443666.697    21443668.357    21443667.099
  21443668.862          48.750          45.250
 107176299.732 8  83514017.183 8  20394962.744    20394964.179    20394963.074
  20394964.252          51.750          49.000
 124029645.952 6  96646482.129 5  23602050.448    23602050.182    23602050.890
  23602050.428          41.750          35.500
 128841929.563 6 100396326.361 5  24517799.591    24517800.478    24517799.801
  24517800.197          39.750          33.250
 120760562.713 6  94099133.56744  22979966.413    22979966.784    22979967.584
                        41.750          25.000
 105530992.528 7  82231958.14847  20081870.966    20081870.645    20081872.137
                        47.500          42.000
 128429037.684 6 100074588.82341  24439232.411    24439233.691    24439232.800
                        37.250          11.000
 113636094.508 8  88547628.829 7  21624218.511    21624219.890    21624218.631
  21624220.615          48.500          44.750
                            4  1
RINEX FILE SPLICE; other post-header comments skipped       COMMENT
 19  9 29 22  0  0.0000000  0  9G14G24G10G12G15G21G20G18G32
 123089592.480 6  95913957.30043  23423164.683    23423165.220    23423165.523
                        40.250          22.250
 112757257.045 8  87862829.171 7  21456983.702    21456985.756    21456984.104
  21456985.900          49.000          45.750
 107143603.075 8  83488539.271 8  20388740.825    20388742.315    20388741.155
  20388742.065          51.750          49.000
 123959087.867 7  96591501.881 6  23588623.725    23588623.513    23588624.140
  23588623.991          43.000          36.500
 128932543.600 6 100466934.698 5  24535043.508    24535043.699    24535043.736
  24535044.704          39.250          33.250
 120847625.321 6  94166974.53444  22996533.775    22996534.338    22996534.955
                        41.750          25.000
 105560400.723 7  82254873.62246  20087467.118    20087466.733    20087468.289
                        47.750          41.750
 128343125.109 6 100007643.98642  24422884.115    24422884.853    24422884.495
                        36.750          13.000
 113584867.746 8  88507711.903 7  21614470.501    21614471.686    21614470.621
  21614472.510          48.500          45.000
 19  9 29 22  0 30.0000000  0  9G14G24G10G12G15G21G20G18G32
 123021032.299 6  95860533.82443  23410118.033    23410118.380    23410118.882
                        40.500          22.500
 112827665.969 8  87917693.275 7  21470381.991    21470384.057    21470382.388
  21470384.568          49.000          45.250
 107111286.086 8  83463357.211 8  20382591.145    20382592.519    20382591.475
  20382592.544          52.000          48.750
 123888853.617 7  96536773.960 5  23575258.533    23575258.616    23575258.957
  23575258.365          42.750          35.500
 129023156.268 6 100537541.923 5  24552286.498    24552287.366    24552286.748
  24552287.728          40.000          33.750
 120934888.189 6  94234971.54544  23013139.111    23013140.120    23013140.260
                        41.250          25.000
 105590283.348 8  82278158.78647  20093153.571    20093153.269    20093154.742
                        48.000          42.000
 128257612.120 6  99941010.48742  24406611.334    24406612.409    24406611.566
                        37.250          13.750
 113533852.693 8  88467959.931 7  21604762.693    21604763.914    21604762.813
  21604764.624          48.500          45.250
 19  9 29 22  1  0.0000000  0 10G14G24G10G12G15G21G20G18G31G32
 122952620.165 6  95807225.71743  23397099.549    23397099.882    23397100.434
                        39.750          22.000
 112898498.973 8  87972887.821 7  21483860.994    21483863.083    21483861.400
  21483863.337          49.500          45.250
 107079350.530 8  83438472.372 8  20376513.834    20376515.369    20376514.164
  20376515.138          52.250          48.750
 123818946.273 7  96482300.770 5  23561955.099    23561955.038    23561955.523
  23561955.683          44.000          35.750
 129113766.371 6 100608147.172 5  24569528.245    24569530.748    24569528.531
  24569529.156          39.750          32.000
 121022348.815 6  94303122.65944  23029782.418    23029783.213    23029783.576
                        41.500          24.000
 105620640.534 8  82301813.74146  20098930.652    20098930.001    20098931.819
                        48.250          41.750
 128172501.465 6  99874690.57442  24390414.598    24390416.223    24390414.870
                        38.500          13.000
                                                                  24727779.741
                        33.000
 113483049.328 8  88428372.912 7  21595094.961    21595096.436    21595095.090
  21595096.923          48.750          45.000
 19  9 29 22  1 30.0000000  0  9G14G24G10G12G15G21G20G18G32
 122884355.989 6  95754032.88143  23384109.746    23384109.183    23384110.591
                        40.500          22.250
 112969753.952 8  88028411.180 7  21497420.413    21497422.282    21497420.824
  21497422.951          49.000          45.250
 107047798.121 8  83413886.086 8  20370509.660    20370511.143    20370509.986
  20370511.058          52.000          49.000
 123749369.160 6  96428084.893 5  23548715.156    23548714.868    23548715.580
  23548716.117          41.750          34.750
 129204373.824 6 100678750.420 5  24586770.985    24586771.724    24586771.226
  24586772.626          39.750          30.250
 121110004.491 6  94371425.74644  23046462.999    23046463.040    23046464.152
                        40.750          24.250
 105651472.226 8  82325838.43947  20104797.265    20104797.088    20104798.436
                        48.250          42.250
 128087796.065 6  99808686.37642  24374296.167    24374297.003    24374296.359
                        37.250          13.750
 113432457.648 8  88388950.842 7  21585467.642    21585469.108    21585467.780
  21585469.557          48.750          45.000
 19  9 29 22  2  0.0000000  0  9G14G24G10G12G15G21G20G18G32
 122816239.551 6  95700955.19743  23371147.428    23371147.340    23371148.268
                        40.250          22.750
 113041427.860 8  88084260.988 7  21511059.637    21511061.437    21511060.034
  21511061.770          49.000          45.000
 107016630.590 8  83389599.707 8  20364578.531    20364580.162    20364578.861
  20364580.019          52.000          48.750
 123680125.422 7  96374128.775 6  23535538.517    23535538.624    23535538.937
  23535539.185          42.000          36.500
 129294978.287 6 100749351.284 4  24604012.422    24604012.248    24604012.641
  24604014.262          40.750          27.500
 121197852.506 6  94439878.72544  23063180.092    23063180.286    23063181.245
                        41.500          24.500
 105682778.581 8  82350233.00546  20110754.888    20110754.581    20110756.055
                        48.000          41.750
 128003498.334 6  99742999.86242  24358255.140    24358255.679    24358255.363
                        38.250          12.250
 113382077.629 8  88349693.707 7  21575880.605    21575882.017    21575880.748
  21575882.543          48.750          45.000
 19  9 29 22  2 30.0000000  0  9G14G24G10G12G15G21G20G18G32
 122748271.254 6  95647992.93543  23358212.991    23358213.865    23358213.818
                        40.750          23.000
 113113519.002 8  88140435.908 7  21524778.113    21524780.085    21524778.519
  21524780.606          49.250          45.000
 106985849.669 8  83365614.582 8  20358721.243    20358722.645    20358721.573
  20358722.866          52.500          49.000
 123611218.256 7  96320434.952 6  23522425.701    23522426.588    23522426.107
  23522426.005          42.750          36.000
 129385579.138 6 100819949.378 5  24621253.256    24621252.124    24621253.497
  24621252.983          39.500          31.000
 121285890.510 6  94508479.71644  23079932.765    23079933.797    23079933.990
                        41.750          24.000
 105714559.627 8  82374997.45546  20116802.541    20116802.183    20116803.708
                        48.500          41.500
 127919611.091 6  99677633.23142  24342291.617    24342292.129    24342291.912
                        38.750          13.750
 113331909.251 8  88310601.488 7  21566334.064    21566335.259    21566334.207
  21566335.777          49.000          45.500
 19  9 29 22  3  0.0000000  0 10G14G24G10G12G15G21G20G18G31G32
 122680450.893 6  95595145.93743  23345307.983    23345307.009    23345308.837
                        41.500          22.500
 113186024.156 8  88196933.432 7  21538575.591    21538577.401    21538575.997
  21538577.591          48.750          45.000
 106955457.053 8  83341932.043 8  20352937.897    20352939.214    20352938.227
  20352939.145          52.250          49.000
 123542650.922 7  96267005.914 6  23509377.786    23509377.803    23509378.206
  23509378.819          42.250          37.250
 129476175.818 6 100890544.183 5  24638493.129    24638492.867    24638493.433
  24638494.273          39.250          31.250
 121374115.825 6  94577226.68044  23096721.784    23096722.374    23096723.027
                        41.250          24.250
 105746815.106 8  82400131.59346  20122940.709    20122940.334    20122941.876
                        48.250          41.750
 127836137.200 6  99612588.65942  24326407.124    24326407.388    24326407.499
                        36.250          12.000
 129474042.965 5 100888872.26341  24638091.892    24638092.791    24638091.879
                        35.500           9.500
 113281952.505 8  88271674.168 7  21556827.234    21556828.845    21556827.386
  21556829.469          49.000          45.750
 19  9 29 22  3 30.0000000  0 10G14G24G10G12G15G21G20G18G31G32
 122612778.421 6  95542414.19443  23332430.123    23332430.011    23332430.986
                        40.750          22.500
 113258940.996 8  88253751.756 7  21552450.971    21552452.931    21552451.373
  21552453.262          49.000          44.750
 106925454.493 8  83318553.429 8  20347228.405    20347229.913    20347228.740
  20347229.751          52.000          48.750
 123474426.679 7  96213844.260 6  23496395.643    23496394.850    23496396.081
  23496395.937          43.750          36.000
 129566767.944 6 100961135.450 5  24655731.860    24655731.723    24655732.137
  24655732.994          39.500          30.500
 121462525.972 6  94646117.66944  23113545.805    23113546.210    23113547.012
                        40.750          24.250
 105779545.183 8  82425635.54746  20129169.014    20129168.535    20129170.190
                        48.250          41.750
 127753079.026 6  99547868.02642  24310601.449    24310601.660    24310601.891
                        38.250          13.500
 129356403.877 6 100797205.62642  24615705.419    24615705.841    24615705.236
                        36.250          12.250
 113232207.342 8  88232911.716 7  21547360.930    21547362.648    21547361.082
  21547363.125          49.000          45.500
 19  9 29 22  4  0.0000000  0 10G14G24G10G12G15G21G20G18G31G32
 122545253.778 6  95489797.61643  23319580.215    23319580.571    23319581.095
                        40.750          22.500
 113332266.090 8  88310888.200 7  21566404.382    21566406.129    21566404.779
  21566406.524          48.750          44.500
 106895843.642 8  83295480.050 8  20341593.701    20341595.047    20341594.036
  20341595.108          51.750          48.750
 123406548.619 7  96160952.328 6  23483478.867    23483478.796    23483479.318
  23483479.421          42.500          37.000
 129657355.252 6 101031722.950 5  24672970.936    24672970.642    24672971.204
  24672970.369          38.500          32.250
 121551118.125 6  94715150.47944  23130404.647    23130405.072    23130405.863
                        40.750          24.000
 105812749.872 8  82451509.33346  20135487.492    20135487.171    20135488.668
                        48.000          41.750
 127670439.640 6  99483473.76842  24294875.929    24294875.813    24294876.402
                        36.000          13.250
 129238844.583 5 100705615.098 5  24593335.690    24593335.784    24593335.561
  24593336.187          35.500          32.750
 113182673.768 8  88194314.144 7  21537935.118    21537936.767    21537935.265
  21537937.297          48.500          45.750
 19  9 29 22  4 30.0000000  0 10G14G24G10G12G15G21G20G18G31G32
 122477877.407 6  95437296.58643  23306758.909    23306759.410    23306759.803
                        39.500          22.500
 113405997.504 8  88368341.249 7  21580434.890    21580436.645    21580435.296
  21580437.127          49.000          44.750
 106866626.248 8  83272713.258 8  20336033.704    20336035.229    20336034.039
  20336035.178          52.000          49.000
 123339019.661 7  96108332.407 5  23470628.060    23470628.055    23470628.507
  23470628.203          43.750          35.750
 129747936.936 6 101102306.046 5  24690206.893    24690208.121    24690207.134
  24690208.703          39.250          32.250
 121639889.809 6  94784323.18744  23147296.998    23147297.830    23147298.223
                        40.500          24.000
 105846428.892 8  82477752.72346  20141896.464    20141896.204    20141897.640
                        48.000          41.750
 127588221.320 6  99419407.56642  24279230.192    24279230.876    24279230.643
                        36.000          14.500
 129121367.320 6 100614074.545 5  24570980.048    24570981.186    24570979.995
  24570980.811          37.500          33.000
 113133351.761 8  88155881.418 7  21528549.214    21528551.108    21528549.370
  21528551.471          48.500          45.500
 19  9 29 22  5  0.0000000  0 10G14G24G10G12G15G21G20G18G31G32
 122410648.647 6  95384910.58043  23293966.376    23293965.521    23293967.239
                        40.250          22.750
 113480132.659 8  88426108.893 7  21594542.165    21594544.095    21594542.576
  21594544.641          49.000          44.500
 106837803.979 8  83250254.357 8  20330548.987    20330550.511    20330549.317
  20330550.651          52.000          49.000
 123271843.069 7  96055987.083 6  23457844.696    23457844.402    23457845.134
  23457845.243          43.250          36.500
 129838512.673 6 101172884.531 5  24707444.475    24707444.419    24707444.707
  24707443.404          38.250          31.500
 121728838.312 6  94853633.66343  23164223.541    23164224.057    23164224.739
                        40.000          23.500
 105880582.518 8  82504365.93546  20148395.587    20148395.413    20148396.763
                        48.250          41.500
 127506426.784 6  99355671.60742  24263664.872    24263665.990    24263665.328
                        37.000          14.500
 129003974.755 6 100522599.955 5  24548640.565    24548642.623    24548640.485
  24548641.924          38.750          32.000
 113084241.308 8  88117613.546 7  21519204.352    21519205.645    21519204.508
  21519206.198          49.000          45.500
 19  9 29 22  5 30.0000000  0 11G14G24G10G12G25G15G21G20G18G31G32
 122343567.626 6  95332639.69543  23281200.747    23281200.988    23281201.592
                        40.750          23.000
 113554668.904 8  88484189.088 7  21608726.120    21608727.997    21608726.531
  21608728.219          48.500          44.750
 106809378.535 8  83228104.664 8  20325139.915    20325141.261    20325140.245
  20325141.306          52.000          48.750
 123205022.106 7  96003918.837 6  23445129.107    23445129.034    23445129.545
  23445129.481          42.500          36.250


 129929082.095 6 101243458.107 5  24724678.992    24724678.933    24724679.242
  24724680.066          36.500          32.250
 121817961.208 6  94923080.06043  23181183.232    23181182.887    23181184.443
                        40.500          22.500
 105915210.571 8  82531348.83247  20154985.164    20154984.849    20154986.340
                        48.250          42.000
 127425058.771 6  99292268.01442  24248180.965    24248182.183    24248181.434
                        36.750          15.500
 128886669.000 6 100431192.942 5  24526317.446    24526319.318    24526317.513
  24526317.638          39.000          31.500
 113035342.381 8  88079510.503 7  21509898.978    21509900.472    21509899.143
  21509900.869          49.000          45.750
