     2.11           OBSERVATION DATA    G (GPS)             RINEX VERSION / TYPE
teqc  2018Jun8      NGS Web             20191128 00:42:31UTCPGM / RUN BY / DATE
Linux 2.4.21-27.ELsmp|Opteron|gcc|Linux 64|=+               COMMENT
teqc  2019Feb25     CORS-ADM Account    20191031 19:06:54UTCCOMMENT
teqc  2019Feb25     NOAA/NOS/NGS/CORS   20190930 08:55:04UTCCOMMENT
BIT 2 OF LLI FLAGS DATA COLLECTED UNDER A/S CONDITION       COMMENT
 SNR is mapped to RINEX snr flag value [0-9]                COMMENT
  L1 & L2: min(max(int(snr_dBHz/6), 0), 9)                  COMMENT
teqc.e edited: all SBAS satellites excluded                 COMMENT
teqc.e edited: all QZSS satellites excluded                 COMMENT
pseudorange smoothing corrections not applied               COMMENT
rx serial #: 618-03100                                      COMMENT
Forced Modulo Decimation to 30 seconds                      COMMENT
LYCO                                                        MARKER NAME
Fran Jones          PA-081                                  OBSERVER / AGENCY
618-01994           TPS NET-G3A         4.7 Nov,23,2017 p6  REC # / TYPE / VERS
762-11000           TPSCR.G5        TPSH                    ANT # / TYPE
  1080274.0570 -4680045.2290  4182682.6660                  APPROX POSITION XYZ
        0.0000        0.0000        0.0000                  ANTENNA: DELTA H/E/N
     1     1                                                WAVELENGTH FACT L1/2
    11    L1    L2    L5    C1    P1    C2    P2    C5    S1# / TYPES OF OBSERV
          S2    S5                                          # / TYPES OF OBSERV
    30.0000                                                 INTERVAL
teqc.w windowed: start @ 2019 Sep 29 16:00:00.000           COMMENT
teqc.w windowed:  end  @ 2019 Sep 30 04:00:00.000           COMMENT
teqc.w edited: all GLONASS satellites excluded              COMMENT
teqc.w edited: all SBAS satellites excluded                 COMMENT
teqc.w edited: all Galileo satellites excluded              COMMENT
teqc.w edited: all Beidou satellites excluded               COMMENT
teqc.w edited: all QZSS satellites excluded                 COMMENT
  2019     9    29    16     0    0.0000000     GPS         TIME OF FIRST OBS
    18                                                      LEAP SECONDS
                                                            END OF HEADER
 19  9 29 16  0  0.0000000  0  8G12G09G06G13G25G29G05G02
 126582077.450 7  98635374.64545                  24087775.476    24087774.888
                  24087770.164                          44.000          31.0004

 129519535.284 7 100924320.19144                  24646747.844    24646748.327
                  24646744.827                          44.000          28.0004

 124735063.226 7  97196143.57945                  23736295.864    23736295.840
                  23736293.741                          45.000          35.0004

 123741586.515 7  96422010.24745                  23547236.661    23547236.432
                  23547232.264                          43.000          31.0004

 123238670.076 7  96030121.37745                  23451540.026    23451539.158
                  23451537.433                          45.000          31.0004

 116508937.902 8  90786184.47846                  22170912.107    22170911.951
                  22170906.319                          51.000          41.0004

 105954684.071 8  82562091.45648                  20162502.087    20162501.899
                  20162496.308                          53.000          49.0004

 111545511.994 8  86918579.66447                  21226402.549    21226401.713
                  21226394.144                          51.000          46.0004

 19  9 29 16  0 30.0000000  0  8G12G09G06G13G25G29G05G02
 126681224.822 7  98712632.29545                  24106642.096    24106641.842
                  24106637.302                          44.000          31.0004

 129601810.642 7 100988430.82244                  24662403.874    24662404.495
                  24662401.953                          42.000          28.0004

 124813581.232 7  97257326.41845                  23751237.679    23751237.783
                  23751234.743                          46.000          34.0004

 123634736.182 7  96338750.27145                  23526903.839    23526903.558
                  23526899.128                          45.000          31.0004

 123297283.899 7  96075794.44345                  23462693.784    23462692.867
                  23462691.205                          42.000          31.0004

 116428097.255 8  90723191.78047                  22155528.472    22155528.553
                  22155522.857                          52.000          42.0004

 105943988.268 8  82553757.06448                  20160466.813    20160466.402
                  20160460.940                          53.000          48.0004

 111563658.377 8  86932719.69347                  21229855.755    21229854.940
                  21229847.284                          50.000          46.0004

 19  9 29 16  1  0.0000000  0  8G12G09G06G13G25G29G05G02
 126780457.004 7  98789956.02745                  24125525.525    24125524.841
                  24125520.561                          44.000          30.0004

 129684447.353 7 101052823.03244                  24678129.261    24678129.903
                  24678126.831                          42.000          28.0004

 124892227.451 7  97318609.15245                  23766203.327    23766202.670
                  23766200.835                          43.000          33.0004

 123528019.117 7  96255594.14545                  23506596.340    23506596.052
                  23506591.843                          45.000          33.0004

 123356305.946 7  96121785.61345                  23473925.295    23473924.852
                  23473922.677                          43.000          31.0004

 116347605.540 8  90660470.98247                  22140211.510    22140211.274
                  22140205.660                          51.000          42.0004

 105933764.629 9  82545790.59248                  20158521.235    20158520.969
                  20158515.422                          54.000          48.0004

 111582042.315 8  86947044.83147                  21233354.195    21233353.308
                  21233345.605                          51.000          46.0004

 19  9 29 16  1 30.0000000  0  8G12G09G06G13G25G29G05G02
 126879770.027 7  98867342.75745                  24144424.259    24144423.701
                  24144419.095                          46.000          30.0004

 129767442.572 7 101117494.56944                  24693922.947    24693923.121
                  24693920.763                          43.000          29.0004

 124971001.312 7  97379991.32645                  23781193.062    23781192.096
                  23781191.525                          43.000          32.0004

 123421438.156 7  96172544.08345                  23486314.438    23486314.442
                  23486309.898                          43.000          32.0004

 123415733.127 7  96168092.47745                  23485234.254    23485233.646
                  23485231.372                          43.000          31.0004

 116267464.790 8  90598023.65746                  22124961.272    22124960.751
                  22124955.398                          52.000          41.0004

 105924012.261 9  82538191.34048                  20156665.473    20156665.476
                  20156659.544                          54.000          48.0004

 111600663.902 8  86961555.14847                  21236897.622    21236896.787
                  21236889.205                          51.000          46.0004

 19  9 29 16  2  0.0000000  0  8G12G09G06G13G25G29G05G02
 126979157.325 7  98944787.34845                  24163337.185    24163336.878
                  24163331.991                          46.000          31.0004

 129850789.821 7 101182440.46244                  24709783.458    24709783.972
                  24709780.850                          43.000          29.0004

 125049898.682 7  97441469.74945                  23796207.123    23796206.513
                  23796205.364                          44.000          34.0004

 123314992.706 7  96089599.58345                  23466058.913    23466058.540
                  23466053.858                          46.000          32.0004

 123475558.778 6  96214709.83845                  23496618.857    23496618.099
                  23496615.675                          41.000          31.0004

 116187673.829 8  90535848.89846                  22109777.328    22109776.977
                  22109771.674                          52.000          41.0004

 105914726.180 9  82530955.42748                  20154898.425    20154898.599
                  20154892.484                          54.000          49.0004

 111619519.774 8  86976248.02547                  21240486.139    21240484.974
                  21240477.127                          50.000          46.0004

 19  9 29 16  2 30.0000000  0  8G12G09G06G13G25G29G05G02
 127078618.644 7  99022289.63245                  24182264.106    24182263.913
                  24182258.883                          45.000          31.0004

 129934489.717 7 101247661.12644                  24725711.378    24725710.851
                  24725708.546                          43.000          28.0004

 125128922.270 7  97503046.54145                  23811244.594    23811244.091
                  23811243.072                          43.000          33.0004

 123208688.689 7  96006765.32045                  23445829.605    23445829.476
                  23445824.842                          45.000          31.0004

 123535783.070 7  96261637.83645                  23508079.072    23508078.684
                  23508076.310                          44.000          31.0004

 116108238.207 8  90473951.02147                  22094661.457    22094661.153
                  22094655.406                          52.000          42.0004

 105905908.938 9  82524084.84548                  20153220.524    20153220.632
                  20153214.502                          55.000          49.0004

 111638613.413 8  86991126.17447                  21244119.332    21244118.417
                  21244110.469                          51.000          45.0004

 19  9 29 16  3  0.0000000  0  8G12G09G06G13G25G29G05G02
 127178149.468 7  99099846.06845                  24201203.831    24201203.717
                  24201199.151                          44.000          30.0004

 130018538.294 7 101313153.49844                  24741705.379    24741705.337
                  24741702.676                          42.000          29.0004

 125208070.597 7  97564720.49445                  23826306.301    23826305.211
                  23826304.293                          44.000          33.0004

 123102527.990 7  95924042.72245                  23425627.830    23425627.611
                  23425622.884                          44.000          30.0004

 123596401.946 7  96308873.27745                  23519614.102    23519613.863
                  23519611.818                          44.000          31.0004

 116029159.060 8  90412330.92047                  22079613.143    22079613.130
                  22079606.999                          53.000          42.0004

 105897558.404 9  82517577.93348                  20151631.553    20151631.505
                  20151625.505                          55.000          49.0004

 111657943.846 8  87006188.84047                  21247797.677    21247796.748
                  21247789.094                          50.000          45.0004

 19  9 29 16  3 30.0000000  0  8G12G09G06G13G25G29G05G02
 127277750.914 7  99177457.54145                  24220157.522    24220157.107
                  24220152.683                          42.000          30.0004

 130102937.441 6 101378919.03844                  24757765.679    24757765.040
                  24757763.499                          40.000          27.0004

 125287347.646 7  97626494.77545                  23841392.331    23841392.688
                  23841390.379                          47.000          34.0004

 122996517.849 7  95841437.45244                  23405454.580    23405454.237
                  23405449.453                          43.000          29.0004

 123657416.945 7  96356417.40145                  23531225.580    23531224.644
                  23531222.232                          42.000          31.0004

 115950443.686 8  90350994.27347                  22064634.152    22064633.951
                  22064627.966                          52.000          42.0004

 105889678.600 9  82511437.82448                  20150131.909    20150132.025
                  20150126.107                          54.000          49.0004

 111677516.173 8  87021440.00147                  21251522.101    21251521.350
                  21251513.585                          51.000          46.0004

 19  9 29 16  4  0.0000000  0  8G12G09G06G13G25G29G05G02
 127377419.121 7  99255121.01945                  24239123.884    24239123.772
                  24239119.005                          44.000          30.0004

 130187683.423 7 101444954.82244                  24773892.784    24773892.172
                  24773889.755                          42.000          28.0004

 125366752.132 7  97688368.36145                  23856502.427    23856502.228
                  23856500.237                          44.000          33.0004

 122890660.422 7  95758951.18544                  23385310.423    23385310.451
                  23385305.579                          42.000          28.0004

 123718824.061 7  96404267.06945                  23542910.599    23542909.967
                  23542907.915                          44.000          31.0004

 115872093.377 8  90289942.09947                  22049724.388    22049724.110
                  22049718.447                          51.000          42.0004

 105882267.368 8  82505662.83748                  20148721.740    20148721.757
                  20148715.833                          53.000          49.0004

 111697329.808 8  87036879.18747                  21255292.652    21255291.820
                  21255283.967                          50.000          46.0004

 19  9 29 16  4 30.0000000  0  8G12G09G06G13G25G29G05G02
 127477146.857 7  99332830.89744                  24258100.818    24258100.911
                  24258096.512                          42.000          29.0004

 130272770.527 7 101511256.43344                  24790084.105    24790082.964
                  24790081.800                          42.000          28.0004

 125446280.598 7  97750338.53345                  23871636.074    23871635.662
                  23871633.874                          46.000          32.0004

 122784955.650 7  95676583.86244                  23365195.599    23365195.403
                  23365190.484                          44.000          28.0004

 123780617.333 7  96452417.63745                  23554669.649    23554668.864
                  23554666.564                          44.000          31.0004

 115794107.467 8  90229173.87547                  22034884.061    22034883.878
                  22034878.179                          53.000          42.0004

 105875320.453 9  82500249.65348                  20147399.780    20147399.910
                  20147393.874                          54.000          49.0004

 111717382.034 8  87052504.28447                  21259108.446    21259107.545
                  21259099.620                          49.000          45.0004

 19  9 29 16  5  0.0000000  0  8G12G09G06G13G25G29G05G02
 127576934.559 7  99410587.47244                  24277090.243    24277089.918
                  24277085.487                          42.000          29.0004

 130358199.276 7 101577824.22444                  24806340.554    24806340.089
                  24806338.448                          44.000          28.0004

 125525935.876 7  97812407.53145                  23886794.087    23886793.961
                  23886792.334                          46.000          33.0004

 122679409.438 7  95594340.09344                  23345110.715    23345110.690
                  23345106.053                          44.000          29.0004

 123842796.950 7  96500869.25645                  23566501.742    23566501.167
                  23566499.560                          44.000          32.0004

 115716491.921 8  90168694.23947                  22020114.465    22020114.254
                  22020108.330                          52.000          42.0004

 105868840.911 9  82495200.65748                  20146166.819    20146166.917
                  20146160.852                          56.000          49.0004

 111737676.338 8  87068318.02047                  21262970.352    21262969.357
                  21262961.420                          51.000          45.0004

 19  9 29 16  5 30.0000000  0  9G12G15G09G06G13G25G29G05G02
 127676777.509 7  99488387.08245                  24296089.859    24296089.937
                  24296085.648                          43.000          30.0004

 132483035.763 6 103233525.74543                  25210682.939    25210683.021
                  25210678.907                          41.000          23.0004

 130443965.218 6 101644654.82144                  24822660.830    24822660.299
                  24822658.061                          41.000          26.0004

 125605715.758 7  97874573.64745                  23901975.357    23901974.890
                  23901973.913                          43.000          32.0004

 122574023.618 7  95512221.32644                  23325056.202    23325055.924
                  23325051.425                          43.000          28.0004

 123905358.223 7  96549618.25545                  23578406.558    23578406.140
                  23578404.375                          43.000          32.0004

 115639247.178 8  90108503.53947                  22005415.268    22005415.214
                  22005408.997                          53.000          42.0004

 105862825.162 9  82490513.05648                  20145021.989    20145022.038
                  20145016.028                          54.000          49.0004

 111758211.572 8  87084319.49447                  21266878.019    21266877.126
                  21266869.219                          51.000          45.0004

 19  9 29 16  6  0.0000000  0  9G12G15G09G06G13G25G29G05G02
 127776669.747 7  99566225.11045                  24315098.615    24315098.987
                  24315094.620                          44.000          30.0004

 132363668.896 7 103140512.62844                  25187968.057    25187967.689
                  25187964.193                          42.000          28.0004

 130530063.411 6 101711744.28044                  24839045.349    24839044.430
                  24839042.679                          41.000          28.0004

 125685617.730 7  97936834.84645                  23917180.230    23917179.001
                  23917178.561                          42.000          31.0004

 122468798.206 7  95430227.51845                  23305032.609    23305032.753
                  23305028.247                          43.000          30.0004

 123968295.856 7  96598660.53345                  23590383.760    23590382.921
                  23590380.913                          44.000          32.0004

 115562373.570 8  90048602.03047                  21990786.813    21990786.429
                  21990780.314                          53.000          42.0004

 105857270.249 9  82486184.55248                  20143965.008    20143964.887
                  20143958.905                          54.000          49.0004

 111778985.722 8  87100507.13447                  21270831.466    21270830.528
                  21270822.489                          51.000          45.0004

 19  9 29 16  6 30.0000000  0  9G12G15G09G06G13G25G29G05G02
 127876610.679 7  99644101.07545                  24334117.239    24334116.822
                  24334112.662                          44.000          31.0004

 132244251.024 6 103047459.78344                  25165243.205    25165243.366
                  25165240.147                          41.000          25.0004

 130616493.553 6 101779092.37444                  24855492.856    24855491.854
                  24855489.612                          40.000          27.0004

 125765643.753 7  97999192.72845                  23932409.080    23932408.792
                  23932406.909                          43.000          32.0004

 122363738.739 7  95348363.05045                  23285040.734    23285040.513
                  23285035.865                          44.000          31.0004

 124031609.257 7  96647995.62545                  23602431.796    23602431.359
                  23602429.026                          44.000          32.0004

 115485875.976 8  89988993.52446                  21976229.423    21976229.151
                  21976223.342                          52.000          41.0004

 105852178.111 9  82482216.65048                  20142996.058    20142995.944
                  20142989.905                          54.000          48.0004

 111800001.499 8  87116883.05947                  21274830.486    21274829.690
                  21274821.746                          50.000          45.0004

 19  9 29 16  7  0.0000000  0  9G12G15G09G06G13G25G29G05G02
 127976594.658 7  99722010.60145                  24353143.925    24353143.121
                  24353138.528                          46.000          31.0004

 132124782.282 7 102954367.26244                  25142509.693    25142509.155
                  25142505.816                          42.000          24.0004

 130703250.636 7 101846695.26344                  24872001.995    24872001.328
                  24871999.321                          43.000          28.0004

 125845791.050 7  98061645.13245                  23947660.225    23947659.817
                  23947658.855                          43.000          32.0004

 122258846.057 7  95266628.51545                  23265080.536    23265080.436
                  23265075.679                          46.000          32.0004

 124095293.087 7  96697619.34545                  23614550.513    23614549.858
                  23614548.163                          44.000          32.0004

 115409754.571 8  89929678.15746                  21961744.021    21961743.631
                  21961737.866                          52.000          41.0004

 105847545.319 8  82478606.68648                  20142114.306    20142114.292
                  20142108.371                          53.000          48.0004

 111821257.279 8  87133445.99947                  21278875.289    21278874.691
                  21278866.624                          51.000          45.0004

 19  9 29 16  7 30.0000000  0  9G12G15G09G06G13G25G29G05G02
 128076617.941 7  99799950.76845                  24372177.208    24372177.499
                  24372172.256                          46.000          31.0004

 132005264.522 6 102861236.56744                  25119766.065    25119765.613
                  25119762.211                          41.000          24.0004

 130790331.663 6 101914550.54844                  24888572.859    24888572.349
                  24888570.403                          40.000          27.0004

 125926059.032 7  98124191.52045                  23962934.987    23962935.149
                  23962933.618                          42.000          31.0004

 122154122.958 7  95185026.12645                  23245152.097    23245152.076
                  23245147.349                          46.000          33.0004

 124159344.033 7  96747529.14545                  23626738.732    23626738.188
                  23626736.543                          44.000          32.0004

 115334011.514 8  89870657.60147                  21947330.739    21947330.446
                  21947324.628                          52.000          42.0004

 105843370.496 8  82475353.57648                  20141319.931    20141319.811
                  20141313.957                          53.000          48.0004

 111842752.909 8  87150195.83047                  21282965.913    21282965.045
                  21282957.093                          50.000          45.0004

 19  9 29 16  8  0.0000000  0  9G12G15G09G06G13G25G29G05G02
 128176676.693 7  99877918.55545                  24391218.302    24391218.115
                  24391213.354                          46.000          32.0004

 131885699.154 7 102768068.74143                  25097013.312    25097013.470
                  25097010.015                          42.000          23.0004

 130877732.792 7 101982655.26144                  24905204.842    24905204.690
                  24905201.942                          42.000          27.0004

 126006446.145 7  98186830.77045                  23978232.755    23978232.233
                  23978230.333                          44.000          32.0004

 122049571.026 7  95103557.11045                  23225256.708    23225256.859
                  23225251.840                          45.000          33.0004

 124223757.934 7  96797721.75545                  23638996.600    23638996.025
                  23638994.112                          42.000          33.0004

 115258648.052 8  89811932.82947                  21932989.749    21932989.378
                  21932983.595                          52.000          43.0004

 105839651.471 8  82472455.63648                  20140612.005    20140612.135
                  20140606.168                          53.000          49.0004

 111864487.664 8  87167131.99947                  21287101.819    21287101.048
                  21287093.180                          51.000          45.0004

 19  9 29 16  8 30.0000000  0  9G12G15G09G06G13G25G29G05G02
 128276769.989 7  99955913.28345                  24410265.160    24410265.095
                  24410260.073                          44.000          30.0004

 131766091.156 6 102674867.72644                  25074253.135    25074252.910
                  25074248.787                          41.000          24.0004

 130965454.061 7 102051009.47244                  24921897.758    24921897.741
                  24921895.067                          42.000          26.0004

 126086954.663 7  98249564.64045                  23993552.509    23993552.283
                  23993550.333                          44.000          31.0004

 121945196.041 7  95022225.98145                  23205394.971    23205394.958
                  23205389.886                          44.000          33.0004

 124288534.457 7  96848196.92645                  23651323.405    23651322.714
                  23651320.536                          43.000          33.0004

 115183669.376 8  89753507.89747                  21918721.637    21918721.219
                  21918715.540                          50.000          42.0004

 105836390.048 8  82469914.26648                  20139991.759    20139991.596
                  20139985.547                          53.000          48.0004

 111886464.979 8  87184257.17147                  21291283.848    21291283.000
                  21291275.441                          50.000          45.0004

 19  9 29 16  9  0.0000000  0  9G12G15G09G06G13G25G29G05G02
 128376894.141 7 100033932.05645                  24429318.276    24429318.131
                  24429312.666                          45.000          30.0004

 131646442.404 7 102581634.95544                  25051483.716    25051484.300
                  25051480.345                          42.000          24.0004

 131053492.265 7 102119610.60744                  24938650.786    24938650.932
                  24938648.754                          42.000          28.0004

 126167583.841 7  98312392.51845                  24008895.857    24008895.382
                  24008893.527                          44.000          32.0004

 121841000.599 7  94941034.75945                  23185566.792    23185566.999
                  23185562.154                          46.000          33.0004

 124353670.144 7  96898951.97645                  23663717.981    23663717.686
                  23663715.504                          44.000          32.0004

 115109077.770 8  89695384.58147                  21904527.106    21904526.869
                  21904521.349                          53.000          42.0004

 105833584.481 9  82467728.10748                  20139457.658    20139457.640
                  20139451.706                          54.000          48.0004

 111908684.578 8  87201571.14347                  21295512.318    21295511.143
                  21295503.712                          50.000          45.0004

 19  9 29 16  9 30.0000000  0  9G12G15G09G06G13G25G29G05G02
 128477047.813 7 100111973.81844                  24448376.721    24448376.597
                  24448371.150                          46.000          28.0004

 131526756.792 7 102488373.46544                  25028708.558    25028709.300
                  25028704.921                          42.000          24.0004

 131141846.192 7 102188457.78644                  24955463.399    24955464.173
                  24955461.669                          42.000          27.0004

 126248334.742 7  98375315.23745                  24024262.069    24024261.986
                  24024260.562                          44.000          31.0004

 121736989.024 7  94859986.82545                  23165774.012    23165774.004
                  23165769.196                          45.000          32.0004

 124419163.411 7  96949985.64945                  23676180.819    23676180.719
                  23676178.820                          43.000          32.0004

 115034876.699 8  89637565.57847                  21890407.105    21890406.885
                  21890401.526                          53.000          42.0004

 105831235.750 9  82465897.92648                  20139010.663    20139010.718
                  20139004.757                          54.000          49.0004

 111931148.407 8  87219075.41347                  21299787.046    21299785.745
                  21299778.536                          51.000          46.0004

 19  9 29 16 10  0.0000000  0  9G12G15G09G06G13G25G29G05G02
 128577227.170 7 100190035.62744                  24467439.863    24467440.222
                  24467435.306                          44.000          26.0004

 131407036.515 7 102395084.99443                  25005926.661    25005927.159
                  25005922.340                          42.000          23.0004

 131230512.831 6 102257548.64744                  24972336.649    24972336.169
                  24972334.732                          41.000          25.0004

 126329206.661 7  98438332.27045                  24039652.095    24039652.494
                  24039650.111                          45.000          33.0004

 121633164.200 7  94779084.41745                  23146016.391    23146016.529
                  23146011.879                          45.000          32.0004

 124485010.899 7  97001295.34245                  23688711.568    23688710.996
                  23688709.120                          43.000          32.0004

 114961068.687 8  89580052.84847                  21876361.995    21876361.883
                  21876356.294                          52.000          43.0004

 105829342.292 9  82464422.50448                  20138650.356    20138650.449
                  20138644.384                          54.000          48.0004

 111953856.331 8  87236769.88647                  21304108.093    21304106.950
                  21304099.736                          49.000          45.0004

 19  9 29 16 10 30.0000000  0  9G12G15G09G06G13G25G29G05G02
 128677428.781 7 100268114.74244                  24486507.956    24486507.586
                  24486502.759                          43.000          25.0004

 131287283.553 6 102301771.08843                  24983137.704    24983138.313
                  24983134.058                          38.000          21.0004

 131319489.420 6 102326880.99144                  24989268.026    24989268.084
                  24989266.504                          41.000          27.0004

 126410199.200 7  98501443.29945                  24055064.259    24055064.423
                  24055062.867                          43.000          33.0004

 121529529.260 7  94698329.98545                  23126295.647    23126295.567
                  23126290.571                          45.000          32.0004

 124551209.558 7  97052878.67545                  23701308.121    23701307.647
                  23701306.267                          43.000          30.0004

 114887656.115 8  89522848.25647                  21862392.244    21862391.851
                  21862386.355                          53.000          43.0004

 105827903.221 8  82463301.15348                  20138376.610    20138376.626
                  20138370.538                          53.000          49.0004

 111976809.157 8  87254655.19347                  21308475.921    21308474.899
                  21308467.495                          51.000          45.0004

 19  9 29 16 11  0.0000000  0  9G12G15G09G06G13G25G29G05G02
 128777654.687 6 100346212.81844                  24505579.870    24505579.560
                  24505575.667                          41.000          24.0004

 131167505.347 6 102208437.55743                  24960345.039    24960345.088
                  24960341.308                          38.000          22.0004

 131408778.021 6 102396456.43744                  25006259.448    25006258.793
                  25006257.887                          41.000          27.0004

 126491316.703 7  98564651.66245                  24070500.136    24070499.495
                  24070498.709                          42.000          31.0004

 121426091.689 7  94617729.34245                  23106612.014    23106611.823
                  23106607.267                          45.000          33.0004

 124617760.946 7  97104736.86745                  23713972.558    23713972.134
                  23713970.485                          42.000          30.0004

 114814645.886 8  89465957.17947                  21848498.604    21848498.363
                  21848492.878                          51.000          42.0004

 105826922.086 8  82462536.63248                  20138189.788    20138189.947
                  20138183.862                          53.000          49.0004

 112000011.684 8  87272735.07247                  21312891.142    21312890.332
                  21312882.820                          50.000          46.0004

 19  9 29 16 11 30.0000000  0  9G12G15G09G06G13G25G29G05G02
 128877895.295 7 100424322.30744                  24524655.520    24524654.857
                  24524651.232                          42.000          25.0004

 131047697.891 6 102115081.24944                  24937545.710    24937546.760
                  24937542.843                          40.000          24.0004

 131498369.661 6 102466268.09544                  25023308.325    25023307.297
                  25023306.177                          40.000          24.0004

 126572552.585 7  98627952.28545                  24085959.074    24085959.233
                  24085958.246                          43.000          33.0004

 121322848.067 7  94537279.82545                  23086965.291    23086965.187
                  23086960.205                          45.000          32.0004

 124684655.873 7  97156862.74845                  23726702.501    23726701.780
                  23726700.230                          43.000          30.0004

 114742034.633 8  89409376.99947                  21834681.140    21834680.798
                  21834675.271                          52.000          43.0004

 105826391.591 9  82462123.26048                  20138088.892    20138088.903
                  20138082.936                          54.000          49.0004

 112023458.151 8  87291005.04147                  21317352.892    21317352.084
                  21317344.528                          51.000          46.0004

 19  9 29 16 12  0.0000000  0  9G12G15G09G06G13G25G29G05G02
 128978148.112 7 100502441.32144                  24543732.784    24543733.044
                  24543728.730                          44.000          26.0004

 130927864.490 7 102021704.72944                  24914742.372    24914743.428
                  24914739.058                          45.000          27.0004

 131588262.339 6 102536314.28844                  25040413.521    25040412.797
                  25040412.762                          38.000          25.0004

 126653907.099 7  98691345.33445                  24101440.860    24101440.827
                  24101439.544                          45.000          33.0004

 121219802.299 7  94456984.48645                  23067356.282    23067356.031
                  23067351.268                          44.000          32.0004

 124751891.877 7  97209254.39944                  23739496.942    23739496.352
                  23739494.907                          42.000          29.0004

 114669825.299 8  89353109.99247                  21820940.352    21820939.939
                  21820934.290                          53.000          43.0004

 105826311.208 8  82462060.62248                  20138073.566    20138073.512
                  20138067.626                          53.000          49.0004

 112047149.616 8  87309465.91447                  21321861.352    21321860.585
                  21321852.649                          50.000          45.0004

 19  9 29 16 12 30.0000000  0  9G12G15G09G06G13G25G29G05G02
 129078407.772 7 100580565.63844                  24562812.603    24562812.278
                  24562807.137                          43.000          28.0004

 130808005.103 7 101928307.94044                  24891934.181    24891935.188
                  24891930.373                          44.000          28.0004

 131678451.102 6 102606591.17444                  25057576.693    25057575.814
                  25057575.067                          41.000          26.0004

 126735377.701 7  98754828.85345                  24116944.179    24116943.962
                  24116942.678                          45.000          33.0004

 121116955.619 7  94376844.27645                  23047785.108    23047785.022
                  23047780.204                          44.000          32.0004

 124819463.738 6  97261907.75844                  23752355.375    23752354.776
                  23752353.367                          41.000          29.0004

 114598017.980 8  89297156.24147                  21807275.923    21807275.542
                  21807269.818                          53.000          44.0004

 105826678.368 9  82462346.71748                  20138143.400    20138143.469
                  20138137.538                          54.000          49.0004

 112071084.615 8  87328116.55447                  21326416.058    21326415.298
                  21326407.464                          51.000          46.0004

 19  9 29 16 13  0.0000000  0  9G12G15G09G06G13G25G29G05G02
 129178675.002 7 100658695.87844                  24581892.362    24581892.301
                  24581887.391                          45.000          28.0004

 130688126.223 7 101834895.93644                  24869121.581    24869122.896
                  24869118.345                          43.000          28.0004

 131768937.223 6 102677099.81944                  25074795.819    25074794.672
                  25074793.893                          39.000          25.0004

 126816968.041 7  98818405.69045                  24132470.459    24132470.345
                  24132467.751                          43.000          32.0004

 121014314.450 7  94296864.21145                  23028253.330    23028252.746
                  23028248.185                          44.000          32.0004

 124887372.309 7  97314823.47844                  23765277.978    23765277.319
                  23765276.014                          42.000          29.0004

 114526619.218 8  89241520.84547                  21793689.063    21793688.703
                  21793683.098                          53.000          44.0004

 105827495.603 8  82462983.52348                  20138298.921    20138299.056
                  20138293.082                          53.000          49.0004

 112095267.138 8  87346960.07547                  21331017.788    21331016.945
                  21331009.083                          51.000          45.0004

 19  9 29 16 13 30.0000000  0  9G12G15G09G06G13G25G29G05G02
 129278947.730 7 100736830.40845                  24600973.658    24600973.835
                  24600969.324                          44.000          31.0004

 130568230.800 7 101741471.02244                  24846306.897    24846307.415
                  24846302.549                          42.000          26.0004

 131859718.806 6 102747838.67144                  25092070.672    25092070.186
                  25092068.602                          41.000          25.0004

 126898678.436 7  98882076.06545                  24148019.552    24148019.822
                  24148018.151                          44.000          33.0004

 120911882.555 7  94217047.20145                  23008761.158    23008760.537
                  23008755.816                          46.000          32.0004

 124955615.266 7  97367999.76544                  23778264.654    23778263.708
                  23778262.020                          42.000          29.0004

 114455632.272 8  89186206.35847                  21780180.775    21780180.248
                  21780174.651                          53.000          43.0004

 105828762.621 9  82463970.80248                  20138540.128    20138540.127
                  20138534.212                          54.000          49.0004

 112119698.626 8  87365997.59247                  21335666.724    21335666.104
                  21335658.268                          53.000          45.0004

 19  9 29 16 14  0.0000000  0  9G12G15G09G06G13G25G29G05G02
 129379223.589 7 100814967.36745                  24620055.866    24620055.539
                  24620050.833                          45.000          31.0004

 130448322.530 7 101648036.08344                  24823488.476    24823489.159
                  24823484.778                          44.000          27.0004

 131950793.998 6 102818806.30844                  25109401.605    25109401.455
                  25109399.732                          41.000          27.0004

 126980509.446 7  98945840.44445                  24163591.262    24163591.141
                  24163590.299                          43.000          33.0004

 120809664.260 7  94137396.63445                  22989309.487    22989309.118
                  22989304.289                          47.000          32.0004

 125024190.473 7  97421434.95444                  23791314.017    23791313.323
                  23791311.246                          43.000          29.0004

 114385060.690 9  89131215.53347                  21766751.460    21766750.902
                  21766745.175                          54.000          43.0004

 105830479.494 8  82465308.62348                  20138866.790    20138866.737
                  20138860.901                          53.000          49.0004

 112144380.327 8  87385230.07647                  21340363.748    21340363.003
                  21340354.970                          52.000          45.0004

 19  9 29 16 14 30.0000000  0  9G12G15G09G06G13G25G29G05G02
 129479496.454 7 100893102.00645                  24639137.468    24639137.305
                  24639132.643                          46.000          32.0004

 130328400.520 7 101554590.42544                  24800668.672    24800668.349
                  24800664.306                          44.000          27.0004

 132042157.163 6 102889998.36044                  25126787.918    25126787.260
                  25126784.827                          39.000          24.0004

 127062457.815 7  99009696.22345                  24179184.935    24179184.430
                  24179183.713                          43.000          30.0004

 120707659.666 7  94057912.58345                  22969898.783    22969898.558
                  22969893.570                          46.000          33.0004

 125093091.769 7  97475124.25144                  23804425.859    23804424.891
                  23804422.965                          42.000          29.0004

 114314903.647 8  89076547.72047                  21753400.963    21753400.614
                  21753394.748                          52.000          43.0004

 105832641.546 9  82466993.33448                  20139278.296    20139278.255
                  20139272.348                          54.000          49.0004

 112169309.831 8  87404655.65447                  21345107.662    21345106.922
                  21345098.857                          51.000          46.0004

 19  9 29 16 15  0.0000000  0  9G12G15G09G06G13G25G29G05G02
 129579766.355 7 100971234.33345                  24658218.040    24658217.718
                  24658213.018                          45.000          31.0004

 130208470.675 7 101461138.66544                  24777846.555    24777846.121
                  24777842.047                          43.000          26.0004

 132133808.657 6 102961415.06444                  25144228.899    25144228.437
                  25144225.196                          41.000          24.0004

 127144526.111 7  99073645.47245                  24194802.895    24194802.501
                  24194801.019                          43.000          31.0004

 120605874.518 7  93978599.52145                  22950529.683    22950529.249
                  22950524.359                          47.000          34.0004

 125162319.240 7  97529067.70444                  23817599.675    23817598.553
                  23817596.434                          43.000          29.0004

 114245166.801 8  89022207.33047                  21740130.496    21740130.223
                  21740124.165                          52.000          43.0004

 105835250.937 8  82469026.61848                  20139774.774    20139774.791
                  20139768.925                          53.000          49.0004

 112194490.700 8  87424277.10947                  21349899.386    21349898.651
                  21349890.693                          50.000          46.0004

 19  9 29 16 15 30.0000000  0  9G12G15G09G06G13G25G29G05G02
 129680028.047 7 101049360.27645                  24677297.188    24677296.797
                  24677292.309                          46.000          30.0004

 130088532.978 6 101367680.76444                  24755022.880    24755022.565
                  24755018.501                          41.000          24.0004

 132225743.427 6 103033052.56444                  25161723.090    25161723.439
                  25161719.630                          41.000          24.0004

 127226711.690 7  99137686.14145                  24210442.229    24210441.713
                  24210440.728                          42.000          32.0004

 120504309.618 7  93899458.08845                  22931202.352    22931202.216
                  22931197.260                          46.000          33.0004

 125231867.365 6  97583261.02144                  23830833.672    23830833.346
                  23830831.460                          41.000          29.0004

 114175850.131 8  88968194.34747                  21726940.061    21726939.523
                  21726933.808                          53.000          43.0004

 105838304.545 9  82471406.04848                  20140355.958    20140355.884
                  20140350.044                          54.000          49.0004

 112219921.052 8  87444092.95147                  21354738.670    21354737.793
                  21354730.016                          51.000          45.0004

 19  9 29 16 16  0.0000000  0  9G12G15G09G06G13G25G29G05G02
 129780279.506 7 101127478.23044                  24696374.428    24696374.564
                  24696369.712                          45.000          29.0004

 129968590.982 6 101274219.49243                  24732198.256    24732197.800
                  24732194.466                          40.000          21.0004

 132317960.202 6 103104909.76943                  25179271.040    25179271.482
                  25179267.768                          39.000          23.0004

 127309015.575 6  99201818.95245                  24226103.758    24226102.877
                  24226102.999                          41.000          30.0004

 120402969.327 7  93820491.65245                  22911918.170    22911918.130
                  22911912.511                          46.000          34.0004

 125301734.424 7  97637702.84344                  23844128.901    23844128.610
                  23844126.681                          42.000          29.0004

 114106957.570 8  88914511.84147                  21713830.043    21713829.662
                  21713823.944                          52.000          44.0004

 105841803.001 9  82474132.11348                  20141021.735    20141021.602
                  20141015.786                          54.000          49.0004

 112245602.204 8  87464104.21947                  21359625.586    21359624.679
                  21359617.078                          52.000          45.0004

 19  9 29 16 16 30.0000000  0  9G12G15G09G06G13G25G29G05G02
 129880518.083 7 101205586.14444                  24715448.726    24715448.628
                  24715444.798                          43.000          27.0004

 129848647.837 6 101180757.32943                  24709374.058    24709373.873
                  24709370.437                          40.000          22.0004

 132410456.544 6 103176984.79544                  25196872.967    25196873.014
                  25196870.054                          41.000          25.0004

 127391437.713 7  99266043.89945                  24241788.466    24241788.522
                  24241787.330                          44.000          31.0004

 120301857.024 7  93741702.88145                  22892676.988    22892677.320
                  22892671.496                          47.000          34.0004

 125371917.654 7  97692391.03445                  23857484.708    23857483.945
                  23857482.047                          42.000          30.0004

 114038491.927 9  88861162.00347                  21700801.474    21700801.030
                  21700795.468                          54.000          44.0004

 105845745.107 8  82477203.87948                  20141771.933    20141771.721
                  20141765.894                          53.000          49.0004

 112271535.356 8  87484311.84947                  21364560.515    21364559.707
                  21364552.049                          51.000          45.0004

 19  9 29 16 17  0.0000000  0  9G12G15G09G06G13G25G29G05G02
 129980741.200 7 101283682.01044                  24734521.459    24734520.645
                  24734516.137                          44.000          27.0004

 129728706.509 7 101087296.57944                  24686549.906    24686550.267
                  24686546.052                          43.000          26.0004

 132503230.263 7 103249275.98944                  25214527.293    25214527.412
                  25214523.707                          42.000          24.0004

 127473978.205 7  99330361.10245                  24257495.607    24257495.314
                  24257493.918                          42.000          30.0004

 120200976.432 7  93663094.64345                  22873480.062    22873480.247
                  22873474.663                          46.000          34.0004

 125442414.462 7  97747323.57445                  23870899.537    23870899.022
                  23870897.498                          43.000          30.0004

 113970455.884 8  88808146.91047                  21687854.746    21687854.323
                  21687848.478                          51.000          44.0004

 105850130.399 9  82480620.98648                  20142606.458    20142606.296
                  20142600.386                          54.000          49.0004

 112297721.467 8  87504716.60947                  21369543.515    21369542.558
                  21369535.253                          51.000          45.0004

 19  9 29 16 17 30.0000000  0  9G12G15G09G06G13G25G29G05G02
 130080944.416 7 101361762.38944                  24753588.936    24753588.684
                  24753584.118                          43.000          26.0004

 129608768.131 7 100993838.13044                  24663727.060    24663726.612
                  24663722.542                          43.000          27.0004

 132596277.069 6 103321779.96844                  25232233.281    25232233.080
                  25232231.037                          39.000          25.0004

 127556635.285 6  99394769.16244                  24273224.165    24273223.262
                  24273222.536                          41.000          28.0004

 120100329.022 7  93584668.12045                  22854327.386    22854327.407
                  22854321.808                          47.000          34.0004

 125513220.157 7  97802496.80144                  23884374.055    23884373.119
                  23884371.292                          43.000          29.0004

 113902850.622 8  88755467.48347                  21674989.813    21674989.397
                  21674983.750                          52.000          43.0004

 105854955.887 9  82484381.10248                  20143524.697    20143524.638
                  20143518.654                          55.000          49.0004

 112324159.396 8  87525317.58447                  21374574.572    21374573.681
                  21374566.204                          52.000          45.0004

 19  9 29 16 18  0.0000000  0  9G12G15G09G06G13G25G29G05G02
 130181125.335 7 101439825.33844                  24772652.800    24772652.500
                  24772647.755                          42.000          24.0004

 129488835.771 7 100900384.37644                  24640904.299    24640904.180
                  24640900.291                          44.000          28.0004

 132689595.139 6 103394495.27643                  25249990.911    25249990.280
                  25249989.071                          41.000          22.0004

 127639409.141 7  99459268.18644                  24288975.896    24288975.501
                  24288974.507                          43.000          29.0004

 119999918.556 7  93506426.22545                  22835219.919    22835219.530
                  22835214.534                          46.000          34.0004

 125584332.386 7  97857908.89845                  23897905.679    23897905.241
                  23897903.750                          42.000          30.0004

 113835679.098 8  88703126.03947                  21662207.437    21662206.984
                  21662201.402                          52.000          43.0004

 105860220.904 8  82488483.70648                  20144526.502    20144526.331
                  20144520.550                          53.000          49.0004

 112350849.984 8  87546115.43247                  21379653.557    21379652.801
                  21379645.222                          50.000          46.0004

 19  9 29 16 18 30.0000000  0  9G12G15G09G06G13G25G29G05G02
 130281276.483 6 101517865.15044                  24791711.172    24791710.669
                  24791706.166                          41.000          24.0004

 129368907.398 7 100806933.70145                  24618082.886    24618082.623
                  24618078.623                          45.000          30.0004

 132783177.123 6 103467416.30143                  25267800.118    25267798.873
                  25267797.277                          41.000          23.0004

 127722294.974 7  99523854.47745                  24304748.751    24304748.620
                  24304747.288                          43.000          30.0004

 119899743.404 7  93428367.71045                  22816157.119    22816156.928
                  22816152.302                          46.000          34.0004

 125655743.516 7  97913553.90445                  23911494.775    23911494.560
                  23911492.503                          43.000          30.0004

 113768939.469 8  88651121.14647                  21649507.273    21649506.908
                  21649501.464                          52.000          43.0004

 105865920.535 8  82492924.97548                  20145611.106    20145610.915
                  20145605.255                          52.000          49.0004

 112377789.574 8  87567107.30847                  21384780.283    21384779.389
                  21384771.636                          51.000          45.0004

 19  9 29 16 19  0.0000000  0  9G12G15G09G06G13G25G29G05G02
 130381399.716 6 101595883.17244                  24810763.893    24810763.381
                  24810758.993                          41.000          24.0004

 129248990.394 7 100713491.86545                  24595263.731    24595263.129
                  24595259.289                          45.000          31.0004

 132877025.408 6 103540544.82144                  25285657.807    25285657.443
                  25285656.373                          40.000          24.0004

 127805297.477 6  99588531.66644                  24320543.223    24320543.225
                  24320542.225                          41.000          29.0004

 119799811.847 7  93350498.99645                  22797140.952    22797140.457
                  22797135.923                          44.000          34.0004

 125727455.397 7  97969433.26145                  23925141.329    23925140.915
                  23925138.829                          42.000          30.0004

 113702638.706 9  88599458.21947                  21636890.882    21636890.466
                  21636884.909                          54.000          44.0004

 105872058.420 9  82497707.73448                  20146779.118    20146778.950
                  20146773.189                          54.000          49.0004

 112404983.476 8  87588297.35047                  21389954.951    21389954.450
                  21389946.365                          52.000          46.0004

 19  9 29 16 19 30.0000000  0  8G12G15G06G13G25G29G05G02
 130481489.539 7 101673875.19844                  24829810.273    24829809.920
                  24829805.517                          43.000          24.0004

 129129084.806 7 100620058.95645                  24572446.399    24572445.539
                  24572442.019                          44.000          31.0004

 127888413.630 6  99653297.43244                  24336359.898    24336359.666
                  24336358.349                          41.000          28.0004

 119700124.550 7  93272820.61745                  22778170.808    22778170.722
                  22778165.966                          47.000          34.0004

 125799462.300 7  98025542.49345                  23938844.135    23938843.288
                  23938841.351                          43.000          30.0004

 113636777.039 8  88548137.44547                  21624357.661    21624357.585
                  21624351.806                          53.000          44.0004

 105878630.920 9  82502829.15748                  20148029.780    20148029.722
                  20148023.934                          54.000          49.0004

 112432429.465 8  87609683.82147                  21395177.851    21395177.161
                  21395169.043                          52.000          45.0004

 19  9 29 16 20  0.0000000  0  8G12G15G06G13G25G29G05G02
 130581546.482 7 101751841.58444                  24848850.547    24848850.637
                  24848845.930                          44.000          24.0004

 129009196.581 7 100526639.59745                  24549632.430    24549631.543
                  24549628.092                          43.000          30.0004

 127971646.650 6  99718154.25144                  24352198.238    24352197.591
                  24352197.134                          41.000          27.0004

 119600687.646 7  93195337.33145                  22759248.606    22759248.247
                  22759243.516                          47.000          34.0004

 125871764.631 7  98081881.93345                  23952603.022    23952602.038
                  23952599.849                          43.000          30.0004

 113571360.186 8  88497163.27847                  21611909.299    21611909.061
                  21611903.214                          53.000          43.0004

 105885640.123 8  82508290.86948                  20149363.620    20149363.357
                  20149357.784                          52.000          49.0004

 112460131.612 8  87631269.90347                  21400449.266    21400448.520
                  21400440.540                          51.000          45.0004

 19  9 29 16 20 30.0000000  0  8G12G15G06G13G25G29G05G02
 130681564.716 7 101829777.79644                  24867883.641    24867883.831
                  24867878.627                          44.000          26.0004

 128889326.223 7 100433234.13244                  24526821.353    24526821.060
                  24526817.189                          43.000          28.0004

 128054993.396 6  99783099.66744                  24368059.566    24368059.142
                  24368057.561                          41.000          29.0004

 119501501.759 7  93118049.65445                  22740374.432    22740373.977
                  22740369.249                          47.000          34.0004

 125944356.590 7  98138447.05645                  23966416.258    23966415.825
                  23966413.977                          42.000          30.0004

 113506388.063 8  88446535.66247                  21599545.227    21599545.140
                  21599539.289                          52.000          44.0004

 105893082.249 8  82514089.92548                  20150779.778    20150779.616
                  20150774.007                          52.000          49.0004

 112488087.779 8  87653053.91847                  21405769.283    21405768.111
                  21405760.402                          52.000          45.0004

 19  9 29 16 21  0.0000000  0  8G12G15G06G13G25G29G05G02
 130781540.105 7 101907680.62144                  24886908.236    24886908.017
                  24886903.294                          43.000          26.0004

 128769474.099 6 100339842.88744                  24504014.100    24504013.763
                  24504009.832                          41.000          27.0004

 128138452.252 7  99848132.47244                  24383941.248    24383940.961
                  24383939.102                          43.000          29.0004

 119402568.260 8  93040958.63745                  22721547.455    22721547.705
                  22721542.359                          48.000          34.0004

 126017233.722 6  98195234.37144                  23980284.226    23980283.860
                  23980282.004                          41.000          29.0004

 113441861.385 9  88396255.14647                  21587266.164    21587266.100
                  21587260.245                          54.000          44.0004

 105900954.929 9  82520224.47648                  20152278.022    20152277.724
                  20152272.031                          55.000          48.0004

 112516296.777 8  87675034.93347                  21411137.137    21411135.996
                  21411128.356                          51.000          45.0004

 19  9 29 16 21 30.0000000  0  8G12G15G06G13G25G29G05G02
 130881469.405 7 101985547.54344                  24905924.421    24905923.560
                  24905920.033                          44.000          26.0004

 128649642.690 6 100246467.82144                  24481210.851    24481210.040
                  24481206.685                          40.000          25.0004

 128222022.558 6  99913252.08644                  24399843.868    24399842.982
                  24399841.277                          40.000          27.0004

 119303890.114 7  92964066.60145                  22702770.033    22702769.855
                  22702764.940                          47.000          35.0004

 126090392.531 6  98252241.19044                  23994205.593    23994205.327
                  23994203.830                          41.000          29.0004

 113377782.453 9  88346323.51547                  21575072.647    21575072.367
                  21575066.653                          54.000          44.0004

 105909256.658 9  82526693.34848                  20153857.567    20153857.478
                  20153851.746                          54.000          48.0004

 112544759.086 8  87697213.34847                  21416553.313    21416552.268
                  21416544.784                          51.000          45.0004

 19  9 29 16 22  0.0000000  0  8G12G15G06G13G25G29G05G02
 130981348.984 7 102063375.70344                  24924930.763    24924930.469
                  24924926.897                          42.000          28.0004

 128529834.105 6 100153110.55144                  24458412.137    24458411.342
                  24458407.587                          41.000          24.0004

 128305703.257 7  99978457.75844                  24415767.793    24415768.048
                  24415765.301                          43.000          28.0004

 119205469.824 7  92887375.49645                  22684041.152    22684041.025
                  22684035.741                          46.000          35.0004

 126163829.247 6  98309464.55744                  24008180.504    24008179.911
                  24008178.561                          41.000          29.0004

 113314153.140 8  88296742.23747                  21562964.268    21562964.032
                  21562958.459                          53.000          44.0004

 105917985.790 8  82533495.26748                  20155518.818    20155518.481
                  20155512.858                          53.000          49.0004

 112573474.330 8  87719588.85047                  21422017.788    21422016.843
                  21422009.176                          51.000          45.0004

 19  9 29 16 22 30.0000000  0  8G12G15G06G13G25G29G05G02
 131081178.607 7 102141164.93544                  24943927.580    24943927.489
                  24943924.104                          43.000          27.0004

 128410053.635 7 100059775.17844                  24435618.519    24435618.064
                  24435613.903                          42.000          24.0004

 128389496.526 7 100043751.14745                  24431713.550    24431713.118
                  24431712.054                          43.000          30.0004

 119107312.989 7  92810889.68945                  22665362.725    22665362.270
                  22665357.017                          47.000          35.0004

 126237543.287 6  98366904.01644                  24022208.006    24022207.119
                  24022205.771                          40.000          29.0004

 113250978.195 9  88247515.02547                  21550942.386    21550942.273
                  21550936.611                          54.000          44.0004

 105927143.263 8  82540630.95748                  20157261.450    20157261.151
                  20157255.539                          53.000          48.0004

 112602445.458 8  87742163.74147                  21427530.993    21427530.190
                  21427522.239                          51.000          45.0004

 19  9 29 16 23  0.0000000  0  8G12G15G06G13G25G29G05G02
 131180955.697 7 102218913.24244                  24962914.754    24962913.970
                  24962910.547                          43.000          27.0004

 128290304.448 7  99966464.16944                  24412831.517    24412830.983
                  24412826.652                          42.000          25.0004

 128473403.121 7 100109132.83744                  24447680.127    24447679.696
                  24447678.554                          42.000          29.0004

 119009423.539 7  92734612.22845                  22646734.661    22646734.290
                  22646729.048                          46.000          34.0004

 126311532.554 6  98424557.94244                  24036287.298    24036286.717
                  24036285.595                          40.000          29.0004

 113188261.194 9  88198644.63947                  21539007.866    21539007.610
                  21539001.821                          54.000          44.0004

 105936729.082 8  82548100.42548                  20159085.587    20159085.297
                  20159079.695                          53.000          48.0004

 112631674.020 8  87764939.23247                  21433092.892    21433092.403
                  21433084.274                          52.000          45.0004

 19  9 29 16 23 30.0000000  0  8G12G15G06G13G25G29G05G02
 131280676.346 6 102296617.55844                  24981890.668    24981890.349
                  24981886.808                          41.000          27.0004

 128170587.897 7  99873178.62944                  24390050.097    24390049.461
                  24390045.688                          42.000          28.0004

 128557421.088 7 100174601.30645                  24463668.643    24463668.881
                  24463667.280                          43.000          30.0004

 118911803.310 7  92658544.55145                  22628158.145    22628158.124
                  22628152.542                          47.000          34.0004

 126385792.374 6  98482422.68344                  24050418.891    24050417.854
                  24050416.931                          40.000          28.0004

 113126002.778 8  88150131.58747                  21527160.432    21527160.110
                  21527154.343                          53.000          44.0004

 105946740.861 8  82555901.80748                  20160990.730    20160990.517
                  20160984.778                          53.000          49.0004

 112661159.052 8  87787914.57447                  21438703.730    21438703.207
                  21438695.169                          52.000          46.0004

 19  9 29 16 24  0.0000000  0  8G12G15G06G13G25G29G05G02
 131380338.537 6 102374276.30844                  25000856.115    25000855.899
                  25000851.797                          41.000          26.0004

 128050907.539 7  99779921.29445                  24367275.393    24367275.554
                  24367271.452                          44.000          30.0004

 128641551.065 7 100240157.08644                  24479678.222    24479677.802
                  24479676.467                          42.000          29.0004

 118814455.942 7  92582689.49945                  22609633.563    22609633.508
                  22609628.129                          47.000          35.0004

 126460320.537 6  98540496.52744                  24064600.599    24064600.496
                  24064598.976                          39.000          28.0004

 113064206.159 9  88101978.37747                  21515400.962    21515400.659
                  21515394.896                          54.000          44.0004

 105957178.205 8  82564034.80048                  20162976.908    20162976.631
                  20162970.970                          52.000          48.0004

 112690901.780 8  87811090.71347                  21444363.707    21444362.936
                  21444354.971                          50.000          46.0004

 19  9 29 16 24 30.0000000  0  8G12G15G06G13G25G29G05G02
 131479934.315 6 102451883.32144                  25019808.810    25019808.359
                  25019804.629                          41.000          27.0004

 127931260.665 7  99686690.03945                  24344506.874    24344507.401
                  24344503.231                          44.000          31.0004

 128725787.596 7 100305795.86245                  24495707.728    24495707.799
                  24495707.291                          43.000          30.0004

 118717380.012 8  92507045.95745                  22591160.617    22591160.340
                  22591155.186                          48.000          35.0004

 126535108.904 6  98598773.13044                  24078832.862    24078832.430
                  24078831.132                          41.000          28.0004

 113002868.620 9  88054182.89747                  21503728.871    21503728.486
                  21503722.833                          54.000          44.0004

 105968034.317 9  82572494.10348                  20165042.697    20165042.567
                  20165036.876                          54.000          48.0004

 112720897.847 8  87834464.26647                  21450071.577    21450070.853
                  21450062.905                          51.000          45.0004

 19  9 29 16 25  0.0000000  0  8G12G15G06G13G25G29G05G02
 131579462.581 7 102529437.71544                  25038748.152    25038748.285
                  25038743.915                          42.000          26.0004

 127811651.872 7  99593488.46045                  24321746.067    24321746.344
                  24321742.540                          44.000          31.0004

 128810132.257 7 100371518.87745                  24511758.202    24511758.149
                  24511756.740                          43.000          30.0004

 118620579.922 8  92431617.35746                  22572740.177    22572740.164
                  22572734.752                          48.000          36.0004

 126610156.142 6  98657251.45144                  24093113.283    24093113.407
                  24093111.828                          41.000          27.0004

 112941994.780 9  88006748.74247                  21492144.763    21492144.453
                  21492138.900                          54.000          44.0004

 105979310.410 9  82581280.66248                  20167188.522    20167188.302
                  20167182.558                          54.000          48.0004

 112751149.571 8  87858037.03047                  21455828.265    21455827.402
                  21455819.667                          52.000          45.0004

 19  9 29 16 25 30.0000000  0  8G12G15G06G13G25G29G05G02
 131678922.499 6 102606938.84844                  25057675.063    25057674.717
                  25057670.948                          39.000          25.0004

 127692085.814 7  99500320.16945                  24298993.633    24298993.933
                  24298989.747                          45.000          31.0004

 128894586.531 7 100437327.31345                  24527829.549    24527828.982
                  24527829.231                          43.000          30.0004

 118524060.794 7  92356407.68146                  22554373.406    22554372.837
                  22554367.678                          47.000          36.0004

 126685460.979 6  98715930.50344                  24107443.918    24107443.493
                  24107442.093                          41.000          27.0004

 112881588.405 8  87959678.84647                  21480649.796    21480649.486
                  21480644.042                          53.000          44.0004

 105991007.175 8  82590395.02148                  20169414.404    20169414.154
                  20169408.302                          53.000          48.0004

 112781658.856 8  87881810.48247                  21461633.930    21461632.845
                  21461625.345                          51.000          45.0004

 19  9 29 16 26  0.0000000  0  8G12G15G06G13G25G29G05G02
 131778308.025 6 102684382.02244                  25076587.597    25076586.971
                  25076583.491                          39.000          24.0004

 127572562.070 7  99407184.87745                  24276249.386    24276248.868
                  24276245.430                          44.000          31.0004

 128979147.101 7 100503218.64944                  24543921.143    24543921.200
                  24543918.100                          43.000          28.0004

 118427822.575 7  92281416.90146                  22536059.264    22536059.206
                  22536054.218                          46.000          36.0004

 126761017.352 6  98774805.54344                  24121822.126    24121821.253
                  24121819.529                          41.000          27.0004

 112821649.201 8  87912972.98447                  21469243.824    21469243.338
                  21469237.835                          53.000          44.0004

 106003120.848 8  82599834.24348                  20171719.418    20171719.254
                  20171713.573                          53.000          48.0004

 112812423.658 8  87905783.04847                  21467488.343    21467487.070
                  21467479.783                          50.000          44.0004

 19  9 29 16 26 30.0000000  0  8G12G15G06G13G25G29G05G02
 131877620.276 6 102761768.09443                  25095486.451    25095485.624
                  25095482.325                          41.000          23.0004

 127453086.839 7  99314087.35745                  24253513.463    24253513.480
                  24253509.575                          44.000          30.0004

 129063817.411 7 100569195.41044                  24560033.001    24560032.785
                  24560032.184                          42.000          29.0004

 118331872.090 7  92206650.32246                  22517800.651    22517800.299
                  22517795.508                          47.000          36.0004

 126836825.812 7  98833877.03144                  24136247.908    24136247.404
                  24136245.309                          42.000          27.0004

 112762183.010 8  87866635.69947                  21457927.834    21457927.239
                  21457921.833                          53.000          44.0004

 106015653.215 9  82609599.71848                  20174104.331    20174104.046
                  20174098.457                          54.000          48.0004

 112843447.854 8  87929957.72847                  21473392.026    21473390.880
                  21473383.565                          52.000          44.0004

 19  9 29 16 27  0.0000000  0  8G12G15G06G13G25G29G05G02
 131976853.664 7 102839092.71744                  25114369.862    25114369.833
                  25114365.977                          42.000          24.0004

 127333660.337 7  99221027.80945                  24230787.692    24230787.323
                  24230783.375                          44.000          30.0004

 129148594.098 6 100635255.09145                  24576165.367    24576164.660
                  24576164.843                          41.000          30.0004

 118236209.532 7  92132108.09746                  22499596.678    22499596.563
                  22499591.266                          47.000          36.0004

 126912880.387 7  98893140.29544                  24150720.791    24150720.161
                  24150717.910                          43.000          27.0004

 112703189.522 8  87820666.76147                  21446701.617    21446701.484
                  21446695.747                          52.000          44.0004

 106028600.230 8  82619688.29248                  20176568.030    20176567.925
                  20176562.180                          53.000          49.0004

 112874729.090 8  87954332.70047                  21479344.798    21479343.858
                  21479336.178                          50.000          45.0004

 19  9 29 16 27 30.0000000  0  8G12G15G06G13G25G29G05G02
 132076008.400 7 102916356.07544                  25133238.390    25133238.188
                  25133234.372                          42.000          24.0004

 127214288.188 7  99128010.61945                  24208071.736    24208071.062
                  24208067.754                          43.000          30.0004

 129233480.481 7 100701400.24145                  24592319.263    24592319.333
                  24592318.281                          43.000          30.0004

 118140841.579 7  92057795.42446                  22481448.902    22481448.394
                  22481443.242                          47.000          36.0004

 126989181.504 6  98952595.67644                  24165239.969    24165239.355
                  24165237.999                          41.000          27.0004

 112644674.527 9  87775070.66447                  21435566.703    21435566.582
                  21435560.640                          54.000          45.0004

 106041964.385 8  82630101.90948                  20179111.146    20179111.192
                  20179105.199                          53.000          49.0004

 112906271.551 8  87978911.22747                  21485347.085    21485346.347
                  21485338.639                          52.000          46.0004

 19  9 29 16 28  0.0000000  0  8G12G15G06G13G25G29G05G02
 132175081.568 7 102993555.85143                  25152091.649    25152091.525
                  25152087.683                          43.000          23.0004

 127094972.756 7  99035037.63244                  24185366.767    24185365.851
                  24185362.641                          44.000          29.0004

 129318475.585 6 100767630.12544                  24608492.942    24608491.941
                  24608491.601                          40.000          28.0004

 118045770.943 7  91983714.42346                  22463357.622    22463357.053
                  22463351.978                          47.000          36.0004

 127065725.314 6  99012240.16744                  24179806.500    24179805.722
                  24179803.709                          41.000          27.0004

 112586639.584 8  87729848.63047                  21424523.145    21424522.885
                  21424517.007                          52.000          44.0004

 106055743.630 8  82640838.98048                  20181733.139    20181733.315
                  20181727.458                          53.000          48.0004

 112938075.272 8  88003693.33647                  21491399.098    21491398.439
                  21491390.638                          51.000          45.0004

 19  9 29 16 28 30.0000000  0  8G12G15G06G13G25G29G05G02
 132274068.808 7 103070688.69243                  25170928.134    25170928.258
                  25170923.625                          42.000          23.0004

 126975715.414 7  98942109.89344                  24162672.553    24162671.810
                  24162668.656                          44.000          29.0004

 129403577.906 6 100833943.56244                  24624686.976    24624686.739
                  24624686.691                          40.000          28.0004

 117950999.104 7  91909866.26246                  22445322.817    22445322.206
                  22445317.613                          47.000          36.0004

 127142507.615 7  99072070.50744                  24194417.584    24194417.140
                  24194415.110                          42.000          28.0004

 112529086.041 8  87685001.71947                  21413570.900    21413570.703
                  21413564.846                          53.000          45.0004

 106069936.046 9  82651897.99748                  20184434.039    20184434.068
                  20184428.182                          54.000          49.0004

 112970139.342 8  88028678.31647                  21497500.632    21497500.081
                  21497492.171                          51.000          45.0004

 19  9 29 16 29  0.0000000  0  8G12G15G06G13G25G29G05G02
 132372970.305 6 103147754.71943                  25189747.801    25189748.269
                  25189743.881                          41.000          23.0004

 126856521.920 7  98849231.93145                  24139990.842    24139990.235
                  24139986.942                          44.000          30.0004

 129488789.926 7 100900342.42844                  24640903.013    24640902.539
                  24640901.769                          43.000          28.0004

 117856532.083 7  91836255.61546                  22427346.332    22427345.877
                  22427341.317                          47.000          36.0004

 127219528.128 6  99132086.45044                  24209074.109    24209073.484
                  24209071.896                          41.000          28.0004

 112472018.588 8  87640533.58447                  21402711.413    21402711.266
                  21402705.433                          53.000          45.0004

 106084543.152 8  82663280.15448                  20187213.814    20187213.625
                  20187207.805                          53.000          48.0004

 113002466.863 8  88053868.58347                  21503652.301    21503651.828
                  21503644.010                          51.000          45.0004

 19  9 29 16 29 30.0000000  0  8G12G15G06G13G25G29G05G02
 132471779.804 7 103224749.07243                  25208551.306    25208550.856
                  25208547.589                          42.000          21.0004

 126737391.687 7  98756403.24945                  24117321.046    24117320.640
                  24117316.880                          44.000          30.0004

 129574107.891 7 100966823.87745                  24657138.084    24657138.634
                  24657137.544                          43.000          30.0004

 117762369.671 8  91762882.32446                  22409427.983    22409427.708
                  22409422.572                          48.000          37.0004

 127296780.254 6  99192282.86144                  24223774.710    24223774.167
                  24223772.824                          41.000          28.0004

 112415436.693 9  87596443.79647                  21391944.237    21391944.138
                  21391938.257                          54.000          45.0004

 106099559.994 8  82674981.58548                  20190071.322    20190071.282
                  20190065.438                          53.000          48.0004

 113035054.624 8  88079261.63347                  21509853.535    21509852.876
                  21509845.291                          51.000          44.0004

 19  9 29 16 30  0.0000000  0  8G12G15G06G13G25G29G05G02
 132570497.492 6 103301671.86843                  25227336.481    25227335.889
                  25227333.226                          41.000          23.0004

 126618329.557 7  98663627.62545                  24094664.544    24094664.001
                  24094659.739                          44.000          31.0004

 129659534.405 6 101033389.87744                  24673393.650    24673393.616
                  24673393.844                          41.000          27.0004

 117668517.654 8  91689750.89746                  22391568.481    22391568.441
                  22391563.116                          49.000          37.0004

 127374263.813 6  99252659.61344                  24238519.345    24238518.961
                  24238517.737                          41.000          28.0004

 112359345.254 9  87552736.18147                  21381270.184    21381270.208
                  21381264.330                          55.000          45.0004

 106114988.553 9  82687003.83748                  20193007.196    20193007.309
                  20193001.347                          54.000          48.0004

 113067906.912 8  88104860.80347                  21516105.059    21516104.087
                  21516096.884                          50.000          45.0004

 19  9 29 16 30 30.0000000  0  8G12G15G06G13G25G29G05G02
 132669119.953 6 103378520.45544                  25246104.110    25246103.372
                  25246099.933                          41.000          24.0004

 126499337.669 7  98570906.73545                  24072020.667    24072020.901
                  24072016.709                          46.000          32.0004

 129745068.157 6 101100039.47844                  24689670.828    24689670.294
                  24689669.327                          41.000          24.0004

 117574978.660 8  91616863.36846                  22373768.656    22373768.683
                  22373762.993                          48.000          37.0004

 127451974.683 6  99313213.48544                  24253306.856    24253306.603
                  24253305.430                          40.000          27.0004

 112303745.549 8  87509411.73647                  21370690.109    21370689.771
                  21370684.048                          53.000          44.0004

 106130826.139 8  82699344.81148                  20196021.021    20196021.031
                  20196015.216                          53.000          48.0004

 113101022.751 8  88130665.32947                  21522407.024    21522405.710
                  21522398.626                          50.000          45.0004

 19  9 29 16 31  0.0000000  0  8G12G15G06G13G25G29G05G02
 132767642.415 6 103455291.16444                  25264852.474    25264852.429
                  25264847.394                          41.000          24.0004

 126380417.168 7  98478241.48145                  24049390.962    24049391.019
                  24049386.582                          46.000          31.0004

 129830707.049 6 101166771.03244                  24705967.483    24705967.719
                  24705965.587                          40.000          27.0004

 117481753.490 8  91544220.39546                  22356028.198    22356028.309
                  22356022.969                          48.000          36.0004

 127529908.044 6  99373940.72744                  24268137.310    24268136.447
                  24268135.687                          40.000          27.0004

 112248638.285 9  87466471.01847                  21360203.442    21360203.082
                  21360197.412                          54.000          45.0004

 106147070.132 9  82712002.46948                  20199112.143    20199112.031
                  20199106.375                          54.000          48.0004

 113134401.104 8  88156674.40947                  21528758.681    21528757.599
                  21528750.456                          51.000          45.0004

 19  9 29 16 31 30.0000000  0  8G12G15G06G13G25G29G05G02
 132866062.455 6 103531982.03543                  25283580.567    25283580.668
                  25283576.166                          40.000          23.0004

 126261571.035 7  98385634.14945                  24026775.530    24026775.074
                  24026769.926                          45.000          31.0004

 129916450.864 7 101233584.34844                  24722284.546    24722283.674
                  24722282.923                          42.000          26.0004

 117388845.268 8  91471824.38546                  22338348.518    22338348.359
                  22338343.251                          48.000          37.0004

 127608060.868 6  99434838.96544                  24283008.826    24283008.362
                  24283007.913                          39.000          27.0004

 112194025.739 9  87423915.78947                  21349810.913    21349810.790
                  21349805.086                          54.000          45.0004

 106163719.394 8  82724975.91448                  20202280.409    20202280.212
                  20202274.494                          53.000          48.0004

 113168042.220 8  88182888.24647                  21535160.524    21535159.661
                  21535152.104                          49.000          45.0004

 19  9 29 16 32  0.0000000  0  8G12G15G06G13G25G29G05G02
 132964380.094 6 103608593.10043                  25302290.409    25302289.386
                  25302285.650                          40.000          22.0004

 126142804.417 7  98293088.78645                  24004174.286    24004174.536
                  24004169.973                          44.000          31.0004

 130002302.334 6 101300481.52244                  24738620.127    24738619.303
                  24738620.429                          36.000          25.0004

 117296260.306 8  91399680.27046                  22320730.315    22320730.027
                  22320724.932                          48.000          37.0004

 127686433.077 6  99495908.15944                  24297922.695    24297922.148
                  24297921.335                          39.000          27.0004

 112139913.275 8  87381750.22747                  21339513.979    21339513.653
                  21339507.920                          52.000          45.0004

 106180775.714 8  82738266.55148                  20205526.151    20205525.927
                  20205520.294                          53.000          48.0004

 113201949.520 8  88209309.50447                  21541612.930    21541612.043
                  21541604.330                          51.000          45.0004

 19  9 29 16 32 30.0000000  0  8G12G15G06G13G25G29G05G02
 133062592.606 6 103685122.23443                  25320979.591    25320979.232
                  25320975.000                          41.000          23.0004

 126024119.841 7  98200607.36145                  23981588.990    23981589.487
                  23981585.018                          45.000          30.0004

 130088260.355 6 101367461.73044                  24754978.972    24754979.151
                  24754976.943                          41.000          26.0004

 117204000.855 8  91327789.79646                  22303173.835    22303173.685
                  22303168.383                          49.000          37.0004

 127765020.920 6  99557145.37244                  24312877.252    24312877.304
                  24312876.367                          40.000          27.0004

 112086302.505 8  87339975.60047                  21329312.099    21329311.896
                  21329306.115                          53.000          45.0004

 106198237.228 8  82751872.92148                  20208848.841    20208848.693
                  20208843.172                          53.000          48.0004

 113236123.154 8  88235938.29347                  21548115.845    21548115.022
                  21548107.352                          51.000          45.0004

 19  9 29 16 33  0.0000000  0  8G12G15G06G13G25G29G05G02
 133160695.153 6 103761565.68943                  25339647.835    25339647.825
                  25339643.739                          40.000          22.0004

 125905518.184 7  98108190.53445                  23959019.958    23959019.905
                  23959015.578                          44.000          30.0004

 130174323.087 6 101434523.54244                  24771355.531    24771354.762
                  24771354.913                          41.000          26.0004

 117112068.421 8  91256154.13846                  22285679.604    22285679.404
                  22285674.094                          49.000          38.0004

 127843819.583 6  99618546.87344                  24327873.175    24327872.745
                  24327871.397                          40.000          28.0004

 112033193.777 9  87298592.17947                  21319205.730    21319205.333
                  21319199.886                          54.000          45.0004

 106216100.935 9  82765792.69148                  20212248.337    20212248.163
                  20212242.453                          55.000          48.0004

 113270561.882 8  88262773.64547                  21554669.152    21554668.414
                  21554660.811                          50.000          44.0004

 19  9 29 16 33 30.0000000  0  8G12G15G06G13G25G29G05G02
 133258689.199 6 103837924.59743                  25358295.321    25358294.988
                  25358291.985                          39.000          23.0004

 125787006.536 7  98015843.86045                  23936468.195    23936468.232
                  23936463.804                          45.000          31.0004

 130260494.346 6 101501669.90944                  24787754.099    24787753.898
                  24787752.527                          41.000          28.0004

 117020470.365 7  91184779.04246                  22268249.091    22268248.788
                  22268243.857                          47.000          37.0004

 127922830.245 6  99680113.56044                  24342908.083    24342907.750
                  24342906.365                          41.000          27.0004

 111980593.706 8  87257605.11447                  21309196.206    21309195.865
                  21309190.435                          53.000          45.0004

 106234370.054 9  82780028.36348                  20215724.793    20215724.750
                  20215718.980                          54.000          48.0004

 113305270.536 8  88289819.34147                  21561274.162    21561273.094
                  21561265.794                          51.000          44.0004

 19  9 29 16 34  0.0000000  0  8G12G15G06G13G25G29G05G02
 133356568.403 6 103914194.00743                  25376921.067    25376920.375
                  25376917.752                          36.000          21.0004

 125668583.822 7  97923566.47445                  23913933.087    23913932.962
                  23913928.056                          45.000          31.0004

 130346770.042 7 101568897.64744                  24804171.428    24804171.087
                  24804170.710                          43.000          27.0004

 116929205.733 8  91113663.77046                  22250881.712    22250881.683
                  22250876.690                          49.000          38.0004

 128002045.931 6  99741840.01144                  24357982.559    24357981.796
                  24357980.473                          39.000          27.0004

 111928500.519 9  87217013.02447                  21299283.272    21299283.014
                  21299277.408                          54.000          45.0004

 106253039.389 9  82794575.89048                  20219277.461    20219277.258
                  20219271.533                          54.000          48.0004

 113340245.597 8  88317072.61547                  21567929.615    21567928.601
                  21567921.319                          50.000          45.0004

 19  9 29 16 34 30.0000000  0  8G12G15G06G13G25G29G05G02
 133454332.289 6 103990373.57243                  25395525.439    25395524.784
                  25395521.155                          39.000          19.0004

 125550254.986 7  97831362.22545                  23891415.921    23891415.860
                  23891411.518                          45.000          32.0004

 130433151.864 7 101636208.10844                  24820609.620    24820609.246
                  24820607.685                          43.000          28.0004

 116838279.957 8  91042812.53446                  22233579.280    22233579.322
                  22233574.151                          49.000          38.0004

 128081465.618 6  99803725.42144                  24373095.585    24373095.142
                  24373093.351                          41.000          27.0004

 111876918.558 8  87176819.29247                  21289467.591    21289467.330
                  21289461.695                          52.000          45.0004

 106272109.950 9  82809436.06948                  20222906.553    20222906.363
                  20222900.613                          54.000          48.0004

 113375489.648 8  88344535.49447                  21574636.408    21574635.383
                  21574628.126                          49.000          45.0004

 19  9 29 16 35  0.0000000  0  7G15G06G13G25G29G05G02
 125432023.871 7  97739234.12845                  23868917.454    23868917.246
                  23868913.030                          46.000          32.0004

 130519640.558 6 101703601.86544                  24837067.631    24837066.979
                  24837066.056                          41.000          26.0004

 116747696.942 8  90972228.38546                  22216342.117    22216342.059
                  22216336.784                          50.000          38.0004

 128161087.270 7  99865768.21844                  24388247.052    24388246.881
                  24388245.595                          42.000          28.0004

 111825851.246 9  87137026.59047                  21279749.700    21279749.464
                  21279743.783                          54.000          45.0004

 106291580.776 8  82824608.13248                  20226611.640    20226611.643
                  20226605.756                          52.000          48.0004

 113411004.108 8  88372209.08447                  21581394.556    21581393.708
                  21581386.370                          50.000          44.0004

 19  9 29 16 35 30.0000000  0  7G15G06G13G25G29G05G02
 125313891.059 7  97647182.61145                  23846437.465    23846437.239
                  23846432.662                          46.000          32.0004

 130606233.748 7 101771077.03644                  24853546.324    24853546.605
                  24853545.196                          42.000          29.0004

 116657457.754 8  90901912.14946                  22199170.246    22199170.155
                  22199164.618                          50.000          39.0004

 128240905.791 6  99927964.41444                  24403436.437    24403435.789
                  24403434.577                          40.000          28.0004

 111775298.575 9  87097634.90547                  21270129.946    21270129.484
                  21270123.858                          54.000          45.0004

 106311449.089 9  82840089.93148                  20230392.400    20230392.304
                  20230386.440                          55.000          48.0004

 113446787.547 8  88400092.26247                  21588204.027    21588203.156
                  21588195.654                          51.000          45.0004

 19  9 29 16 36  0.0000000  0  7G15G06G13G25G29G05G02
 125195860.678 7  97555210.92345                  23823976.667    23823976.766
                  23823972.737                          45.000          33.0004

 130692932.633 6 101838634.53744                  24870044.311    24870043.828
                  24870043.519                          41.000          26.0004

 116567566.917 8  90831867.35746                  22182064.455    22182064.463
                  22182058.915                          49.000          39.0004

 128320919.486 6  99990312.70444                  24418662.201    24418662.339
                  24418660.945                          39.000          28.0004

 111725264.140 9  87058647.03547                  21260608.710    21260608.546
                  21260602.718                          54.000          45.0004

 106331715.201 8  82855881.70248                  20234248.879    20234248.729
                  20234242.961                          53.000          48.0004

 113482842.138 8  88428186.73047                  21595065.087    21595063.880
                  21595056.446                          50.000          45.0004

 19  9 29 16 36 30.0000000  0  7G15G06G13G25G29G05G02
 125077931.015 7  97463317.72745                  23801535.410    23801535.436
                  23801530.930                          45.000          32.0004

 130779732.105 7 101906270.44844                  24886562.179    24886562.747
                  24886561.232                          43.000          28.0004

 116478022.672 8  90762092.64246                  22165024.688    22165024.475
                  22165019.344                          49.000          39.0004

 128401120.643 6 100052807.05344                  24433923.541    24433924.265
                  24433922.412                          41.000          27.0004

 111675745.712 9  87020061.25147                  21251185.738    21251185.414
                  21251179.856                          55.000          45.0004

 106352373.209 9  82871978.84448                  20238180.030    20238179.707
                  20238174.172                          54.000          48.0004

 113519163.376 8  88456488.98047                  21601976.694    21601975.614
                  21601968.190                          51.000          44.0004

 19  9 29 16 37  0.0000000  0  7G15G06G13G25G29G05G02
 124960106.100 7  97371506.13545                  23779114.442    23779113.998
                  23779109.650                          46.000          32.0004

 130866633.143 6 101973985.47444                  24903098.208    24903098.070
                  24903098.327                          41.000          28.0004

 116388829.416 8  90692591.42846                  22148051.794    22148051.477
                  22148046.414                          49.000          39.0004

 128481507.390 6 100115446.01344                  24449221.747    24449220.962
                  24449219.631                          39.000          26.0004

 111626746.621 9  86981880.14047                  21241861.317    21241860.920
                  21241855.634                          54.000          46.0004

 106373422.720 9  82888381.05848                  20242185.685    20242185.316
                  20242179.803                          54.000          48.0004

 113555752.923 8  88485000.30247                  21608939.512    21608938.591
                  21608930.952                          51.000          44.0004

 19  9 29 16 37 30.0000000  0  7G15G06G13G25G29G05G02
 124842387.162 7  97279777.13845                  23756712.852    23756712.945
                  23756708.348                          46.000          32.0004

 130953633.960 6 102041778.26944                  24919653.962    24919653.987
                  24919652.975                          41.000          27.0004

 116299988.542 8  90623364.80046                  22131145.935    22131145.287
                  22131140.795                          49.000          39.0004

 128562075.122 6 100178226.00244                  24464552.360    24464552.465
                  24464550.649                          41.000          26.0004

 111578267.180 8  86944103.95647                  21232635.844    21232635.510
                  21232630.127                          53.000          45.0004

 106394861.181 8  82905086.34348                  20246265.033    20246265.019
                  20246259.386                          53.000          48.0004

 113592609.847 8  88513719.96947                  21615953.128    21615952.184
                  21615944.582                          52.000          44.0004

 19  9 29 16 38  0.0000000  0  7G15G06G13G25G29G05G02
 124724780.745 7  97188135.80145                  23734333.191    23734333.180
                  23734328.600                          47.000          32.0004

 131040737.838 7 102109651.42544                  24936229.970    24936230.072
                  24936229.312                          42.000          28.0004

 116211506.996 8  90554418.17846                  22114308.293    22114307.905
                  22114302.973                          49.000          39.0004

 128642824.553 6 100241147.57544                  24479918.947    24479918.378
                  24479917.003                          39.000          26.0004

 111530313.575 8  86906737.51047                  21223510.811    21223510.530
                  21223504.811                          53.000          45.0004

 106416691.394 8  82922096.89247                  20250419.431    20250419.197
                  20250413.580                          53.000          47.0004

 113629738.579 8  88542651.43647                  21623018.483    21623017.589
                  21623010.104                          52.000          45.0004

 19  9 29 16 38 30.0000000  0  7G15G06G13G25G29G05G02
 124607289.729 7  97096584.40545                  23711975.169    23711975.150
                  23711970.465                          44.000          32.0004

 131127944.888 6 102177604.85944                  24952824.815    24952824.023
                  24952823.763                          40.000          26.0004

 116123388.072 8  90485754.11246                  22097539.987    22097539.714
                  22097534.433                          50.000          39.0004

 128723752.799 6 100304208.47844                  24495319.179    24495318.307
                  24495317.264                          38.000          26.0004

 111482888.142 9  86869782.62947                  21214486.080    21214485.851
                  21214480.150                          54.000          45.0004

 106438911.838 9  82939411.52148                  20254647.749    20254647.548
                  20254642.062                          54.000          48.0004

 113667139.488 8  88571794.98047                  21630135.773    21630134.550
                  21630127.420                          51.000          44.0004

 19  9 29 16 39  0.0000000  0  7G15G06G13G25G29G05G02
 124489914.755 7  97005123.43145                  23689639.794    23689639.438
                  23689634.844                          46.000          33.0004

 131215252.136 6 102245636.44944                  24969438.779    24969438.668
                  24969437.608                          40.000          26.0004

 116035632.094 8  90417372.84646                  22080840.585    22080840.450
                  22080834.705                          50.000          39.0004

 128804854.354 6 100367404.43544                  24510752.291    24510751.558
                  24510750.547                          39.000          26.0004

 111435990.249 9  86833238.81847                  21205561.892    21205561.449
                  21205555.694                          54.000          45.0004

 106461519.042 8  82957027.51948                  20258949.888    20258949.703
                  20258944.013                          53.000          48.0004

 113704810.893 8  88601149.30247                  21637304.230    21637303.119
                  21637296.147                          51.000          45.0004

 19  9 29 16 39 30.0000000  0  7G15G06G13G25G29G05G02
 124372664.768 7  96913759.84445                  23667327.623    23667327.145
                  23667322.903                          46.000          33.0004

 131302665.496 6 102313750.69244                  24986072.672    24986071.711
                  24986072.953                          40.000          24.0004

 115948248.406 8  90349281.67246                  22064212.067    22064211.771
                  22064206.093                          51.000          39.0004

 128886132.230 6 100430737.79044                  24526218.959    24526218.696
                  24526217.061                          40.000          25.0004

 111389628.412 8  86797112.71147                  21196739.191    21196739.057
                  21196733.266                          53.000          45.0004

 106484517.705 8  82974948.54648                  20263326.245    20263326.410
                  20263320.392                          53.000          48.0004

 113742759.348 8  88630719.51347                  21644525.536    21644524.537
                  21644517.490                          49.000          44.0004

 19  9 29 16 40  0.0000000  0  7G15G06G13G25G29G05G02
 124255539.433 7  96822493.36545                  23645039.657    23645039.364
                  23645034.791                          46.000          33.0004

 131390181.631 6 102381945.00444                  25002726.522    25002725.901
                  25002726.439                          39.000          26.0004

 115861236.990 8  90281480.58946                  22047654.179    22047653.715
                  22047648.510                          49.000          39.0004

 128967580.545 6 100494203.94144                  24541718.069    24541717.824
                  24541716.014                          40.000          26.0004

 111343801.934 9  86761403.77347                  21188018.718    21188018.540
                  21188012.662                          54.000          45.0004

 106507903.820 8  82993171.48648                  20267776.670    20267776.553
                  20267770.566                          53.000          48.0004

 113780982.331 8  88660503.63347                  21651799.316    21651798.420
                  21651791.010                          50.000          45.0004

 19  9 29 16 40 30.0000000  0  7G15G06G13G25G29G05G02
 124138538.791 7  96731324.07345                  23622774.899    23622774.861
                  23622770.334                          47.000          33.0004

 131477797.342 6 102450216.90744                  25019399.337    25019398.177
                  25019398.296                          38.000          25.0004

 115774597.863 8  90213969.59946                  22031167.230    22031166.814
                  22031161.711                          49.000          39.0004

 129049193.174 6 100557798.12744                  24557248.711    24557248.089
                  24557246.842                          41.000          26.0004

 111298509.663 9  86726111.09847                  21179399.776    21179399.549
                  21179393.790                          54.000          45.0004

 106531673.109 9  83011693.00848                  20272299.690    20272299.556
                  20272293.836                          54.000          48.0004

 113819477.295 8  88690499.69347                  21659124.854    21659124.162
                  21659115.943                          51.000          45.0004

 19  9 29 16 41  0.0000000  0  7G15G06G13G25G29G05G02
 124021668.453 7  96640256.31245                  23600535.343    23600535.195
                  23600530.701                          46.000          34.0004

 131565514.930 6 102518568.23544                  25036091.452    25036091.224
                  25036091.076                          40.000          26.0004

 115688336.855 8  90146753.24846                  22014752.120    22014752.072
                  22014747.174                          48.000          39.0004

 129130969.815 6 100621520.14944                  24572810.291    24572809.786
                  24572808.272                          41.000          25.0004

 111253756.220 8  86691238.28847                  21170883.588    21170883.234
                  21170877.749                          53.000          45.0004

 106555826.713 8  83030513.99548                  20276896.087    20276896.012
                  20276890.200                          52.000          48.0004

 113858247.315 8  88720710.08747                  21666502.432    21666501.901
                  21666493.811                          51.000          45.0004

 19  9 29 16 41 30.0000000  0  7G15G06G13G25G29G05G02
 123904930.019 7  96549291.34545                  23578320.446    23578320.521
                  23578316.072                          46.000          33.0004

 131653332.877 6 102586997.73344                  25052802.713    25052802.432
                  25052802.229                          39.000          27.0004

 115602455.720 8  90079832.90246                  21998409.473    21998409.651
                  21998404.664                          50.000          40.0004

 129212906.169 6 100685366.59644                  24588402.117    24588401.614
                  24588400.274                          41.000          25.0004

 111209542.520 9  86656786.06247                  21162470.062    21162469.630
                  21162464.101                          54.000          45.0004

 106580362.498 8  83049632.78548                  20281564.916    20281565.316
                  20281559.214                          52.000          48.0004

 113897291.868 8  88751134.40047                  21673932.291    21673931.754
                  21673923.919                          50.000          44.0004

 19  9 29 16 42  0.0000000  0  7G15G06G13G25G29G05G02
 123788325.291 7  96458430.54745                  23556131.340    23556131.412
                  23556126.420                          46.000          33.0004

 131741250.200 6 102655504.59744                  25069533.257    25069532.610
                  25069532.580                          40.000          25.0004

 115516956.789 8  90013210.37246                  21982139.873    21982139.667
                  21982134.574                          50.000          40.0004

 129294998.489 6 100749334.56744                  24604023.588    24604023.729
                  24604022.225                          39.000          25.0004

 111165869.842 9  86622755.41247                  21154159.413    21154159.022
                  21154153.469                          54.000          46.0004

 106605278.274 9  83069047.67247                  20286306.300    20286306.459
                  20286300.474                          55.000          47.0004

 113936610.497 8  88781772.27047                  21681414.327    21681413.540
                  21681405.966                          51.000          44.0004

 19  9 29 16 42 30.0000000  0  7G15G06G13G25G29G05G02
 123671858.330 8  96367677.08145                  23533968.409    23533968.245
                  23533963.632                          48.000          33.0004

 131829267.461 6 102724089.41844                  25086281.888    25086281.486
                  25086281.837                          40.000          25.0004

 115431843.888 8  89946888.64546                  21965943.293    21965943.069
                  21965938.019                          49.000          40.0004

 129377244.704 6 100813422.45944                  24619674.485    24619674.571
                  24619672.797                          39.000          25.0004

 111122741.649 8  86589149.03647                  21145952.444    21145952.015
                  21145946.358                          53.000          45.0004

 106630573.695 9  83088758.38748                  20291119.822    20291119.997
                  20291114.080                          54.000          48.0004

 113976204.750 8  88812624.91247                  21688948.840    21688948.059
                  21688940.631                          49.000          44.0004

 19  9 29 16 43  0.0000000  0  7G15G06G13G25G29G05G02
 123555528.948 7  96277030.81745                  23511831.434    23511831.532
                  23511826.611                          46.000          33.0004

 131917381.227 6 102792749.41244                  25103049.526    25103049.421
                  25103048.178                          41.000          26.0004

 115347116.832 8  89880867.58146                  21949820.174    21949819.625
                  21949814.867                          49.000          40.0004

 129459638.642 6 100877625.48344                  24635353.966    24635353.400
                  24635352.226                          40.000          25.0004

 111080156.557 8  86555965.85247                  21137848.608    21137848.471
                  21137842.806                          53.000          46.0004

 106656244.494 8  83108761.60548                  20296004.970    20296004.936
                  20295999.154                          53.000          48.0004

 114016072.220 8  88843690.45447                  21696535.542    21696534.236
                  21696527.204                          50.000          44.0004

 19  9 29 16 43 30.0000000  0  8G15G06G21G13G25G29G05G02
 123439341.202 7  96186494.91745                  23489721.798    23489721.454
                  23489716.810                          45.000          33.0004

 132005592.521 6 102861485.43844                  25119835.908    25119835.482
                  25119834.489                          40.000          25.0004

 134883380.071 6 105103924.95743                  25667454.669    25667453.591
                  25667449.625                          39.000          20.0004

 115262780.139 8  89815150.69646                  21933771.454    21933770.968
                  21933766.139                          48.000          40.0004

 129542178.604 6 100941942.26344                  24651060.987    24651059.949
                  24651059.623                          38.000          25.0004

 111038117.679 9  86523208.28847                  21129849.079    21129848.852
                  21129843.232                          55.000          46.0004

 106682290.809 8  83129057.43548                  20300961.300    20300961.348
                  20300955.470                          53.000          48.0004

 114056214.591 8  88874970.19647                  21704174.150    21704173.338
                  21704165.962                          50.000          44.0004

 19  9 29 16 44  0.0000000  0  8G15G06G21G13G25G29G05G02
 123323298.686 7  96096072.18445                  23467639.791    23467639.463
                  23467634.643                          46.000          33.0004

 132093901.520 6 102930297.53244                  25136641.047    25136640.260
                  25136639.218                          41.000          25.0004

 134804631.225 6 105042562.28943                  25652468.793    25652467.985
                  25652464.192                          38.000          20.0004

 115178837.269 8  89749740.68046                  21917797.816    21917797.463
                  21917792.176                          50.000          40.0004

 129624862.065 6 101006370.87544                  24666795.104    24666794.318
                  24666793.402                          40.000          25.0004

 110996627.544 8  86490878.31647                  21121953.672    21121953.333
                  21121947.948                          53.000          45.0004

 106708711.692 9  83149645.13247                  20305989.159    20305989.242
                  20305983.192                          54.000          47.0004

 114096632.529 8  88906464.67747                  21711865.599    21711864.881
                  21711857.481                          50.000          44.0004

 19  9 29 16 44 30.0000000  0  8G15G06G21G13G25G29G05G02
 123207405.477 7  96005765.81845                  23445585.667    23445585.807
                  23445581.210                          47.000          33.0004

 132182309.132 6 102999186.53744                  25153463.372    25153463.554
                  25153463.770                          41.000          24.0004

 134725841.306 6 104981167.55343                  25637476.163    25637475.320
                  25637470.846                          38.000          21.0004

 115095292.423 8  89684640.80646                  21901899.757    21901899.674
                  21901894.102                          51.000          41.0004

 129707687.265 6 101070909.92344                  24682556.446    24682555.872
                  24682555.266                          41.000          27.0004

 110955689.563 9  86458978.59547                  21114163.515    21114162.942
                  21114157.559                          54.000          45.0004

 106735507.243 9  83170524.77847                  20311088.188    20311088.048
                  20311082.259                          54.000          47.0004

 114137327.970 8  88938175.38747                  21719609.682    21719609.020
                  21719601.662                          51.000          44.0004

 19  9 29 16 45  0.0000000  0  8G15G06G21G13G25G29G05G02
 123091661.791 7  95915575.95245                  23423560.588    23423560.962
                  23423555.931                          46.000          34.0004

 132270812.720 6 103068150.24344                  25170306.506    25170305.988
                  25170305.269                          41.000          25.0004

 134647008.811 6 104919739.68943                  25622474.644    25622474.038
                  25622469.544                          39.000          20.0004

 115012145.976 8  89619851.38146                  21886077.473    21886077.649
                  21886071.937                          49.000          41.0004

 129790648.941 6 101135555.30844                  24698343.239    24698342.976
                  24698342.160                          39.000          27.0004

 110915303.256 8  86427508.75047                  21106478.206    21106477.837
                  21106472.414                          53.000          46.0004

 106762673.805 8  83191693.52547                  20316257.778    20316257.306
                  20316251.906                          53.000          47.0004

 114178299.404 8  88970101.16347                  21727406.301    21727405.621
                  21727398.242                          50.000          44.0004

 19  9 29 16 45 30.0000000  0  8G15G06G21G13G25G29G05G02
 122976068.492 7  95825503.25145                  23401563.965    23401564.186
                  23401559.630                          47.000          35.0004

 132359409.683 6 103137186.71943                  25187166.059    25187165.457
                  25187164.676                          40.000          23.0004

 134568131.769 6 104858277.09443                  25607464.420    25607464.370
                  25607459.390                          40.000          20.0004

 114929398.808 8  89555373.08246                  21870331.345    21870331.202
                  21870325.838                          50.000          41.0004

 129873741.661 6 101200302.82044                  24714156.238    24714155.088
                  24714154.309                          40.000          27.0004

 110875468.229 8  86396468.47247                  21098897.796    21098897.588
                  21098892.071                          53.000          46.0004

 106790208.109 9  83213148.82447                  20321497.221    20321497.166
                  20321491.524                          54.000          47.0004

 114219544.054 8  89002239.83847                  21735254.894    21735253.991
                  21735246.673                          50.000          44.0004

 19  9 29 16 46  0.0000000  0  8G15G06G21G13G25G29G05G02
 122860629.836 8  95735551.06045                  23379596.773    23379597.040
                  23379592.360                          48.000          35.0004

 132448101.301 6 103206296.92243                  25204043.364    25204042.214
                  25204042.794                          38.000          23.0004

 134489212.347 6 104796781.45843                  25592447.258    25592445.962
                  25592441.241                          39.000          20.0004

 114847055.531 8  89491209.50246                  21854661.705    21854661.598
                  21854656.249                          50.000          40.0004

 129956964.026 6 101265151.36844                  24729992.070    24729991.296
                  24729991.092                          40.000          26.0004

 110836188.021 9  86365860.51747                  21091422.946    21091422.772
                  21091417.280                          55.000          46.0004

 106818109.830 8  83234890.41448                  20326806.872    20326806.819
                  20326801.016                          53.000          48.0004

 114261064.866 8  89034593.69547                  21743155.780    21743154.620
                  21743147.622                          49.000          43.0004

 19  9 29 16 46 30.0000000  0  8G15G06G21G13G25G29G05G02
 122745349.145 7  95645721.95845                  23357659.915    23357659.755
                  23357655.014                          47.000          35.0004

 132536887.432 6 103275480.76143                  25220937.816    25220937.999
                  25220938.217                          38.000          23.0004

 134410251.500 6 104735253.58443                  25577420.390    25577419.818
                  25577415.879                          38.000          20.0004

 114765119.108 8  89427362.95046                  21839069.844    21839069.355
                  21839064.113                          48.000          40.0004

 130040313.272 6 101330098.78344                  24745852.772    24745852.781
                  24745851.464                          40.000          26.0004

 110797464.866 8  86335686.63047                  21084054.379    21084053.930
                  21084048.517                          53.000          46.0004

 106846378.335 8  83256917.81647                  20332186.326    20332186.004
                  20332180.412                          53.000          47.0004

 114302862.147 8  89067162.98447                  21751109.817    21751108.688
                  21751101.337                          49.000          44.0004

 19  9 29 16 47  0.0000000  0  9G15G06G21G13G25G30G29G05G02
 122630226.520 7  95556016.01745                  23335752.240    23335752.515
                  23335747.902                          47.000          35.0004

 132625765.089 6 103344735.94443                  25237851.684    25237850.811
                  25237851.007                          39.000          23.0004

 134331246.785 6 104673691.52543                  25562387.072    25562386.014
                  25562381.317                          38.000          20.0004

 114683589.831 8  89363833.66346                  21823555.147    21823554.568
                  21823549.496                          48.000          40.0004

 130123783.702 6 101395140.62044                  24761736.840    24761736.493
                  24761735.854                          39.000          25.0004

 133640155.507 6 104135185.29043                  25430874.294    25430873.179
                  25430871.837                          41.000          22.0004

 110759297.786 8  86305946.05347                  21076791.251    21076790.869
                  21076785.598                          53.000          46.0004

 106875009.413 8  83279227.74748                  20337634.465    20337634.399
                  20337628.739                          53.000          48.0004

 114344933.586 8  89099945.91347                  21759115.636    21759114.825
                  21759107.415                          50.000          43.0004

 19  9 29 16 47 30.0000000  0  9G15G06G21G13G25G30G29G05G02
 122515267.974 8  95466437.95945                  23313876.257    23313876.550
                  23313871.645                          48.000          35.0004

 132714737.143 6 103414064.65944                  25254782.569    25254782.209
                  25254781.900                          41.000          26.0004

 134252202.121 6 104612098.30643                  25547345.076    25547344.393
                  25547339.372                          40.000          19.0004

 114602473.785 8  89300626.37146                  21808119.041    21808118.751
                  21808113.318                          49.000          40.0004

 130207375.617 6 101460277.09944                  24777644.101    24777643.731
                  24777642.933                          40.000          24.0004

 133582957.749 6 104090615.66444                  25419989.675    25419989.027
                  25419987.001                          41.000          24.0004

 110721692.018 9  86276642.86147                  21069634.968    21069634.820
                  21069629.387                          55.000          46.0004

 106904005.106 8  83301821.78847                  20343152.313    20343152.203
                  20343146.359                          53.000          47.0004

 114387283.001 8  89132945.43847                  21767174.558    21767173.519
                  21767166.444                          51.000          44.0004

 19  9 29 16 48  0.0000000  0  9G15G06G21G13G25G30G29G05G02
 122400476.016 7  95376989.71545                  23292032.392    23292032.434
                  23292027.477                          47.000          35.0004

 132803802.562 6 103483466.14243                  25271730.818    25271730.553
                  25271730.471                          40.000          23.0004

 134173117.318 6 104550473.79443                  25532296.245    25532295.598
                  25532290.653                          39.000          18.0004

 114521773.290 8  89237742.88146                  21792762.295    21792762.357
                  21792756.670                          50.000          40.0004

 130291085.133 6 101525505.21844                  24793573.039    24793572.806
                  24793572.108                          38.000          24.0004

 133526011.291 7 104046241.81244                  25409153.083    25409152.479
                  25409150.340                          42.000          24.0004

 110684648.761 9  86247777.98747                  21062586.086    21062585.800
                  21062580.245                          55.000          46.0004

 106933363.370 9  83324698.34848                  20348738.964    20348738.928
                  20348732.957                          55.000          48.0004

 114429910.084 8  89166161.33147                  21775286.352    21775285.564
                  21775278.314                          51.000          44.0004

 19  9 29 16 48 30.0000000  0  9G15G06G21G13G25G30G29G05G02
 122285852.601 7  95287672.81545                  23270220.507    23270219.975
                  23270215.364                          47.000          35.0004

 132892960.398 6 103552939.67043                  25288697.730    25288697.107
                  25288696.069                          41.000          23.0004

 134093992.534 6 104488818.14243                  25517238.509    25517238.364
                  25517233.373                          40.000          18.0004

 114441490.912 8  89175185.20246                  21777485.292    21777485.072
                  21777479.791                          51.000          41.0004

 130374908.824 6 101590822.29343                  24809524.889    24809524.133
                  24809523.173                          37.000          22.0004

 133469318.356 6 104002065.52343                  25398364.905    25398363.013
                  25398362.415                          39.000          23.0004

 110648169.070 9  86219352.25547                  21055644.135    21055643.950
                  21055638.300                          55.000          46.0004

 106963082.733 8  83347856.28948                  20354394.503    20354394.496
                  20354388.496                          53.000          48.0004

 114472814.765 8  89199593.53347                  21783450.847    21783450.044
                  21783442.802                          49.000          44.0004

 19  9 29 16 49  0.0000000  0  9G15G06G21G13G25G30G29G05G02
 122171400.407 7  95198489.35545                  23248440.566    23248440.388
                  23248435.795                          46.000          35.0004

 132982209.879 6 103622484.63343                  25305681.311    25305680.650
                  25305680.232                          39.000          22.0004

 134014827.855 6 104427131.39843                  25502174.029    25502173.213
                  25502168.649                          40.000          18.0004

 114361628.480 8  89112954.75446                  21762287.930    21762287.716
                  21762282.545                          50.000          41.0004

 130458843.176 6 101656225.61643                  24825496.393    24825496.353
                  24825495.147                          38.000          23.0004

 133412881.310 6 103958088.62343                  25387624.119    25387623.644
                  25387623.056                          38.000          23.0004

 110612254.319 8  86191366.74147                  21048809.820    21048809.507
                  21048803.935                          52.000          45.0004

 106993161.151 8  83371294.01748                  20360118.052    20360118.146
                  20360112.241                          52.000          48.0004

 114515997.104 8  89233242.09547                  21791668.298    21791667.243
                  21791660.048                          49.000          44.0004

 19  9 29 16 49 30.0000000  0  9G15G06G21G13G25G30G29G05G02
 122057119.872 7  95109439.63645                  23226693.648    23226693.635
                  23226689.222                          47.000          35.0004

 133071548.148 6 103692098.73043                  25322681.037    25322680.499
                  25322681.980                          39.000          23.0004

 133935620.855 6 104365411.67242                  25487101.453    25487099.924
                  25487096.421                          40.000          17.0004

 114282186.743 8  89051052.12446                  21747170.646    21747170.357
                  21747165.194                          50.000          41.0004

 130542882.815 6 101721710.98243                  24841489.122    24841488.566
                  24841487.759                          38.000          23.0004

 133356700.561 6 103914311.47043                  25376934.446    25376932.951
                  25376932.355                          40.000          22.0004

 110576903.882 9  86163820.95547                  21042082.854    21042082.511
                  21042076.990                          54.000          46.0004

 107023594.450 9  83395008.27347                  20365909.587    20365909.277
                  20365903.466                          54.000          47.0004

 114559454.539 8  89267105.01547                  21799938.130    21799936.993
                  21799929.784                          50.000          44.0004

 19  9 29 16 50  0.0000000  0  8G15G21G13G25G30G29G05G02
 121943010.953 7  95020523.64846                  23204979.570    23204979.209
                  23204974.957                          46.000          36.0004

 133856370.077 6 104303657.85343                  25472019.906    25472019.431
                  25472015.860                          37.000          18.0004

 114203165.805 8  88989477.39346                  21732133.439    21732133.133
                  21732128.085                          50.000          41.0004

 130627021.943 6 101787273.87044                  24857500.532    24857500.146
                  24857499.028                          38.000          24.0004

 133300776.166 7 103870734.01144                  25366292.497    25366291.899
                  25366289.835                          42.000          24.0004

 110542116.519 8  86136713.92147                  21035463.046    21035462.743
                  21035457.064                          53.000          46.0004

 107054379.178 8  83418996.36948                  20371767.483    20371767.667
                  20371761.492                          52.000          48.0004

 114603185.027 8  89301180.70547                  21808259.495    21808258.314
                  21808251.326                          49.000          44.0004

 19  9 29 16 50 30.0000000  0  8G15G21G13G25G30G29G05G02
 121829078.615 7  94931745.26845                  23183298.951    23183298.802
                  23183293.784                          47.000          35.0004

 133777077.664 6 104241871.59943                  25456931.246    25456931.025
                  25456926.646                          37.000          18.0004

 114124570.303 8  88928234.15646                  21717177.112    21717176.866
                  21717171.687                          50.000          41.0004

 130711259.517 6 101852913.47344                  24873530.340    24873529.990
                  24873529.325                          40.000          24.0004

 133245112.721 7 103827359.93344                  25355700.162    25355699.518
                  25355697.392                          42.000          24.0004

 110507896.287 9  86110048.80547                  21028951.178    21028950.895
                  21028945.168                          55.000          46.0004

 107085515.514 8  83443258.44047                  20377692.484    20377692.675
                  20377686.635                          53.000          47.0004

 114647191.089 8  89335471.11747                  21816633.400    21816632.450
                  21816625.218                          49.000          44.0004

 19  9 29 16 51  0.0000000  0  8G15G21G13G25G30G29G05G02
 121715329.268 8  94843109.46046                  23161653.082    23161653.017
                  23161648.066                          50.000          36.0004

 133697747.959 6 104180056.28043                  25441835.647    25441835.010
                  25441830.106                          37.000          18.0004

 114046406.940 8  88867327.65847                  21702303.366    21702303.068
                  21702297.554                          52.000          42.0004

 130795596.283 6 101918630.35044                  24889579.136    24889578.946
                  24889577.824                          37.000          24.0004

 133189716.729 6 103784194.27943                  25345158.864    25345157.607
                  25345155.491                          41.000          23.0004

 110474248.657 8  86083829.87347                  21022548.178    21022547.981
                  21022542.268                          53.000          46.0004

 107117006.530 8  83467796.89147                  20383684.831    20383685.160
                  20383679.286                          52.000          47.0004

 114691476.915 7  89369979.53247                  21825061.207    21825060.000
                  21825052.577                          47.000          44.0004

 19  9 29 16 51 30.0000000  0  8G15G21G13G25G30G29G05G02
 121601759.136 8  94754613.31646                  23140041.307    23140041.292
                  23140035.996                          49.000          36.0004

 133618374.672 6 104118207.02942                  25426731.724    25426730.643
                  25426726.275                          36.000          17.0004

 113968671.533 8  88806754.62747                  21687510.796    21687510.997
                  21687505.147                          52.000          42.0004

 130880022.242 6 101984416.74544                  24905645.008    24905644.367
                  24905643.717                          39.000          24.0004

 133134583.973 6 103741233.76644                  25334666.934    25334666.807
                  25334664.473                          41.000          24.0004

 110441168.203 9  86058052.89547                  21016253.156    21016252.935
                  21016247.384                          54.000          46.0004

 107148843.332 8  83492604.78747                  20389743.241    20389743.376
                  20389737.561                          53.000          47.0004

 114736035.597 8  89404700.55447                  21833540.442    21833539.268
                  21833531.967                          51.000          44.0004

 19  9 29 16 52  0.0000000  0  9G15G21G07G13G25G30G29G05G02
 121488376.654 8  94666263.38446                  23118465.796    23118464.961
                  23118460.109                          49.000          36.0004

 133538964.265 5 104056328.84642                  25411619.469    25411619.162
                  25411614.542                          35.000          17.0004

 135064871.726 6 105245349.33043                  25701989.749    25701989.596
                  25701984.741                          41.000          22.0004

 113891372.797 8  88746521.86147                  21672801.527    21672801.478
                  21672795.691                          51.000          42.0004

 130964540.322 6 102050274.90144                  24921727.884    24921727.791
                  24921726.652                          38.000          24.0004

 133079723.063 6 103698485.09544                  25324227.240    25324226.614
                  25324224.392                          41.000          25.0004

 110408662.178 8  86032723.52747                  21010067.439    21010067.345
                  21010061.779                          52.000          46.0004

 107181030.676 8  83517685.83047                  20395868.574    20395868.275
                  20395862.571                          52.000          47.0004

 114780873.526 8  89439639.17747                  21842072.747    21842071.970
                  21842064.371                          50.000          44.0004

 19  9 29 16 52 30.0000000  0  9G15G21G07G13G25G30G29G05G02
 121375183.746 8  94578061.17646                  23096925.319    23096925.270
                  23096920.565                          48.000          37.0004

 133459516.207 6 103994421.32642                  25396501.529    25396500.705
                  25396495.992                          37.000          17.0004

 135045304.895 6 105230102.44743                  25698266.399    25698266.044
                  25698261.722                          41.000          22.0004

 113814512.413 8  88686630.66947                  21658175.387    21658175.056
                  21658169.629                          49.000          42.0004

 131049146.424 6 102116201.63344                  24937828.118    24937827.877
                  24937827.113                          37.000          25.0004

 133025135.526 7 103655949.45144                  25313839.702    25313838.802
                  25313837.015                          42.000          25.0004

 110376731.567 9  86007842.53447                  21003991.449    21003991.269
                  21003985.518                          54.000          46.0004

 107213565.941 8  83543037.97447                  20402059.613    20402059.545
                  20402053.799                          53.000          47.0004

 114825989.959 8  89474794.82547                  21850658.075    21850657.307
                  21850649.683                          50.000          44.0004

 19  9 29 16 53  0.0000000  0  9G15G21G07G13G25G30G29G05G02
 121262183.815 8  94490009.33746                  23075422.491    23075422.275
                  23075417.418                          49.000          38.0004

 133380031.897 5 103932485.53643                  25381376.211    25381374.958
                  25381371.123                          35.000          19.0004

 135026161.775 6 105215185.68843                  25694623.879    25694623.834
                  25694618.689                          41.000          23.0004

 113738093.430 8  88627083.42947                  21643632.982    21643632.631
                  21643627.569                          51.000          42.0004

 131133838.393 6 102182195.29844                  24953944.864    24953944.283
                  24953943.550                          38.000          25.0004

 132970824.919 7 103613629.54744                  25303504.897    25303503.673
                  25303501.953                          42.000          25.0004

 110345378.690 9  85983411.72047                  20998025.132    20998024.890
                  20998019.366                          54.000          46.0004

 107246448.878 8  83568661.02947                  20408317.250    20408316.656
                  20408311.205                          52.000          47.0004

 114871386.010 8  89510168.35347                  21859296.430    21859295.546
                  21859288.211                          50.000          44.0004

 19  9 29 16 53 30.0000000  0  9G15G21G07G13G25G30G29G05G02
 121149384.031 8  94402113.44846                  23053956.905    23053957.070
                  23053952.279                          48.000          37.0004

 133300515.828 6 103870525.01943                  25366244.284    25366243.772
                  25366239.833                          38.000          20.0004

 135007447.987 7 105200603.44643                  25691061.932    25691062.285
                  25691057.650                          43.000          22.0004

 113662123.063 8  88567885.76946                  21629176.380    21629175.899
                  21629170.987                          51.000          41.0004

 131218617.118 6 102248256.55444                  24970077.227    24970076.511
                  24970077.177                          37.000          24.0004

 132916797.961 6 103571530.69744                  25293223.988    25293223.041
                  25293221.182                          41.000          26.0004

 110314608.939 9  85959435.29147                  20992169.723    20992169.494
                  20992163.907                          54.000          46.0004

 107279681.850 8  83594556.85147                  20414641.164    20414640.676
                  20414635.261                          53.000          47.0004

 114917066.025 8  89545763.14247                  21867988.983    21867988.143
                  21867980.815                          51.000          43.0004

 19  9 29 16 54  0.0000000  0  9G15G21G07G13G25G30G29G05G02
 121036783.093 8  94314372.50946                  23032529.583    23032529.809
                  23032524.616                          48.000          37.0004

 133220964.519 6 103808537.02343                  25351105.999    25351105.375
                  25351101.373                          39.000          22.0004

 134989160.916 6 105186353.72343                  25687582.265    25687582.044
                  25687577.285                          40.000          22.0004

 113586600.103 8  88509036.73547                  21614804.783    21614804.535
                  21614799.297                          52.000          42.0004

 131303475.496 6 102314379.87843                  24986225.695    24986224.751
                  24986224.833                          38.000          23.0004

 132863053.155 6 103529651.68844                  25282996.634    25282995.117
                  25282992.972                          40.000          25.0004

 110284420.111 9  85935911.53047                  20986425.091    20986424.778
                  20986419.128                          54.000          46.0004

 107313259.755 8  83620721.44647                  20421030.860    20421030.606
                  20421024.843                          52.000          47.0004

 114963026.151 8  89581576.20447                  21876735.285    21876734.067
                  21876726.752                          49.000          43.0004

 19  9 29 16 54 30.0000000  0  9G15G21G07G13G25G30G29G05G02
 120924383.545 8  94226788.49246                  23011140.783    23011140.593
                  23011135.662                          48.000          36.0004

 133141378.453 6 103746521.95043                  25335961.160    25335961.011
                  25335956.999                          38.000          23.0004

 134971301.233 6 105172437.06643                  25684184.028    25684182.900
                  25684178.672                          40.000          21.0004

 113511526.696 8  88450537.99147                  21600518.936    21600518.719
                  21600513.338                          50.000          42.0004

 131388410.339 6 102380562.81343                  25002387.390    25002387.070
                  25002387.335                          37.000          22.0004

 132809592.860 6 103487994.37143                  25272822.782    25272821.281
                  25272820.268                          40.000          23.0004

 110254813.471 9  85912841.42547                  20980791.086    20980790.792
                  20980785.220                          54.000          46.0004

 107347180.915 8  83647153.50947                  20427485.844    20427485.834
                  20427479.822                          53.000          47.0004

 115009266.610 8  89617607.70847                  21885534.442    21885533.664
                  21885526.139                          49.000          43.0004

 19  9 29 16 55  0.0000000  0  9G15G21G07G13G25G30G29G05G02
 120812189.337 8  94139364.46946                  22989790.795    22989790.494
                  22989785.766                          48.000          36.0004

 133061759.529 6 103684481.28744                  25320810.641    25320810.352
                  25320805.750                          40.000          25.0004

 134953871.576 6 105158855.46343                  25680867.101    25680866.599
                  25680862.392                          41.000          20.0004

 113436906.818 8  88392392.64847                  21586319.237    21586319.026
                  21586313.655                          50.000          42.0004

 131473419.870 6 102446803.92443                  25018564.397    25018564.211
                  25018564.383                          38.000          22.0004

 132756421.011 6 103446561.83844                  25262703.921    25262702.644
                  25262702.268                          39.000          24.0004

 110225791.805 8  85890227.14047                  20975268.492    20975268.042
                  20975262.625                          52.000          46.0004

 107381444.915 8  83673852.72647                  20434006.101    20434006.119
                  20434000.133                          53.000          47.0004

 115055789.033 8  89653858.93247                  21894387.218    21894386.605
                  21894378.980                          48.000          44.0004

 19  9 29 16 55 30.0000000  0  9G15G21G07G13G25G30G29G05G02
 120700201.511 7  94052101.26146                  22968480.540    22968479.974
                  22968475.100                          47.000          36.0004

 132982106.092 7 103622413.71844                  25305653.532    25305652.856
                  25305648.184                          42.000          26.0004

 134936871.230 6 105145608.39143                  25677632.123    25677631.717
                  25677627.331                          40.000          21.0004

 113362740.987 8  88334601.11347                  21572205.856    21572205.646
                  21572200.340                          49.000          42.0004

 131558498.994 6 102513099.25343                  25034755.489    25034754.599
                  25034754.565                          37.000          23.0004

 132703538.233 6 103405354.55644                  25252641.415    25252639.666
                  25252639.129                          41.000          25.0004

 110197354.342 8  85868068.08047                  20969856.850    20969856.499
                  20969851.214                          52.000          46.0004

 107416048.462 9  83700816.52547                  20440591.026    20440591.108
                  20440584.904                          54.000          47.0004

 115102591.537 8  89690328.40347                  21903293.731    21903292.884
                  21903285.282                          50.000          43.0004

 19  9 29 16 56  0.0000000  0  9G15G21G07G13G25G30G29G05G02
 120588422.497 8  93965000.75546                  22947209.714    22947209.353
                  22947204.333                          48.000          37.0004

 132902419.065 7 103560319.96944                  25290489.181    25290488.940
                  25290483.955                          42.000          27.0004

 134920301.508 6 105132696.89943                  25674478.806    25674478.304
                  25674473.676                          40.000          20.0004

 113289031.936 8  88277165.51147                  21558179.321    21558179.032
                  21558173.694                          50.000          42.0004

 131643644.911 6 102579446.63343                  25050958.245    25050957.282
                  25050957.186                          38.000          23.0004

 132650947.310 6 103364374.68144                  25242632.675    25242631.645
                  25242630.762                          38.000          24.0004

 110169502.451 9  85846365.31447                  20964556.850    20964556.521
                  20964551.042                          54.000          46.0004

 107450990.238 8  83728043.88147                  20447240.096    20447240.326
                  20447234.201                          53.000          47.0004

 115149674.329 8  89727016.27047                  21912253.077    21912252.259
                  21912244.891                          49.000          43.0004

 19  9 29 16 56 30.0000000  0  9G15G21G07G13G25G30G29G05G02
 120476853.830 8  93878064.16446                  22925978.495    22925978.250
                  22925973.585                          48.000          36.0004

 132822697.207 7 103498199.06844                  25275319.033    25275318.547
                  25275313.497                          42.000          26.0004

 134904162.328 6 105120120.90243                  25671407.913    25671407.097
                  25671402.715                          39.000          20.0004

 113215780.895 8  88220086.80447                  21544240.002    21544239.846
                  21544234.378                          50.000          42.0004

 131728853.004 6 102645842.47643                  25067172.229    25067172.059
                  25067171.357                          37.000          22.0004

 132598649.252 6 103323623.00244                  25232681.112    25232679.988
                  25232679.352                          40.000          25.0004

 110142236.270 8  85825118.93847                  20959368.265    20959367.950
                  20959362.441                          53.000          45.0004

 107486267.226 8  83755532.43847                  20453953.044    20453953.068
                  20453947.295                          51.000          47.0004

 115197036.230 8  89763921.63247                  21921265.793    21921265.038
                  21921257.473                          49.000          43.0004

 19  9 29 16 57  0.0000000  0  9G15G21G07G13G25G30G29G05G02
 120365501.454 7  93791296.10546                  22904788.761    22904788.858
                  22904783.871                          47.000          36.0004

 132742944.087 7 103436053.82644                  25260142.399    25260141.630
                  25260137.307                          42.000          26.0004

 134888457.629 6 105107883.45743                  25668419.744    25668418.166
                  25668414.298                          39.000          20.0004

 113142993.476 8  88163369.35947                  21530389.268    21530388.997
                  21530383.358                          51.000          42.0004

 131814123.284 6 102712286.77443                  25083398.779    25083398.122
                  25083397.589                          38.000          21.0004

 132546649.723 6 103283103.94644                  25222786.164    25222785.033
                  25222784.452                          41.000          25.0004

 110115560.157 8  85804332.36047                  20954291.931    20954291.721
                  20954286.248                          53.000          46.0004

 107521881.393 8  83783283.73147                  20460730.352    20460730.175
                  20460724.483                          53.000          47.0004

 115244680.778 8  89801047.23547                  21930332.227    21930331.384
                  21930324.137                          50.000          43.0004

 19  9 29 16 57 30.0000000  0  9G15G21G07G13G25G30G29G05G02
 120254370.235 7  93704700.37546                  22883641.365    22883641.159
                  22883636.439                          47.000          36.0004

 132663162.599 7 103373886.46844                  25244960.376    25244959.886
                  25244955.158                          42.000          24.0004

 134873190.855 6 105095987.25943                  25665514.183    25665513.105
                  25665509.701                          40.000          20.0004

 113070674.329 8  88107016.79346                  21516627.506    21516627.121
                  21516621.488                          51.000          41.0004

 131899454.841 6 102778778.83243                  25099636.898    25099636.272
                  25099635.957                          37.000          22.0004

 132494953.296 6 103242821.07444                  25212948.195    25212946.894
                  25212946.184                          39.000          24.0004

 110089477.567 8  85784008.27147                  20949328.556    20949328.293
                  20949323.054                          51.000          46.0004

 107557833.270 8  83811298.17247                  20467571.727    20467571.391
                  20467565.857                          51.000          47.0004

 115292610.013 8  89838394.67847                  21939452.902    21939452.185
                  21939444.946                          49.000          43.0004

 19  9 29 16 58  0.0000000  0  9G15G21G07G13G25G30G29G05G02
 120143463.776 7  93618279.78146                  22862536.327    22862536.484
                  22862531.617                          47.000          37.0004

 132583354.310 7 103311698.21343                  25229773.222    25229772.700
                  25229768.188                          42.000          23.0004

 134858363.942 6 105084433.82943                  25662692.345    25662691.936
                  25662688.888                          40.000          22.0004

 112998826.819 8  88051031.74746                  21502955.155    21502954.864
                  21502949.508                          49.000          41.0004

 131984845.494 6 102845316.91343                  25115886.889    25115885.953
                  25115885.238                          39.000          23.0004

 132443563.381 6 103202777.05344                  25203169.272    25203168.062
                  25203167.466                          41.000          25.0004

 110063990.619 8  85764148.31147                  20944478.529    20944478.326
                  20944473.032                          53.000          46.0004

 107594122.017 9  83839575.11547                  20474477.112    20474476.784
                  20474471.243                          54.000          46.0004

 115340824.990 8  89875964.76547                  21948627.933    21948626.892
                  21948619.799                          49.000          42.0004

 19  9 29 16 58 30.0000000  0  9G15G21G07G13G25G30G29G05G02
 120032780.191 8  93532032.85146                  22841474.030    22841474.070
                  22841469.159                          49.000          37.0004

 132503514.774 6 103249485.60443                  25214579.697    25214579.417
                  25214575.479                          41.000          23.0004

 134843973.119 6 105073220.25043                  25659954.198    25659953.925
                  25659949.891                          41.000          23.0004

 112927448.646 8  87995412.41347                  21489372.318    21489372.195
                  21489366.620                          51.000          42.0004

 132070287.393 6 102911894.94143                  25132145.360    25132145.249
                  25132144.406                          38.000          23.0004

 132392477.899 7 103162970.24644                  25193448.110    25193447.111
                  25193445.951                          42.000          27.0004

 110039096.076 8  85744749.97047                  20939741.468    20939741.011
                  20939735.683                          53.000          46.0004

 107630741.655 8  83868109.89447                  20481445.595    20481445.320
                  20481439.795                          53.000          47.0004

 115389321.189 8  89913753.98247                  21957856.183    21957854.930
                  21957848.149                          49.000          42.0004

 19  9 29 16 59  0.0000000  0  9G15G21G07G13G25G30G29G05G02
 119922323.647 8  93445962.84446                  22820454.831    22820454.904
                  22820450.227                          48.000          37.0004

 132423646.207 6 103187250.37543                  25199381.897    25199380.728
                  25199376.632                          40.000          22.0004

 134830021.158 7 105062348.62244                  25657299.600    25657299.300
                  25657295.460                          43.000          24.0004

 112856543.924 8  87940162.00047                  21475879.623    21475879.319
                  21475873.787                          52.000          42.0004

 132155779.116 6 102978511.80743                  25148413.671    25148413.655
                  25148413.606                          38.000          23.0004

 132341700.807 6 103123403.73644                  25183785.342    25183783.961
                  25183782.995                          40.000          26.0004

 110014796.728 9  85725815.41047                  20935117.356    20935117.089
                  20935111.648                          54.000          46.0004

 107667692.382 8  83896902.66347                  20488477.162    20488476.812
                  20488471.192                          53.000          47.0004

 115438100.603 8  89951763.88647                  21967138.642    21967137.602
                  21967130.757                          48.000          42.0004

 19  9 29 16 59 30.0000000  0  9G15G21G07G13G25G30G29G05G02
 119812099.549 8  93360073.96046                  22799479.945    22799480.042
                  22799475.118                          49.000          37.0004

 132343751.789 6 103124995.00543                  25184178.776    25184176.434
                  25184173.171                          36.000          20.0004

 134816511.944 7 105051821.97744                  25654728.666    25654729.255
                  25654724.548                          42.000          24.0004

 112786118.063 8  87885284.72847                  21462478.035    21462477.687
                  21462472.321                          51.000          43.0004

 132241320.255 6 103045167.17743                  25164691.388    25164691.869
                  25164690.885                          38.000          22.0004

 132291237.211 6 103084081.46744                  25174182.419    25174181.014
                  25174180.231                          39.000          24.0004

 109991096.410 9  85707347.62547                  20930607.410    20930607.272
                  20930601.597                          54.000          46.0004

 107704975.234 8  83925954.22647                  20495571.816    20495571.577
                  20495565.879                          52.000          47.0004

 115487165.936 8  89989996.58447                  21976475.537    21976474.421
                  21976467.634                          48.000          42.0004

 19  9 29 17  0  0.0000000  0  9G15G21G07G13G25G30G29G05G02
 119702114.989 8  93274371.73346                  22778550.803    22778550.367
                  22778545.678                          50.000          37.0004

 132263836.745 6 103062723.57643                  25168971.620    25168969.313
                  25168965.823                          37.000          18.0004

 134803450.396 6 105041644.17643                  25652243.121    25652242.578
                  25652238.487                          39.000          23.0004

 112716177.430 8  87830785.55647                  21449168.715    21449168.369
                  21449163.045                          51.000          43.0004

 132326912.180 6 103111862.12243                  25180980.305    25180979.360
                  25180979.331                          37.000          22.0004

 132241094.096 6 103045008.99144                  25164640.932    25164638.773
                  25164637.586                          38.000          24.0004

 109968000.486 8  85689350.80047                  20926212.566    20926212.320
                  20926206.551                          53.000          47.0004

 107742593.174 8  83955266.90447                  20502730.245    20502730.117
                  20502724.310                          52.000          47.0004

 115536521.614 8  90028455.52347                  21985867.818    21985866.856
                  21985859.846                          50.000          43.0004

 19  9 29 17  0 30.0000000  0  9G15G21G07G13G25G30G29G05G02
 119592365.618 8  93188852.77546                  22757665.842    22757665.816
                  22757661.136                          48.000          38.0004

 132183894.355 6 103000430.81842                  25153758.454    25153757.109
                  25153752.123                          37.000          16.0004

 134790830.651 6 105031810.62743                  25649840.592    25649840.209
                  25649836.402                          40.000          20.0004

 112646717.366 8  87776660.85547                  21435950.840    21435950.520
                  21435945.116                          50.000          42.0004

 132412544.670 6 103178588.66543                  25197275.462    25197274.855
                  25197274.046                          39.000          22.0004

 132191266.743 6 103006182.56144                  25155158.472    25155157.226
                  25155155.719                          39.000          24.0004

 109945503.241 8  85671820.48147                  20921931.416    20921931.102
                  20921925.338                          53.000          46.0004

 107780537.803 8  83984834.14547                  20509950.941    20509951.024
                  20509944.961                          52.000          47.0004

 115586160.692 8  90067135.30347                  21995313.865    21995313.151
                  21995305.936                          50.000          43.0004

 19  9 29 17  1  0.0000000  0  9G15G21G07G13G25G30G29G05G02
 119482859.550 8  93103523.40746                  22736827.389    22736827.295
                  22736822.559                          49.000          37.0004

 132103930.479 6 102938121.33143                  25138541.276    25138541.332
                  25138535.856                          37.000          18.0004

 134778659.256 6 105022326.42543                  25647525.518    25647524.086
                  25647520.349                          40.000          21.0004

 112577745.848 8  87722916.83547                  21422826.085    21422825.748
                  21422820.047                          51.000          43.0004

 132498220.158 6 103245348.69943                  25213579.644    25213578.434
                  25213577.552                          38.000          22.0004

 132141763.110 6 102967608.34344                  25145738.712    25145737.399
                  25145736.112                          39.000          25.0004

 109923611.441 9  85654761.94347                  20917765.582    20917765.233
                  20917759.448                          54.000          46.0004

 107818812.810 9  84014658.82347                  20517234.378    20517234.647
                  20517228.489                          54.000          47.0004

 115636088.656 8  90106040.18547                  22004814.741    22004813.888
                  22004806.787                          49.000          43.0004

 19  9 29 17  1 30.0000000  0  9G15G21G07G13G25G30G29G05G02
 119373594.643 7  93018381.96846                  22716034.983    22716034.967
                  22716029.991                          46.000          38.0004

 132023941.112 6 102875791.98043                  25123319.891    25123319.804
                  25123314.750                          37.000          19.0004

 134766932.326 6 105013188.57043                  25645293.640    25645293.461
                  25645289.552                          40.000          23.0004

 112509260.698 8  87669551.80347                  21409793.822    21409793.557
                  21409787.787                          51.000          43.0004

 132583930.882 6 103312136.18443                  25229889.398    25229888.728
                  25229887.916                          38.000          21.0004

 132092580.939 6 102929284.58244                  25136379.412    25136378.117
                  25136376.186                          41.000          24.0004

 109902321.196 8  85638172.14447                  20913714.070    20913713.825
                  20913708.131                          53.000          47.0004

 107857412.565 8  84044736.55647                  20524579.710    20524579.952
                  20524573.792                          53.000          47.0004

 115686300.851 8  90145166.53547                  22014369.893    22014368.626
                  22014361.722                          50.000          42.0004

 19  9 29 17  2  0.0000000  0  9G15G21G07G13G25G30G29G05G02
 119264572.746 8  92933429.88046                  22695288.644    22695289.136
                  22695283.746                          49.000          38.0004

 131943925.723 6 102813442.38043                  25108093.750    25108093.398
                  25108088.364                          38.000          20.0004

 134755649.527 6 105004396.79443                  25643146.627    25643146.221
                  25643142.462                          40.000          23.0004

 112441262.999 8  87616566.59847                  21396854.309    21396854.243
                  21396848.195                          52.000          43.0004

 132669672.481 6 103378947.75043                  25246204.934    25246204.467
                  25246204.032                          37.000          22.0004

 132043721.279 6 102891212.17444                  25127081.077    25127079.428
                  25127078.255                          40.000          26.0004

 109881632.503 9  85622051.08747                  20909777.265    20909776.926
                  20909771.196                          54.000          46.0004

 107896333.662 8  84075064.67947                  20531986.205    20531986.257
                  20531980.229                          53.000          47.0004

 115736796.170 8  90184513.50347                  22023978.564    22023977.456
                  22023970.856                          49.000          42.0004

 19  9 29 17  2 30.0000000  0  9G15G21G07G13G25G30G29G05G02
 119155795.581 8  92848668.48846                  22674589.256    22674589.376
                  22674584.095                          49.000          39.0004

 131863883.697 6 102751071.99243                  25092862.093    25092862.092
                  25092856.974                          39.000          23.0004

 134744811.243 6 104995951.34843                  25641084.428    25641083.836
                  25641079.606                          39.000          23.0004

 112373754.278 8  87563962.41547                  21384008.052    21384007.736
                  21384001.919                          52.000          43.0004

 132755441.209 6 103445780.46543                  25262526.180    25262525.741
                  25262525.772                          37.000          20.0004

 131995185.892 6 102853392.46044                  25117845.543    25117844.049
                  25117843.646                          39.000          26.0004

 109861545.514 9  85606398.89047                  20905954.698    20905954.510
                  20905948.698                          54.000          46.0004

 107935573.873 8  84105641.46447                  20539453.501    20539453.373
                  20539447.564                          53.000          46.0004

 115787574.241 8  90224080.79947                  22033641.615    22033640.511
                  22033633.579                          48.000          43.0004

 19  9 29 17  3  0.0000000  0  9G15G21G07G13G25G30G29G05G02
 119047269.247 8  92764102.55946                  22653937.474    22653937.539
                  22653932.375                          49.000          39.0004

 131783819.678 6 102688684.49944                  25077627.434    25077625.444
                  25077621.228                          39.000          24.0004

 134734421.627 6 104987855.51743                  25639107.950    25639105.965
                  25639102.541                          38.000          20.0004

 112306740.025 8  87511743.54147                  21371255.392    21371255.180
                  21371249.761                          52.000          43.0004

 132841237.612 6 103512634.74343                  25278853.462    25278852.130
                  25278852.315                          37.000          21.0004

 131946980.588 6 102815829.91744                  25108671.422    25108669.505
                  25108670.533                          37.000          24.0004

 109842064.916 8  85591219.20447                  20902247.649    20902247.451
                  20902241.749                          52.000          47.0004

 107975135.363 8  84136468.59847                  20546981.707    20546981.673
                  20546975.898                          52.000          46.0004

 115838638.436 8  90263871.06147                  22043358.960    22043358.169
                  22043350.811                          51.000          42.0004

 19  9 29 17  3 30.0000000  0  9G15G21G07G13G25G30G29G05G02
 118938995.669 8  92679733.58846                  22633333.824    22633333.622
                  22633328.804                          50.000          39.0004

 131703733.275 6 102626279.52944                  25062387.023    25062385.810
                  25062381.328                          40.000          26.0004

 134724480.865 6 104980109.43743                  25637215.750    25637215.167
                  25637210.991                          41.000          21.0004

 112240222.116 8  87459911.43247                  21358597.420    21358597.099
                  21358591.982                          52.000          44.0004

 132927057.833 6 103579507.57643                  25295183.995    25295183.846
                  25295183.292                          37.000          20.0004

 131899107.148 6 102778525.99944                  25099561.906    25099560.475
                  25099560.005                          39.000          25.0004

 109823190.941 9  85576512.21247                  20898656.008    20898655.807
                  20898650.185                          54.000          46.0004

 108015016.072 9  84167544.46747                  20554570.753    20554570.500
                  20554564.870                          54.000          47.0004

 115889988.411 8  90303884.00247                  22053130.532    22053129.888
                  22053122.357                          49.000          42.0004

 19  9 29 17  4  0.0000000  0  9G15G21G07G13G25G30G29G05G02
 118830980.293 8  92595565.80846                  22612778.931    22612779.153
                  22612774.129                          50.000          40.0004

 131623627.609 7 102563859.57744                  25047143.242    25047141.743
                  25047137.859                          42.000          27.0004

 134714992.386 6 104972715.75543                  25635410.533    25635409.121
                  25635405.562                          37.000          21.0004

 112174205.439 8  87408469.89347                  21346034.664    21346034.439
                  21346029.196                          51.000          44.0004

 133012901.319 6 103646398.52143                  25311519.392    25311519.535
                  25311519.047                          37.000          21.0004

 131851570.300 6 102741484.35744                  25090516.182    25090514.037
                  25090514.328                          40.000          24.0004

 109804926.976 9  85562280.55447                  20895180.612    20895180.219
                  20895174.632                          54.000          46.0004

 108055216.645 8  84198869.58247                  20562220.642    20562220.397
                  20562214.753                          53.000          47.0004

 115941626.580 8  90344121.51547                  22062956.921    22062955.962
                  22062948.764                          49.000          42.0004

 19  9 29 17  4 30.0000000  0  9G15G21G07G13G25G30G29G05G02
 118723223.410 8  92511599.44446                  22592273.607    22592273.824
                  22592268.621                          50.000          40.0004

 131543501.082 6 102501423.36144                  25031895.249    25031894.898
                  25031890.211                          40.000          29.0004

 134705954.776 6 104965673.42443                  25633690.118    25633689.816
                  25633686.167                          40.000          21.0004

 112108690.073 8  87357418.98647                  21333567.505    21333567.119
                  21333561.925                          50.000          43.0004

 133098762.804 6 103713303.51143                  25327858.099    25327858.439
                  25327858.089                          37.000          21.0004

 131804370.281 6 102704705.15844                  25081533.607    25081532.032
                  25081531.600                          40.000          24.0004

 109787271.758 9  85548523.23947                  20891820.892    20891820.509
                  20891814.932                          54.000          46.0004

 108095733.481 8  84230441.13247                  20569930.854    20569930.543
                  20569924.825                          53.000          47.0004

 115993550.142 8  90384581.40147                  22072837.469    22072836.478
                  22072829.672                          50.000          42.0004

 19  9 29 17  5  0.0000000  0  9G15G21G07G13G25G30G29G05G02
 118615726.190 8  92427835.42346                  22571817.250    22571817.456
                  22571812.572                          49.000          40.0004

 131463352.784 6 102438970.16444                  25016643.992    25016642.962
                  25016638.264                          41.000          29.0004

 134697367.239 6 104958981.79543                  25632055.596    25632056.832
                  25632052.505                          40.000          22.0004

 112043676.560 8  87306759.12747                  21321195.851    21321195.395
                  21321190.240                          51.000          42.0004

 133184637.841 6 103780219.03243                  25344200.669    25344199.647
                  25344199.563                          36.000          20.0004

 131757507.868 6 102668189.02644                  25072616.512    25072615.335
                  25072614.010                          39.000          25.0004

 109770224.811 8  85535239.90647                  20888576.965    20888576.634
                  20888571.075                          53.000          46.0004

 108136563.591 8  84262256.79947                  20577700.326    20577700.291
                  20577694.741                          52.000          47.0004

 116045758.219 8  90425262.99047                  22082772.310    22082771.267
                  22082764.358                          48.000          42.0004

 19  9 29 17  5 30.0000000  0  9G15G21G07G13G25G30G29G05G02
 118508493.890 8  92344277.83346                  22551411.825    22551411.725
                  22551406.584                          49.000          39.0004

 131383185.775 7 102376502.39844                  25001388.292    25001388.046
                  25001383.512                          43.000          28.0004

 134689233.402 6 104952643.71344                  25630508.380    25630509.154
                  25630504.421                          40.000          24.0004

 111979169.854 8  87256494.18247                  21308920.638    21308920.137
                  21308914.817                          49.000          43.0004

 133270525.993 6 103847144.82343                  25360544.235    25360543.398
                  25360543.668                          36.000          19.0004

 131710988.065 7 102631939.82244                  25063764.395    25063763.517
                  25063761.752                          43.000          26.0004

 109753789.731 9  85522433.35147                  20885449.317    20885449.096
                  20885443.641                          54.000          46.0004

 108177707.901 8  84294317.29647                  20585530.064    20585529.898
                  20585524.257                          52.000          46.0004

 116098253.511 8  90466168.38747                  22092762.197    22092761.244
                  22092753.859                          48.000          42.0004

 19  9 29 17  6  0.0000000  0  9G15G21G07G13G25G30G29G05G02
 118401526.926 8  92260926.99046                  22531056.663    22531056.504
                  22531051.154                          50.000          39.0004

 131302998.166 7 102314018.57844                  24986129.682    24986129.074
                  24986124.130                          42.000          28.0004

 134681551.729 6 104946657.96644                  25629047.316    25629046.545
                  25629042.877                          40.000          24.0004

 111915169.997 8  87206624.18247                  21296741.972    21296741.529
                  21296736.147                          51.000          43.0004

 133356422.002 5 103914076.69643                  25376889.600    25376889.091
                  25376889.431                          35.000          21.0004

 131664811.049 7 102595957.76044                  25054977.322    25054976.980
                  25054974.810                          42.000          26.0004

 109737965.104 9  85510102.47347                  20882438.082    20882437.749
                  20882432.287                          54.000          46.0004

 108219163.536 8  84326620.38247                  20593418.806    20593418.770
                  20593412.904                          53.000          47.0004

 116151033.799 8  90507295.87347                  22102805.978    22102805.163
                  22102797.484                          49.000          42.0004

 19  9 29 17  6 30.0000000  0  9G15G21G07G13G25G30G29G05G02
 118294829.532 8  92177786.20146                  22510752.792    22510752.586
                  22510747.157                          50.000          39.0004

 131222792.808 6 102251520.93344                  24970866.845    24970866.397
                  24970861.387                          40.000          27.0004

 134674324.169 7 104941026.10843                  25627670.806    25627671.613
                  25627666.948                          42.000          23.0004

 111851680.369 8  87157151.76647                  21284660.135    21284659.711
                  21284654.461                          50.000          43.0004

 133442324.225 6 103981013.41443                  25393236.901    25393235.794
                  25393236.045                          37.000          20.0004

 131618980.443 7 102560245.62244                  25046256.038    25046254.681
                  25046253.211                          42.000          25.0004

 109722753.133 9  85498248.99547                  20879543.301    20879543.212
                  20879537.506                          54.000          46.0004

 108260930.011 8  84359165.68147                  20601366.590    20601366.613
                  20601360.712                          53.000          47.0004

 116204100.358 8  90548646.42647                  22112903.901    22112903.400
                  22112895.832                          50.000          42.0004

 19  9 29 17  7  0.0000000  0  9G15G21G07G13G25G30G29G05G02
 118188404.935 8  92094857.98046                  22490500.701    22490500.739
                  22490495.031                          50.000          39.0004

 131142570.908 6 102189010.39144                  24955601.043    24955600.638
                  24955595.579                          38.000          25.0004

 134667552.714 6 104935749.66643                  25626382.182    25626382.788
                  25626378.452                          39.000          22.0004

 111788704.178 8  87108079.42847                  21272676.169    21272675.873
                  21272670.664                          50.000          43.0004

 133528230.576 6 104047953.37143                  25409584.442    25409583.341
                  25409583.267                          36.000          20.0004

 131573499.447 6 102524805.93044                  25037601.332    25037600.281
                  25037597.854                          40.000          26.0004

 109708155.622 8  85486874.31447                  20876765.580    20876765.325
                  20876759.764                          53.000          47.0004

 108303006.325 8  84391952.42247                  20609373.536    20609373.467
                  20609367.501                          53.000          47.0004

 116257454.175 8  90590220.81247                  22123057.142    22123056.339
                  22123048.943                          49.000          43.0004

 19  9 29 17  7 30.0000000  0  9G15G21G07G13G25G30G29G05G02
 118082256.128 8  92012144.65846                  22470301.227    22470301.092
                  22470295.869                          49.000          39.0004

 131062333.100 6 102126487.46043                  24940332.350    24940331.057
                  24940326.879                          38.000          23.0004

 134661237.965 6 104930829.11243                  25625180.490    25625180.377
                  25625177.249                          39.000          22.0004

 111726243.512 8  87059408.80247                  21260790.189    21260789.872
                  21260784.576                          51.000          43.0004

 133614138.151 6 104114894.25843                  25425931.288    25425931.082
                  25425931.623                          37.000          20.0004

 131528370.517 7 102489640.60744                  25029012.924    25029011.696
                  25029010.647                          42.000          25.0004

 109694173.537 8  85475979.18447                  20874104.881    20874104.502
                  20874098.979                          53.000          47.0004

 108345391.123 8  84424979.53347                  20617439.109    20617439.022
                  20617433.026                          53.000          47.0004

 116311095.381 8  90632019.13447                  22133264.591    22133263.734
                  22133256.540                          49.000          43.0004

 19  9 29 17  8  0.0000000  0  9G15G21G07G13G25G30G29G05G02
 117976378.562 8  91929642.69046                  22450153.425    22450153.456
                  22450148.313                          50.000          39.0004

 130982072.563 6 102063946.82743                  24925059.238    24925056.948
                  24925053.816                          37.000          20.0004

 134655373.359 6 104926259.32543                  25624065.058    25624063.990
                  25624061.226                          40.000          22.0004

 111664293.492 8  87011136.07647                  21249001.454    21249001.310
                  21248995.876                          51.000          43.0004

 133700036.632 6 104181828.09443                  25442277.819    25442277.231
                  25442276.984                          37.000          19.0004

 131483588.563 6 102454745.59244                  25020491.701    25020489.832
                  25020488.688                          39.000          25.0004

 109680800.087 9  85465558.31347                  20871559.983    20871559.894
                  20871554.031                          55.000          47.0004

 108388075.694 8  84458240.23047                  20625561.552    20625561.606
                  20625555.781                          53.000          46.0004

 116365016.402 8  90674035.49247                  22143525.594    22143524.555
                  22143517.447                          49.000          43.0004

 19  9 29 17  8 30.0000000  0  9G15G21G07G13G25G30G29G05G02
 117870775.808 8  91847354.86246                  22430057.899    22430057.794
                  22430052.767                          50.000          39.0004

 130901791.246 6 102001390.00543                  24909782.472    24909779.640
                  24909776.388                          36.000          19.0004

 134649960.823 6 104922041.81443                  25623035.104    25623033.680
                  25623030.564                          41.000          22.0004

 111602857.164 8  86963263.63547                  21237310.331    21237310.448
                  21237304.895                          51.000          43.0004

 133785924.174 6 104248753.36643                  25458621.394    25458621.104
                  25458621.316                          36.000          20.0004

 131439156.939 7 102420123.61144                  25012036.523    25012036.023
                  25012033.372                          43.000          26.0004

 109668037.441 9  85455613.39347                  20869131.367    20869131.093
                  20869125.369                          54.000          46.0004

 108431059.821 8  84491734.34947                  20633741.291    20633741.185
                  20633735.318                          52.000          47.0004

 116419218.656 8  90716270.99547                  22153839.678    22153838.937
                  22153831.757                          48.000          42.0004

 19  9 29 17  9  0.0000000  0  8G15G21G07G13G30G29G05G02
 117765454.317 8  91765286.19946                  22410015.931    22410015.742
                  22410010.853                          51.000          39.0004

 130821493.265 6 101938820.21143                  24894501.062    24894498.977
                  24894496.615                          36.000          19.0004

 134645004.767 6 104918179.98843                  25622091.851    25622090.604
                  25622087.700                          40.000          21.0004

 111541940.527 8  86915796.14347                  21225718.667    21225718.425
                  21225712.807                          52.000          43.0004

 131395081.845 7 102385779.40244                  25003649.641    25003648.870
                  25003646.321                          43.000          27.0004

 109655890.164 9  85446147.97547                  20866819.717    20866819.555
                  20866813.690                          54.000          47.0004

 108474345.702 8  84525463.59947                  20641978.379    20641978.206
                  20641972.411                          52.000          47.0004

 116473706.007 8  90758728.64847                  22164208.270    22164207.480
                  22164200.406                          49.000          42.0004

 19  9 29 17  9 30.0000000  0  8G15G21G07G13G30G29G05G02
 117660417.545 8  91683439.40046                  22390027.913    22390027.812
                  22390023.063                          50.000          39.0004

 130741180.310 6 101876238.72043                  24879218.358    24879216.615
                  24879212.871                          38.000          18.0004

 134640506.241 6 104914674.66443                  25621235.475    25621235.376
                  25621230.582                          40.000          21.0004

 111481546.363 8  86868735.77147                  21214225.963    21214225.865
                  21214220.165                          51.000          44.0004

 131351366.158 7 102351715.25144                  24995330.757    24995330.000
                  24995327.130                          42.000          28.0004

 109644359.359 9  85437162.93147                  20864625.583    20864625.342
                  20864619.482                          54.000          46.0004

 108517932.628 8  84559427.43347                  20650272.633    20650272.601
                  20650266.634                          53.000          47.0004

 116528478.747 8  90801408.68047                  22174631.360    22174630.402
                  22174623.241                          49.000          42.0004

 19  9 29 17 10  0.0000000  0  8G15G21G07G13G30G29G05G02
 117555670.256 8  91601818.16546                  22370095.130    22370095.043
                  22370089.959                          49.000          39.0004

 130660855.516 6 101813647.97443                  24863933.657    24863932.050
                  24863927.363                          39.000          20.0004

 134636468.077 6 104911528.03643                  25620467.224    25620466.987
                  25620461.620                          38.000          20.0004

 111421678.831 8  86822085.76747                  21202833.612    21202833.422
                  21202827.755                          52.000          44.0004

 131308014.267 6 102317934.58344                  24987080.923    24987080.605
                  24987078.528                          41.000          27.0004

 109633447.981 9  85428660.55347                  20862549.173    20862548.969
                  20862543.156                          54.000          47.0004

 108561821.299 9  84593626.38947                  20658624.433    20658624.291
                  20658618.408                          54.000          47.0004

 116583539.371 8  90844313.04047                  22185108.930    22185107.986
                  22185100.938                          50.000          42.0004

 19  9 29 17 10 30.0000000  0  8G15G21G07G13G30G29G05G02
 117451214.883 8  91520424.39646                  22350217.867    22350217.867
                  22350212.616                          48.000          39.0004

 130580519.218 7 101751048.28743                  24848645.803    24848645.022
                  24848640.131                          43.000          22.0004

 134632891.084 6 104908740.78043                  25619786.500    25619786.395
                  25619781.289                          41.000          20.0004

 111362339.909 8  86775847.66647                  21191541.757    21191541.599
                  21191535.935                          50.000          44.0004

 131265028.374 7 102284439.09944                  24978901.738    24978900.224
                  24978898.342                          43.000          27.0004

 109623156.901 8  85420641.52847                  20860590.747    20860590.534
                  20860584.864                          53.000          47.0004

 108606010.512 8  84628059.53647                  20667033.312    20667033.242
                  20667027.372                          53.000          47.0004

 116638887.732 8  90887441.60547                  22195641.337    22195640.694
                  22195633.441                          48.000          42.0004

 19  9 29 17 11  0.0000000  0  8G15G21G07G13G30G29G05G02
 117347054.404 8  91439260.42146                  22330396.728    22330396.547
                  22330391.618                          49.000          39.0004

 130500172.100 7 101688440.15044                  24833356.076    24833355.858
                  24833350.130                          43.000          24.0004

 134629775.918 6 104906313.37143                  25619193.590    25619193.100
                  25619187.936                          38.000          19.0004

 111303531.887 8  86730023.25147                  21180351.011    21180350.787
                  21180345.035                          52.000          44.0004

 131222410.737 7 102251230.54944                  24970791.706    24970790.414
                  24970787.754                          42.000          27.0004

 109613486.500 8  85413106.14947                  20858750.572    20858750.219
                  20858744.664                          53.000          46.0004

 108650497.975 8  84662725.08147                  20675498.995    20675498.948
                  20675493.176                          52.000          46.0004

 116694523.725 8  90930794.30746                  22206228.718    22206227.800
                  22206220.587                          48.000          41.0004

 19  9 29 17 11 30.0000000  0  8G15G21G07G13G30G29G05G02
 117243188.812 8  91358326.22446                  22310631.596    22310631.588
                  22310626.420                          50.000          39.0004

 130419812.497 7 101625822.28344                  24818064.310    24818064.159
                  24818058.293                          43.000          26.0004

 134627120.760 6 104904244.39443                  25618688.485    25618687.885
                  25618683.643                          40.000          20.0004

 111245254.355 8  86684612.20847                  21169261.177    21169260.827
                  21169255.150                          51.000          44.0004

 131180161.106 7 102218308.77444                  24962751.286    24962750.060
                  24962747.758                          42.000          27.0004

 109604435.036 9  85406053.05747                  20857028.144    20857027.748
                  20857022.180                          55.000          46.0004

 108695280.112 9  84697620.24647                  20684020.736    20684020.769
                  20684014.925                          54.000          47.0004

 116750445.274 8  90974369.51047                  22216870.224    22216869.353
                  22216862.147                          49.000          42.0004

 19  9 29 17 12  0.0000000  0  8G15G21G07G13G30G29G05G02
 117139621.504 8  91277624.45146                  22290923.709    22290923.600
                  22290918.201                          49.000          40.0004

 130339441.753 7 101563195.76044                  24802770.544    24802769.975
                  24802764.635                          43.000          28.0004

 134624926.648 6 104902534.63443                  25618270.923    25618270.368
                  25618266.196                          40.000          21.0004

 111187510.039 8  86639616.66147                  21158272.781    21158272.462
                  21158266.718                          51.000          44.0004

 131138282.491 7 102185676.08744                  24954781.962    24954781.021
                  24954778.118                          42.000          26.0004

 109596003.917 8  85399483.35747                  20855423.725    20855423.336
                  20855417.963                          52.000          46.0004

 108740356.694 8  84732744.85047                  20692598.470    20692598.343
                  20692592.744                          53.000          46.0004

 116806652.478 8  91018167.31347                  22227566.231    22227565.509
                  22227558.078                          49.000          42.0004

 19  9 29 17 12 30.0000000  0  8G15G21G07G13G30G29G05G02
 117036352.566 8  91197155.16646                  22271272.132    22271272.283
                  22271266.628                          50.000          40.0004

 130259058.513 7 101500559.49544                  24787474.283    24787473.484
                  24787467.938                          42.000          28.0004

 134623191.986 6 104901182.95743                  25617941.641    25617940.734
                  25617936.182                          41.000          22.0004

 111130298.356 8  86595036.15247                  21147385.625    21147385.268
                  21147379.783                          51.000          44.0004

 131096774.630 7 102153332.31244                  24946883.814    24946882.747
                  24946880.313                          43.000          26.0004

 109588191.210 8  85393395.53047                  20853937.073    20853936.652
                  20853931.267                          53.000          46.0004

 108785723.261 8  84768095.41647                  20701231.480    20701231.430
                  20701225.665                          53.000          47.0004

 116863143.136 8  91062185.98047                  22238315.741    22238314.684
                  22238307.919                          49.000          42.0004

 19  9 29 17 13  0.0000000  0  8G15G21G07G13G30G29G05G02
 116933388.039 8  91116923.09946                  22251678.722    22251678.531
                  22251673.177                          50.000          40.0004

 130178666.533 7 101437916.41944                  24772175.580    24772175.012
                  24772169.727                          42.000          27.0004

 134621920.380 6 104900192.06443                  25617698.677    25617699.168
                  25617694.100                          40.000          22.0004

 111073624.453 8  86550874.69347                  21136601.061    21136600.657
                  21136595.011                          51.000          45.0004

 131055642.934 7 102121281.64144                  24939056.610    24939055.682
                  24939053.599                          42.000          27.0004

 109581000.806 8  85387792.61947                  20852568.662    20852568.416
                  20852563.001                          53.000          46.0004

 108831381.635 8  84803673.35347                  20709920.153    20709919.901
                  20709914.098                          53.000          47.0004

 116919920.498 7  91106428.05046                  22249120.285    22249119.024
                  22249112.313                          47.000          41.0004

 19  9 29 17 13 30.0000000  0  8G15G21G07G13G30G29G05G02
 116830731.622 8  91036931.10846                  22232143.994    22232143.837
                  22232138.432                          51.000          40.0004

 130098267.533 6 101375267.88644                  24756876.607    24756875.617
                  24756870.762                          40.000          28.0004

 134621113.655 6 104899563.42943                  25617545.993    25617545.180
                  25617541.151                          38.000          22.0004

 111017491.343 8  86507134.63047                  21125919.168    21125918.800
                  21125913.220                          51.000          44.0004

 131014890.675 6 102089526.62044                  24931301.447    24931299.961
                  24931297.937                          40.000          26.0004

 109574434.151 9  85382675.74647                  20851319.153    20851318.938
                  20851313.353                          54.000          46.0004

 108877331.542 8  84839478.46747                  20718664.016    20718663.833
                  20718658.154                          52.000          46.0004

 116976985.445 7  91150894.21246                  22259979.413    22259977.839
                  22259971.422                          46.000          41.0004

 19  9 29 17 14  0.0000000  0  8G15G21G07G13G30G29G05G02
 116728378.509 8  90957175.46346                  22212666.822    22212666.585
                  22212661.319                          52.000          40.0004

 130017854.803 6 101312608.64644                  24741575.010    24741573.302
                  24741568.617                          39.000          27.0004

 134620764.361 7 104899291.27143                  25617478.833    25617478.964
                  25617475.481                          42.000          21.0004

 110961893.901 8  86463811.96847                  21115339.286    21115338.808
                  21115333.427                          51.000          44.0004

 130974512.628 7 102058063.20544                  24923617.077    24923616.353
                  24923614.597                          42.000          26.0004

 109568484.674 8  85378039.78747                  20850187.023    20850186.629
                  20850181.317                          53.000          46.0004

 108923564.066 9  84875503.80347                  20727461.802    20727461.759
                  20727455.910                          54.000          47.0004

 117034330.563 8  91195578.68046                  22270891.865    22270890.831
                  22270884.005                          50.000          41.0004

 19  9 29 17 14 30.0000000  0  8G15G21G07G13G30G29G05G02
 116626336.025 8  90877661.86746                  22193248.628    22193248.536
                  22193243.244                          51.000          41.0004

 129937433.994 6 101249943.14944                  24726270.107    24726268.929
                  24726265.242                          40.000          27.0004

 134620878.234 7 104899380.01643                  25617499.936    25617501.121
                  25617497.465                          43.000          21.0004

 110906838.478 8  86420911.66147                  21104862.478    21104862.347
                  21104856.834                          52.000          44.0004

 130934515.691 7 102026896.75944                  24916006.613    24916006.131
                  24916003.789                          43.000          27.0004

 109563157.318 8  85373888.60147                  20849173.249    20849172.967
                  20849167.559                          53.000          46.0004

 108970083.005 8  84911752.32447                  20736313.906    20736314.223
                  20736308.282                          53.000          47.0004

 117091960.571 8  91240485.13946                  22281858.448    22281857.732
                  22281850.797                          49.000          41.0004

 19  9 29 17 15  0.0000000  0  8G15G21G07G13G30G29G05G02
 116524607.862 8  90798393.19746                  22173890.361    22173889.984
                  22173885.154                          50.000          41.0004

 129857007.076 6 101187272.87544                  24710965.951    24710964.699
                  24710960.495                          39.000          26.0004

 134621456.633 6 104899830.73543                  25617610.213    25617610.497
                  25617606.998                          40.000          21.0004

 110852328.483 8  86378436.35647                  21094489.603    21094489.295
                  21094483.732                          51.000          44.0004

 130894903.027 7 101996029.74744                  24908468.871    24908468.163
                  24908465.140                          43.000          28.0004

 109558453.718 9  85370223.45747                  20848278.320    20848277.943
                  20848272.404                          54.000          46.0004

 109016887.505 9  84948223.35547                  20745220.765    20745220.856
                  20745214.797                          54.000          46.0004

 117149876.561 8  91285614.46246                  22292879.590    22292878.919
                  22292871.605                          48.000          41.0004

 19  9 29 17 15 30.0000000  0  8G15G21G07G13G30G29G05G02
 116423196.493 8  90719371.37847                  22154592.416    22154592.309
                  22154587.555                          51.000          42.0004

 129776574.378 6 101124598.07844                  24695660.237    24695658.878
                  24695654.718                          39.000          25.0004

 134622499.799 6 104900643.61143                  25617808.402    25617808.020
                  25617805.449                          38.000          19.0004

 110798365.127 8  86336387.00747                  21084220.611    21084220.353
                  21084214.953                          51.000          43.0004

 130855676.623 7 101965463.72244                  24901004.216    24901002.329
                  24901000.740                          42.000          27.0004

 109554374.021 8  85367044.46847                  20847501.878    20847501.536
                  20847495.935                          53.000          46.0004

 109063975.976 8  84984915.66047                  20754181.525    20754181.449
                  20754175.337                          53.000          46.0004

 117208078.023 8  91330966.23346                  22303955.067    22303954.317
                  22303946.745                          48.000          41.0004

 19  9 29 17 16  0.0000000  0  8G15G21G07G13G30G29G05G02
 116322102.073 8  90640596.54047                  22135354.721    22135354.650
                  22135349.625                          49.000          42.0004

 129696134.548 6 101061917.77044                  24680351.230    24680351.557
                  24680347.519                          38.000          24.0004

 134624005.908 6 104901817.21043                  25618095.989    25618095.167
                  25618092.180                          39.000          20.0004

 110744947.817 8  86294763.14947                  21074055.751    21074055.318
                  21074049.839                          52.000          44.0004

 130816836.194 7 101935198.46244                  24893612.697    24893611.835
                  24893609.805                          44.000          26.0004

 109550916.148 8  85364350.01747                  20846843.862    20846843.649
                  20846837.896                          53.000          46.0004

 109111344.483 8  85021826.17847                  20763195.285    20763195.274
                  20763189.273                          53.000          47.0004

 117266562.671 8  91376538.66646                  22315084.231    22315083.514
                  22315076.063                          49.000          41.0004

 19  9 29 17 16 30.0000000  0  8G15G21G07G13G30G29G05G02
 116221329.217 8  90562072.26946                  22116178.507    22116178.147
                  22116173.081                          51.000          41.0004

 129615690.114 6 100999233.83144                  24665044.370    24665044.130
                  24665039.153                          41.000          25.0004

 134625977.200 6 104903353.30143                  25618470.879    25618470.531
                  25618466.502                          38.000          21.0004

 110692080.379 8  86253567.76347                  21063995.163    21063994.762
                  21063989.369                          50.000          43.0004

 130778385.779 7 101905237.08644                  24886296.385    24886294.785
                  24886293.263                          43.000          27.0004

 109548082.246 8  85362141.77947                  20846304.714    20846304.338
                  20846298.590                          53.000          47.0004

 109158993.661 9  85058955.40247                  20772262.598    20772262.477
                  20772256.733                          54.000          47.0004

 117325332.326 7  91422333.17746                  22326267.561    22326266.981
                  22326259.692                          46.000          41.0004

 19  9 29 17 17  0.0000000  0  8G15G21G07G13G30G29G05G02
 116120879.616 8  90483799.88547                  22097063.221    22097063.198
                  22097058.201                          51.000          42.0004

 129535241.204 6 100936546.36844                  24649735.498    24649735.096
                  24649729.730                          41.000          25.0004

 134628413.224 6 104905251.48643                  25618934.405    25618933.153
                  25618929.937                          39.000          20.0004

 110639764.269 8  86212801.97947                  21054039.602    21054039.488
                  21054033.943                          51.000          43.0004

 130740326.837 6 101875580.76444                  24879053.109    24879051.109
                  24879051.016                          39.000          26.0004

 109545872.644 8  85360420.01047                  20845884.143    20845883.779
                  20845878.127                          53.000          47.0004

 109206921.788 8  85096301.98247                  20781382.848    20781382.655
                  20781377.287                          53.000          46.0004

 117384386.085 8  91468349.07146                  22337505.344    22337504.196
                  22337497.512                          48.000          40.0004

 19  9 29 17 17 30.0000000  0  8G15G21G07G13G30G29G05G02
 116020754.158 8  90405780.07647                  22078010.177    22078009.985
                  22078004.811                          50.000          42.0004

 129454786.611 7 100873854.52344                  24634425.613    24634425.035
                  24634420.034                          43.000          26.0004

 134631312.369 6 104907510.51643                  25619485.949    25619485.189
                  25619481.515                          40.000          20.0004

 110587999.174 8  86172465.55147                  21044189.266    21044189.067
                  21044183.484                          49.000          44.0004

 130702659.285 6 101846229.45144                  24871885.520    24871883.493
                  24871882.773                          41.000          26.0004

 109544285.217 9  85359183.05847                  20845581.875    20845581.734
                  20845576.204                          54.000          47.0004

 109255124.654 8  85133862.65547                  20790555.665    20790555.268
                  20790549.961                          52.000          46.0004

 117443721.837 8  91514584.69246                  22348796.471    22348795.567
                  22348789.082                          49.000          41.0004

 19  9 29 17 18  0.0000000  0  8G15G21G07G13G30G29G05G02
 115920955.420 8  90328014.84947                  22059018.993    22059018.884
                  22059013.814                          52.000          42.0004

 129374327.555 7 100811159.16244                  24619114.578    24619114.255
                  24619108.866                          42.000          26.0004

 134634675.354 6 104910131.02143                  25620125.677    25620126.250
                  25620121.634                          41.000          22.0004

 110536786.920 8  86132559.91447                  21034443.841    21034443.717
                  21034438.100                          52.000          45.0004

 130665385.589 7 101817184.99944                  24864792.492    24864791.669
                  24864789.809                          42.000          27.0004

 109543320.436 8  85358431.28247                  20845398.345    20845397.935
                  20845392.534                          52.000          46.0004

 109303601.761 8  85171637.01147                  20799780.568    20799780.338
                  20799774.777                          52.000          46.0004

 117503339.717 8  91561040.14946                  22360141.489    22360140.650
                  22360133.859                          49.000          41.0004

 19  9 29 17 18 30.0000000  0  8G15G21G07G13G30G29G05G02
 115821486.576 8  90250506.69547                  22040090.660    22040090.304
                  22040085.415                          51.000          42.0004

 129293865.401 7 100748461.37844                  24603803.505    24603802.543
                  24603797.283                          43.000          25.0004

 134638503.037 6 104913113.56043                  25620854.929    25620855.454
                  25620850.194                          40.000          21.0004

 110486130.014 8  86093087.00847                  21024804.083    21024804.069
                  21024798.424                          50.000          44.0004

 130628508.225 6 101788449.35244                  24857774.741    24857773.393
                  24857772.716                          40.000          26.0004

 109542979.434 8  85358165.56447                  20845333.359    20845332.926
                  20845327.663                          53.000          46.0004

 109352351.972 8  85209624.17947                  20809057.543    20809057.394
                  20809051.671                          53.000          47.0004

 117563240.248 8  91607715.86946                  22371540.265    22371539.470
                  22371532.330                          49.000          41.0004

 19  9 29 17 19  0.0000000  0  8G15G21G07G13G30G29G05G02
 115722352.074 8  90173259.05947                  22021225.941    22021225.613
                  22021220.590                          50.000          42.0004

 129213402.539 6 100685763.06244                  24588491.518    24588490.906
                  24588485.799                          41.000          26.0004

 134642797.443 6 104916459.81643                  25621671.510    25621671.653
                  25621667.353                          41.000          21.0004

 110436031.861 8  86054049.50247                  21015270.824    21015270.637
                  21015265.105                          52.000          44.0004

 130592031.112 6 101760025.64444                  24850833.979    24850832.738
                  24850831.230                          39.000          27.0004

 109543264.186 8  85358387.45247                  20845387.578    20845387.365
                  20845381.840                          53.000          46.0004

 109401375.535 8  85247824.35447                  20818386.329    20818386.404
                  20818380.519                          53.000          47.0004

 117623425.020 8  91654613.07946                  22382993.297    22382992.510
                  22382985.147                          49.000          41.0004

 19  9 29 17 19 30.0000000  0  8G15G21G07G13G30G29G05G02
 115623551.344 8  90096271.50346                  22002424.967    22002424.539
                  22002419.499                          50.000          41.0004

 129132936.877 7 100623062.57144                  24573180.117    24573179.135
                  24573173.692                          42.000          27.0004

 134647555.941 6 104920167.70543                  25622577.342    25622576.991
                  25622573.297                          40.000          21.0004

 110386491.315 8  86015446.48447                  21005843.398    21005843.432
                  21005837.647                          51.000          44.0004

 130555953.142 7 101731912.92244                  24843968.474    24843967.713
                  24843966.004                          42.000          28.0004

 109544171.818 8  85359094.69547                  20845560.400    20845559.984
                  20845554.603                          53.000          46.0004

 109450667.857 8  85286233.95247                  20827766.358    20827766.548
                  20827760.537                          53.000          46.0004

 117683890.835 8  91701729.28646                  22394499.439    22394498.782
                  22394491.693                          49.000          41.0004

 19  9 29 17 20  0.0000000  0  8G15G21G07G13G30G29G05G02
 115525088.001 8  90019546.85146                  21983687.953    21983687.636
                  21983682.698                          51.000          41.0004

 129052469.905 6 100560361.03444                  24557867.751    24557866.643
                  24557861.107                          41.000          26.0004

 134652779.845 6 104924238.21643                  25623571.721    25623571.746
                  25623567.665                          39.000          22.0004

 110337510.976 8  85977279.99647                  20996522.936    20996522.681
                  20996516.973                          51.000          45.0004

 130520277.304 6 101704113.55644                  24837179.552    24837177.232
                  24837176.629                          41.000          26.0004

 109545703.207 8  85360287.98147                  20845851.839    20845851.471
                  20845846.037                          53.000          47.0004

 109500228.707 8  85324852.78947                  20837197.492    20837197.636
                  20837191.787                          53.000          46.0004

 117744638.297 8  91749064.95646                  22406059.443    22406058.695
                  22406051.448                          50.000          41.0004

 19  9 29 17 20 30.0000000  0  8G15G21G07G13G30G29G05G02
 115426967.180 8  89943089.10246                  21965015.881    21965015.823
                  21965010.807                          50.000          41.0004

 128972005.483 6 100497661.50844                  24542555.669    24542554.372
                  24542549.317                          41.000          27.0004

 134658471.743 6 104928673.48443                  25624654.751    25624654.521
                  25624650.920                          40.000          22.0004

 110289094.847 8  85939553.14847                  20987309.664    20987309.436
                  20987303.773                          51.000          44.0004

 130485008.052 7 101676631.01144                  24830467.781    24830467.202
                  24830465.072                          43.000          27.0004

 109547861.000 8  85361969.37747                  20846262.416    20846262.036
                  20846256.702                          53.000          47.0004

 109550059.387 8  85363681.88147                  20846679.799    20846679.844
                  20846674.311                          53.000          46.0004

 117805669.873 8  91796622.00646                  22417673.168    22417672.582
                  22417665.530                          50.000          41.0004

 19  9 29 17 21  0.0000000  0  8G15G21G07G13G30G29G05G02
 115329184.466 8  89866894.81647                  21946408.545    21946408.497
                  21946403.538                          51.000          42.0004

 128891537.968 6 100434959.57344                  24527243.281    24527242.167
                  24527236.798                          41.000          28.0004

 134664625.499 6 104933468.61143                  25625826.144    25625825.485
                  25625822.010                          39.000          22.0004

 110241238.252 8  85902262.29647                  20978202.902    20978202.711
                  20978196.878                          52.000          45.0004

 130450141.128 6 101649461.95344                  24823833.177    24823830.969
                  24823830.658                          41.000          26.0004

 109550639.330 8  85364134.30547                  20846791.117    20846790.821
                  20846785.487                          52.000          46.0004

 109600151.378 8  85402714.59847                  20856212.089    20856211.833
                  20856206.521                          52.000          46.0004

 117866979.257 8  91844395.52547                  22429340.099    22429339.489
                  22429332.459                          49.000          42.0004

 19  9 29 17 21 30.0000000  0  8G15G21G07G13G30G29G05G02
 115231745.365 8  89790968.26647                  21927866.640    21927866.456
                  21927861.392                          50.000          42.0004

 128811070.825 6 100372257.92144                  24511930.354    24511929.617
                  24511924.626                          41.000          27.0004

 134671243.916 7 104938625.80743                  25627085.610    25627084.972
                  25627081.532                          42.000          23.0004

 110193945.366 8  85865410.70147                  20969203.453    20969203.275
                  20969197.346                          53.000          44.0004

 130415680.974 6 101622609.88144                  24817275.546    24817273.919
                  24817273.146                          41.000          27.0004

 109554040.603 8  85366784.64747                  20847438.303    20847438.154
                  20847432.633                          53.000          47.0004

 109650506.683 8  85441952.48847                  20865794.400    20865794.179
                  20865788.639                          52.000          46.0004

 117928568.615 8  91892387.20546                  22441060.247    22441059.213
                  22441052.609                          50.000          41.0004

 19  9 29 17 22  0.0000000  0  8G15G21G07G13G30G29G05G02
 115134654.174 8  89715312.82547                  21909390.641    21909390.396
                  21909385.388                          50.000          42.0004

 128730606.319 6 100309558.35944                  24496618.480    24496617.317
                  24496612.928                          40.000          27.0004

 134678328.720 7 104944146.40544                  25628433.445    25628433.532
                  25628430.095                          43.000          24.0004

 110147219.534 8  85829000.96547                  20960311.924    20960311.903
                  20960305.779                          52.000          45.0004

 130381631.181 6 101596077.58244                  24810796.123    24810793.456
                  24810793.264                          38.000          26.0004

 109558066.783 8  85369921.92947                  20848204.603    20848204.273
                  20848198.687                          51.000          46.0004

 109701124.985 8  85481395.31347                  20875426.701    20875426.656
                  20875420.895                          50.000          46.0004

 117990439.212 8  91940598.03246                  22452833.615    22452832.832
                  22452826.010                          48.000          41.0004

 19  9 29 17 22 30.0000000  0  8G15G21G07G13G30G29G05G02
 115037910.816 8  89639928.41447                  21890980.978    21890980.942
                  21890975.711                          51.000          42.0004

 128650143.013 6 100246859.72644                  24481307.211    24481306.083
                  24481301.701                          40.000          28.0004

 134685877.756 7 104950028.75143                  25629870.219    25629869.776
                  25629865.906                          42.000          23.0004

 110101059.604 8  85793032.19247                  20951527.920    20951527.717
                  20951521.877                          53.000          45.0004

 130347991.199 6 101569864.63744                  24804394.427    24804393.147
                  24804391.777                          41.000          26.0004

 109562715.185 8  85373544.05647                  20849089.108    20849088.874
                  20849083.273                          53.000          46.0004

 109752002.685 8  85521040.27247                  20885108.555    20885108.516
                  20885102.638                          52.000          46.0004

 118052588.720 7  91989026.20046                  22464660.585    22464659.527
                  22464652.441                          47.000          41.0004

 19  9 29 17 23  0.0000000  0  8G15G21G07G13G30G29G05G02
 114941519.574 8  89564818.38047                  21872638.211    21872638.161
                  21872632.932                          50.000          42.0004

 128569683.774 6 100184164.25244                  24465996.138    24465994.650
                  24465990.703                          40.000          27.0004

 134693893.047 6 104956274.39343                  25631395.161    25631394.459
                  25631390.578                          41.000          22.0004

 110055469.444 8  85757507.39547                  20942852.323    20942852.066
                  20942846.291                          51.000          45.0004

 130314764.869 6 101543974.02044                  24798071.665    24798069.925
                  24798069.047                          39.000          26.0004

 109567988.075 9  85377652.80147                  20850092.703    20850092.340
                  20850086.661                          54.000          46.0004

 109803140.190 8  85560887.67447                  20894839.615    20894839.735
                  20894833.950                          53.000          46.0004

 118115018.731 8  92037672.94246                  22476540.382    22476539.566
                  22476532.344                          48.000          40.0004

 19  9 29 17 23 30.0000000  0  8G15G21G07G13G30G29G05G02
 114845480.994 8  89489983.13947                  21854362.748    21854362.633
                  21854357.260                          51.000          42.0004

 128489227.056 6 100121470.76244                  24450685.812    24450684.570
                  24450680.470                          41.000          28.0004

 134702372.364 7 104962881.63943                  25633008.692    25633008.323
                  25633003.835                          43.000          21.0004

 110010448.057 8  85722425.79947                  20934285.055    20934284.775
                  20934279.095                          51.000          45.0004

 130281951.794 6 101518405.42144                  24791826.531    24791825.244
                  24791825.114                          38.000          25.0004

 109573882.913 8  85382246.17647                  20851214.224    20851213.976
                  20851208.362                          53.000          46.0004

 109854534.251 9  85600934.99247                  20904619.667    20904619.672
                  20904613.895                          54.000          46.0004

 118177726.693 8  92086536.26346                  22488473.233    22488472.077
                  22488465.676                          48.000          40.0004

 19  9 29 17 24  0.0000000  0  8G15G21G07G13G30G29G05G02
 114749798.820 8  89415425.62747                  21836154.874    21836154.784
                  21836149.646                          51.000          42.0004

 128408775.406 6 100058781.19944                  24435376.035    24435375.329
                  24435370.773                          41.000          28.0004

 134711317.235 6 104969851.64643                  25634711.399    25634710.824
                  25634705.632                          41.000          22.0004

 109965998.476 8  85687789.77747                  20925826.662    20925826.070
                  20925820.662                          52.000          45.0004

 130249555.401 6 101493161.53644                  24785662.409    24785660.401
                  24785660.739                          39.000          26.0004

 109580401.055 9  85387325.24247                  20852454.602    20852454.230
                  20852448.826                          54.000          46.0004

 109906184.413 9  85641181.86247                  20914448.482    20914448.157
                  20914442.581                          54.000          46.0004

 118240714.096 7  92135617.31746                  22500459.461    22500458.289
                  22500451.780                          47.000          40.0004

 19  9 29 17 24 30.0000000  0  8G15G21G07G13G30G29G05G02
 114654476.916 8  89341148.83847                  21818015.681    21818015.572
                  21818010.415                          52.000          42.0004

 128328330.877 7  99996097.18544                  24420068.059    24420067.074
                  24420062.419                          42.000          28.0004

 134720729.485 6 104977185.89643                  25636502.586    25636502.049
                  25636496.908                          40.000          22.0004

 109922123.710 8  85653601.66147                  20917477.469    20917477.108
                  20917471.522                          50.000          45.0004

 130217578.829 6 101468244.77544                  24779577.525    24779575.728
                  24779575.454                          39.000          26.0004

 109587544.276 8  85392891.38747                  20853813.867    20853813.441
                  20853808.146                          53.000          46.0004

 109958090.630 8  85681628.25547                  20924325.700    20924325.491
                  20924319.852                          53.000          46.0004

 118303981.862 8  92184916.84646                  22512498.935    22512498.135
                  22512491.378                          48.000          40.0004

 19  9 29 17 25  0.0000000  0  8G15G21G07G13G30G29G05G02
 114559514.326 8  89267152.03447                  21799945.084    21799944.647
                  21799939.697                          51.000          42.0004

 128247891.326 7  99933417.04544                  24404760.700    24404760.154
                  24404755.579                          42.000          29.0004

 134730605.691 6 104984881.64643                  25638381.539    25638380.696
                  25638376.234                          39.000          21.0004

 109878821.463 8  85619859.66347                  20909237.048    20909236.863
                  20909231.340                          51.000          44.0004

 130186020.616 7 101443654.01344                  24773571.438    24773570.773
                  24773570.015                          42.000          27.0004

 109595308.752 8  85398941.61947                  20855291.302    20855291.018
                  20855285.770                          53.000          46.0004

 110010248.442 8  85722270.69947                  20934251.050    20934250.672
                  20934245.151                          53.000          46.0004

 118367526.338 7  92234431.99646                  22524590.892    22524589.905
                  22524583.202                          47.000          39.0004

 19  9 29 17 25 30.0000000  0  8G15G21G07G13G30G29G05G02
 114464918.024 8  89193440.65347                  21781943.900    21781943.682
                  21781938.457                          51.000          43.0004

 128167461.880 7  99870744.76244                  24389455.183    24389455.209
                  24389450.012                          42.000          29.0004

 134740950.068 7 104992942.22043                  25640349.788    25640349.338
                  25640344.686                          43.000          22.0004

 109836097.626 8  85586568.38347                  20901107.033    20901106.863
                  20901101.355                          51.000          44.0004

 130154886.860 6 101419393.97844                  24767647.081    24767646.157
                  24767645.018                          39.000          26.0004

 109603698.610 8  85405479.16547                  20856888.080    20856887.655
                  20856882.299                          53.000          46.0004

 110062660.850 8  85763111.52247                  20944224.858    20944224.551
                  20944218.956                          52.000          46.0004

 118431351.504 7  92284165.86446                  22536736.461    22536735.420
                  22536728.683                          46.000          39.0004

 19  9 29 17 26  0.0000000  0  8G15G21G07G13G30G29G05G02
 114370690.048 8  89120016.27847                  21764012.861    21764012.709
                  21764007.466                          52.000          42.0004

 128087042.854 7  99808080.60644                  24374152.657    24374151.900
                  24374146.985                          42.000          29.0004

 134751762.081 7 105001367.19743                  25642407.092    25642406.329
                  25642402.881                          42.000          23.0004

 109793953.357 8  85553728.71147                  20893087.356    20893087.226
                  20893081.538                          51.000          44.0004

 130124178.943 7 101395465.74244                  24761803.882    24761802.648
                  24761802.252                          42.000          27.0004

 109612713.453 8  85412503.70647                  20858603.621    20858603.203
                  20858597.825                          53.000          46.0004

 110115325.536 9  85804148.92847                  20954246.633    20954246.464
                  20954240.783                          54.000          46.0004

 118495456.993 7  92334118.16246                  22548935.207    22548934.091
                  22548927.207                          46.000          39.0004

 19  9 29 17 26 30.0000000  0  8G15G21G07G13G30G29G05G02
 114276829.545 8  89046878.23747                  21746151.803    21746151.946
                  21746146.524                          52.000          43.0004

 128006632.230 7  99745423.00044                  24358850.805    24358850.061
                  24358845.298                          42.000          29.0004

 134763039.031 6 105010154.45443                  25644552.783    25644552.438
                  25644548.788                          39.000          22.0004

 109752386.700 8  85521339.12547                  20885177.523    20885177.242
                  20885171.549                          51.000          44.0004

 130093895.549 6 101371868.31044                  24756041.614    24756040.756
                  24756039.659                          41.000          28.0004

 109622349.794 8  85420012.53647                  20860437.387    20860436.943
                  20860431.579                          53.000          46.0004

 110168238.342 8  85845379.67647                  20964315.544    20964315.639
                  20964309.924                          52.000          46.0004

 118559839.370 7  92384286.21746                  22561187.041    22561185.430
                  22561179.058                          46.000          38.0004

 19  9 29 17 27  0.0000000  0  8G15G21G07G13G30G29G05G02
 114183338.057 8  88974027.74547                  21728360.959    21728360.935
                  21728355.704                          52.000          43.0004

 127926229.823 7  99682771.79144                  24343550.622    24343550.026
                  24343544.912                          42.000          28.0004

 134774779.688 6 105019302.98543                  25646787.713    25646787.041
                  25646783.857                          38.000          22.0004

 109711398.424 8  85489400.22447                  20877377.575    20877377.522
                  20877371.619                          51.000          44.0004

 130064037.620 7 101348602.37844                  24750360.158    24750359.084
                  24750357.610                          43.000          29.0004

 109632606.871 9  85428005.05747                  20862389.075    20862388.742
                  20862383.439                          54.000          47.0004

 110221397.020 8  85886802.01147                  20974431.265    20974431.242
                  20974425.548                          53.000          46.0004

 118624496.997 7  92434668.74946                  22573490.980    22573489.910
                  22573483.322                          47.000          39.0004

 19  9 29 17 27 30.0000000  0  8G15G21G07G13G30G29G05G02
 114090219.024 8  88901467.48347                  21710640.924    21710640.993
                  21710635.862                          50.000          43.0004

 127845837.664 7  99620128.57144                  24328252.727    24328251.906
                  24328246.819                          42.000          28.0004

 134786984.851 6 105028813.48943                  25649109.813    25649109.238
                  25649106.207                          38.000          20.0004

 109670990.460 8  85457913.51547                  20869688.201    20869688.035
                  20869682.376                          50.000          44.0004

 130034607.679 6 101325669.94844                  24744758.955    24744757.902
                  24744757.223                          40.000          28.0004

 109643485.177 8  85436481.64947                  20864459.324    20864458.907
                  20864453.386                          53.000          46.0004

 110274800.811 8  85928415.34647                  20984593.675    20984593.690
                  20984587.952                          52.000          46.0004

 118689430.498 8  92485266.25446                  22585847.531    22585846.716
                  22585839.666                          48.000          39.0004

 19  9 29 17 28  0.0000000  0  8G15G21G07G13G30G29G05G02
 113997475.453 8  88829199.78547                  21692992.641    21692992.493
                  21692987.309                          52.000          43.0004

 127765457.203 7  99557494.48444                  24312956.288    24312955.533
                  24312950.746                          42.000          27.0004

 134799655.206 7 105038686.47243                  25651520.684    25651521.065
                  25651516.592                          42.000          21.0004

 109631164.863 8  85426880.59747                  20862109.653    20862109.394
                  20862103.702                          52.000          44.0004

 130005608.164 6 101303072.93444                  24739240.838    24739238.967
                  24739238.737                          41.000          27.0004

 109654985.018 9  85445442.56047                  20866647.456    20866647.426
                  20866641.718                          55.000          46.0004

 110328449.365 9  85970219.40047                  20994802.671    20994802.714
                  20994796.879                          54.000          45.0004

 118754640.876 8  92536079.51146                  22598256.908    22598255.947
                  22598248.655                          48.000          39.0004

 19  9 29 17 28 30.0000000  0  8G15G21G07G13G30G29G05G02
 113905111.562 8  88757227.94147                  21675416.504    21675416.108
                  21675410.850                          51.000          43.0004

 127685091.447 7  99494871.84244                  24297663.685    24297662.727
                  24297657.327                          44.000          28.0004

 134812792.705 6 105048923.48443                  25654020.642    25654020.867
                  25654016.512                          40.000          22.0004

 109591924.873 8  85396303.99447                  20854642.687    20854642.469
                  20854636.653                          51.000          45.0004

 129977042.749 6 101280814.15844                  24733805.020    24733802.853
                  24733802.866                          40.000          26.0004

 109667108.294 9  85454889.25947                  20868954.576    20868954.258
                  20868948.555                          54.000          46.0004

 110382342.971 9  86012214.40047                  21005058.376    21005058.416
                  21005052.403                          54.000          46.0004

 118820129.351 7  92587109.47546                  22610718.904    22610717.842
                  22610710.668                          47.000          39.0004

 19  9 29 17 29  0.0000000  0  8G15G21G07G13G30G29G05G02
 113813128.639 8  88685552.96747                  21657912.577    21657912.192
                  21657907.106                          51.000          44.0004

 127604740.102 7  99432260.43144                  24282373.410    24282372.117
                  24282366.849                          42.000          28.0004

 134826396.014 6 105059523.48243                  25656609.245    25656609.389
                  25656604.841                          38.000          20.0004

 109553270.513 8  85366183.72447                  20847286.793    20847286.665
                  20847280.948                          51.000          44.0004

 129948912.014 6 101258894.11144                  24728451.620    24728450.421
                  24728449.693                          41.000          27.0004

 109679853.282 8  85464820.41847                  20871379.965    20871379.467
                  20871373.965                          53.000          46.0004

 110436479.438 9  86054398.64847                  21015360.014    21015360.138
                  21015354.406                          54.000          46.0004

 118885894.389 8  92638354.93846                  22623233.460    22623232.815
                  22623225.469                          49.000          39.0004

 19  9 29 17 29 30.0000000  0  8G15G21G07G13G30G29G05G02
 113721531.045 8  88614178.23947                  21640482.031    21640481.989
                  21640476.656                          51.000          44.0004

 127524405.995 7  99369662.46044                  24267086.457    24267085.053
                  24267079.833                          43.000          29.0004

 134840467.173 5 105070488.01943                  25659286.882    25659286.372
                  25659282.253                          35.000          20.0004

 109515205.173 8  85336522.43347                  20840043.224    20840043.200
                  20840037.449                          52.000          45.0004

 129921219.681 7 101237315.66244                  24723181.953    24723181.079
                  24723179.958                          42.000          27.0004

 109693221.699 9  85475237.35947                  20873923.747    20873923.425
                  20873918.059                          54.000          46.0004

 110490859.064 8  86096772.37047                  21025708.342    21025708.109
                  21025702.613                          53.000          46.0004

 118951937.618 8  92689817.17346                  22635801.135    22635800.407
                  22635793.082                          48.000          40.0004

 19  9 29 17 30  0.0000000  0  8G15G21G07G13G30G29G05G02
 113630325.020 8  88543108.63147                  21623125.988    21623125.973
                  21623120.532                          51.000          43.0004

 127444094.192 7  99307081.85744                  24251803.090    24251802.130
                  24251796.836                          42.000          29.0004

 134855009.738 5 105081819.86543                  25662054.766    25662053.196
                  25662050.735                          35.000          19.0004

 109477733.614 8  85307323.82847                  20832912.798    20832912.568
                  20832906.675                          51.000          45.0004

 129893971.190 6 101216083.10444                  24717997.148    24717996.002
                  24717994.805                          41.000          28.0004

 109707216.974 8  85486142.76047                  20876587.068    20876586.828
                  20876581.192                          52.000          47.0004

 110545484.394 8  86139337.55147                  21036103.225    21036102.963
                  21036097.523                          52.000          45.0004

 119018262.550 7  92741498.91146                  22648422.403    22648421.568
                  22648414.497                          47.000          39.0004

 19  9 29 17 30 30.0000000  0  7G15G21G13G30G29G05G02
 113539506.440 8  88472340.92747                  21605843.909    21605843.650
                  21605838.257                          53.000          44.0004

 127363799.079 7  99244514.26445                  24236523.489    24236522.581
                  24236517.516                          43.000          30.0004

 109440850.761 8  85278583.95847                  20825894.218    20825893.817
                  20825888.119                          51.000          45.0004

 129867161.667 6 101195192.58844                  24712895.481    24712894.651
                  24712893.028                          41.000          28.0004

 109721832.030 8  85497531.11347                  20879368.289    20879368.036
                  20879362.296                          53.000          46.0004

 110600347.699 8  86182088.16747                  21046543.283    21046543.048
                  21046537.550                          53.000          46.0004

 119084862.329 8  92793394.81146                  22661095.905    22661095.268
                  22661088.344                          48.000          40.0004

 19  9 29 17 31  0.0000000  0  7G15G21G13G30G29G05G02
 113449083.895 8  88401881.83347                  21588636.978    21588636.904
                  21588631.315                          53.000          44.0004

 127283527.953 7  99181965.36545                  24221248.506    24221247.654
                  24221242.305                          43.000          30.0004

 109404563.927 8  85250308.52247                  20818988.871    20818988.609
                  20818982.885                          52.000          45.0004

 129840799.059 6 101174650.32644                  24707878.265    24707877.380
                  24707876.795                          39.000          28.0004

 109737072.992 8  85509407.18547                  20882268.444    20882268.216
                  20882262.611                          52.000          46.0004

 110655453.357 8  86225027.62647                  21057029.642    21057029.304
                  21057023.875                          51.000          46.0004

 119151743.049 8  92845509.63146                  22673822.920    22673822.328
                  22673815.055                          48.000          40.0004

 19  9 29 17 31 30.0000000  0  7G15G21G13G30G29G05G02
 113359057.562 8  88331731.46447                  21571505.745    21571505.494
                  21571499.870                          52.000          44.0004

 127203279.445 7  99119434.08644                  24205977.372    24205976.665
                  24205971.551                          42.000          29.0004

 109368872.115 8  85222496.73647                  20812197.235    20812196.646
                  20812190.876                          51.000          45.0004

 129814882.706 6 101154455.82344                  24702947.142    24702945.454
                  24702944.966                          41.000          28.0004

 109752937.071 9  85521768.80547                  20885287.366    20885287.044
                  20885281.397                          54.000          47.0004

 110710798.258 8  86268153.50947                  21067561.435    21067561.305
                  21067555.602                          53.000          46.0004

 119218901.938 8  92897841.20446                  22686602.845    22686601.952
                  22686595.119                          49.000          40.0004

 19  9 29 17 32  0.0000000  0  7G15G21G13G30G29G05G02
 113269430.139 8  88261891.94147                  21554450.036    21554449.786
                  21554444.468                          52.000          43.0004

 127123054.973 6  99056921.54044                  24190711.115    24190710.329
                  24190705.435                          41.000          29.0004

 109333776.578 8  85195149.58847                  20805518.402    20805517.996
                  20805512.399                          51.000          45.0004

 129789414.598 7 101134610.59344                  24698100.250    24698098.446
                  24698098.078                          42.000          28.0004

 109769424.151 8  85534615.87647                  20888424.625    20888424.088
                  20888418.786                          51.000          46.0004

 110766381.792 8  86311465.34747                  21078138.703    21078138.722
                  21078132.883                          53.000          46.0004

 119286339.257 7  92950389.73146                  22699435.495    22699434.858
                  22699427.903                          47.000          39.0004

 19  9 29 17 32 30.0000000  0  7G15G21G13G30G29G05G02
 113180205.633 8  88192366.38447                  21537470.999    21537471.000
                  21537465.578                          52.000          44.0004

 127042857.421 7  98994429.97744                  24175450.375    24175448.975
                  24175444.451                          42.000          29.0004

 109299280.371 8  85168269.44547                  20798953.981    20798953.930
                  20798948.019                          51.000          45.0004

 129764398.138 7 101115117.28744                  24693340.339    24693339.229
                  24693337.742                          42.000          28.0004

 109786535.818 8  85547949.63947                  20891680.665    20891680.489
                  20891675.064                          53.000          46.0004

 110822203.725 8  86354962.95047                  21088761.134    21088761.297
                  21088755.466                          51.000          46.0004

 119354056.035 8  93003156.02946                  22712322.024    22712321.118
                  22712314.072                          48.000          39.0004

 19  9 29 17 33  0.0000000  0  7G15G21G13G30G29G05G02
 113091385.349 8  88123155.80047                  21520569.108    21520569.199
                  21520563.629                          53.000          44.0004

 126962686.397 6  98931959.08744                  24160194.200    24160193.115
                  24160187.716                          41.000          28.0004

 109265383.242 8  85141856.11647                  20792503.766    20792503.489
                  20792497.497                          51.000          45.0004

 129739833.535 7 101095976.08144                  24688665.543    24688664.206
                  24688662.503                          42.000          27.0004

 109804269.808 8  85561768.32847                  20895055.479    20895055.261
                  20895049.765                          53.000          46.0004

 110878261.615 8  86398644.41847                  21099428.622    21099428.504
                  21099422.798                          52.000          45.0004

 119422050.584 8  93056138.77646                  22725260.693    22725259.924
                  22725253.209                          48.000          39.0004

 19  9 29 17 33 30.0000000  0  7G15G21G13G30G29G05G02
 113002969.726 9  88054260.53847                  21503744.204    21503744.325
                  21503738.770                          54.000          44.0004

 126882541.794 7  98869508.76644                  24144943.122    24144942.208
                  24144936.997                          43.000          29.0004

 109232085.025 8  85115909.46447                  20786167.479    20786166.848
                  20786160.964                          52.000          45.0004

 129715721.170 6 101077187.27944                  24684076.920    24684074.933
                  24684074.408                          40.000          27.0004

 109822624.507 8  85576070.68347                  20898548.400    20898548.028
                  20898542.620                          53.000          46.0004

 110934552.790 8  86442507.66947                  21110140.560    21110140.399
                  21110134.575                          53.000          45.0004

 119490321.321 7  93109336.72546                  22738252.087    22738251.220
                  22738244.756                          47.000          39.0004

 19  9 29 17 34  0.0000000  0  7G15G21G13G30G29G05G02
 112914968.495 8  87985688.18247                  21486997.937    21486997.995
                  21486992.504                          51.000          44.0004

 126802431.458 7  98807085.15945                  24129698.626    24129697.673
                  24129692.316                          42.000          31.0004

 109199393.905 8  85090435.87847                  20779946.348    20779946.086
                  20779940.084                          52.000          45.0004

 129692069.559 6 101058757.49644                  24679576.116    24679574.391
                  24679572.708                          41.000          26.0004

 109841606.459 8  85590861.80847                  20902160.537    20902160.226
                  20902154.778                          52.000          46.0004

 110991083.185 8  86486557.31947                  21120898.012    21120897.862
                  21120892.069                          53.000          45.0004

 119558875.055 7  93162755.19046                  22751297.469    22751296.609
                  22751290.128                          45.000          38.0004

 19  9 29 17 34 30.0000000  0  7G15G21G13G30G29G05G02
 112827378.663 8  87917436.39647                  21470330.186    21470330.325
                  21470324.745                          52.000          44.0004

 126722351.519 7  98744685.23245                  24114460.298    24114458.970
                  24114453.581                          44.000          31.0004

 109167305.319 8  85065431.79547                  20773840.104    20773839.744
                  20773833.894                          51.000          45.0004

 129668874.944 7 101040683.79944                  24675162.358    24675161.491
                  24675159.238                          42.000          26.0004

 109861209.757 8  85606137.10347                  20905890.973    20905890.581
                  20905884.971                          53.000          46.0004

 111047846.502 8  86530788.46747                  21131699.626    21131699.550
                  21131693.775                          53.000          45.0004

 119627705.992 7  93216389.65946                  22764395.736    22764394.608
                  22764388.141                          46.000          38.0004

 19  9 29 17 35  0.0000000  0  7G15G21G13G30G29G05G02
 112740202.716 8  87849507.11247                  21453741.239    21453741.121
                  21453735.772                          52.000          44.0004

 126642302.999 7  98682309.79445                  24099227.368    24099226.107
                  24099221.097                          43.000          32.0004

 109135820.361 8  85040898.07447                  20767848.554    20767848.264
                  20767842.460                          50.000          44.0004

 129646139.060 7 101022967.54644                  24670835.865    24670835.998
                  24670832.937                          43.000          28.0004

 109881433.756 8  85621896.06147                  20909739.296    20909739.049
                  20909733.333                          52.000          46.0004

 111104841.135 8  86575199.86147                  21142545.291    21142545.192
                  21142539.509                          53.000          45.0004

 119696813.880 7  93270239.93846                  22777546.413    22777545.441
                  22777538.768                          47.000          38.0004

 19  9 29 17 35 30.0000000  0  7G15G21G13G30G29G05G02
 112653444.760 8  87781903.54547                  21437231.716    21437231.117
                  21437226.286                          51.000          44.0004

 126562288.552 7  98619960.91145                  24084000.927    24084000.001
                  24083994.717                          44.000          32.0004

 109104941.740 8  85016836.81247                  20761972.693    20761972.289
                  20761966.543                          51.000          45.0004

 129623865.130 7 101005611.26044                  24666597.664    24666596.549
                  24666594.704                          43.000          29.0004

 109902279.539 8  85638139.53047                  20913706.252    20913705.878
                  20913700.217                          52.000          46.0004

 111162067.548 8  86619791.86247                  21153435.150    21153434.865
                  21153429.488                          52.000          45.0004

 119766199.990 7  93324307.01446                  22790749.953    22790749.269
                  22790742.149                          46.000          37.0004

 19  9 29 17 36  0.0000000  0  7G15G21G13G30G29G05G02
 112567107.177 8  87714627.54247                  21420802.045    21420801.840
                  21420796.873                          50.000          44.0004

 126482309.866 7  98557639.88445                  24068781.545    24068780.646
                  24068775.372                          43.000          32.0004

 109074670.968 8  84993249.20647                  20756212.281    20756211.851
                  20756206.305                          51.000          45.0004

 129602055.009 7 100988616.40444                  24662447.272    24662445.760
                  24662445.137                          43.000          29.0004

 109923746.860 8  85654867.30647                  20917791.334    20917791.046
                  20917785.355                          52.000          46.0004

 111219524.904 8  86664563.81747                  21164368.799    21164368.723
                  21164363.227                          51.000          45.0004

 119835864.171 7  93378590.76346                  22804006.266    22804005.531
                  22803999.054                          45.000          37.0004

 19  9 29 17 36 30.0000000  0  8G15G21G13G30G29G05G02G20
 112481189.961 8  87647679.09447                  21404452.469    21404452.377
                  21404447.229                          52.000          44.0004

 126402365.774 7  98495345.82545                  24053568.714    24053567.779
                  24053562.189                          45.000          32.0004

 109045006.818 8  84970134.28647                  20750567.447    20750567.120
                  20750561.275                          52.000          45.0004

 129580707.918 7 100971982.34044                  24658385.094    24658383.702
                  24658382.767                          43.000          29.0004

 109945832.953 9  85672077.24547                  20921994.173    20921993.940
                  20921988.310                          54.000          46.0004

 111277209.397 8  86709512.76847                  21175345.960    21175345.807
                  21175340.199                          53.000          45.0004

 119905803.839 7  93433089.16546                  22817315.878    22817314.954
                  22817308.262                          45.000          38.0004

 132501181.288 5 103247671.41243                  25214135.204    25214134.127
                  25214130.644                          35.000          18.0004

 19  9 29 17 37  0.0000000  0  8G15G21G13G30G29G05G02G20
 112395698.077 8  87581062.06847                  21388183.933    21388183.557
                  21388178.686                          51.000          44.0004

 126322459.575 7  98433081.28345                  24038362.908    24038362.148
                  24038356.678                          44.000          32.0004

 109015952.222 8  84947494.34447                  20745038.469    20745037.954
                  20745032.394                          51.000          45.0004

 129559827.616 7 100955712.02744                  24654411.331    24654410.338
                  24654409.234                          44.000          29.0004

 109968539.143 9  85689770.37547                  20926314.914    20926314.678
                  20926309.181                          54.000          46.0004

 111335122.400 8  86754639.78547                  21186366.425    21186366.421
                  21186360.585                          53.000          46.0004

 119976021.156 7  93487803.92546                  22830677.893    22830677.356
                  22830670.307                          45.000          38.0004

 132411271.891 5 103177612.23842                  25197026.016    25197024.622
                  25197021.791                          35.000          17.0004

 19  9 29 17 37 30.0000000  0  8G15G21G13G30G29G05G02G20
 112310630.199 8  87514775.44147                  21371995.911    21371996.039
                  21371990.800                          50.000          44.0004

 126242589.085 7  98370844.56845                  24023164.266    24023163.220
                  24023157.959                          43.000          31.0004

 108987504.826 8  84925327.55447                  20739625.004    20739624.538
                  20739619.074                          51.000          45.0004

 129539412.428 7 100939804.11444                  24650526.915    24650526.241
                  24650524.203                          42.000          29.0004

 109991861.979 8  85707944.00847                  20930753.222    20930753.024
                  20930747.541                          52.000          47.0004

 111393259.947 8  86799941.76647                  21197429.577    21197429.404
                  21197423.667                          53.000          45.0004

 120046512.389 7  93542732.14146                  22844092.079    22844091.516
                  22844084.145                          47.000          38.0004

 132321407.025 6 103107587.76943                  25179925.145    25179924.120
                  25179920.615                          36.000          18.0004

 19  9 29 17 38  0.0000000  0  8G15G21G13G30G29G05G02G20
 112225990.638 8  87448822.56147                  21355889.745    21355889.762
                  21355884.330                          52.000          45.0004

 126162757.763 7  98308638.36745                  24007972.510    24007972.110
                  24007966.498                          43.000          31.0004

 108959667.635 8  84903636.24347                  20734327.650    20734327.593
                  20734321.895                          50.000          45.0004

 129519465.582 6 100924261.15744                  24646730.916    24646729.620
                  24646727.860                          41.000          29.0004

 110015802.149 9  85726598.68347                  20935308.810    20935308.650
                  20935303.119                          54.000          47.0004

 111451622.258 8  86845418.88247                  21208535.482    21208535.199
                  21208529.535                          52.000          45.0004

 120117278.812 7  93597874.78946                  22857558.206    22857557.509
                  22857550.355                          46.000          37.0004

 132231588.729 5 103037599.55043                  25162833.386    25162832.286
                  25162828.381                          35.000          18.0004

 19  9 29 17 38 30.0000000  0  8G15G21G13G30G29G05G02G20
 112141781.212 8  87383204.85447                  21339865.087    21339864.990
                  21339859.722                          52.000          44.0004

 126082965.647 7  98246462.71645                  23992788.758    23992787.646
                  23992782.586                          44.000          30.0004

 108932440.565 8  84882420.34847                  20729146.554    20729146.267
                  20729140.760                          50.000          45.0004

 129499987.783 7 100909083.67644                  24643024.318    24643023.053
                  24643021.601                          43.000          28.0004

 110040358.389 9  85745733.40947                  20939981.676    20939981.511
                  20939975.931                          54.000          46.0004

 111510206.954 8  86891069.28747                  21219683.885    21219683.542
                  21219677.919                          52.000          45.0004

 120188319.208 7  93653230.90846                  22871076.769    22871075.921
                  22871068.773                          46.000          37.0004

 132141816.678 6 102967647.38642                  25145749.671    25145749.253
                  25145745.875                          36.000          17.0004

 19  9 29 17 39  0.0000000  0  8G15G21G13G30G29G05G02G20
 112057999.523 8  87317920.44647                  21323922.276    21323922.035
                  21323916.633                          52.000          45.0004

 126003210.049 7  98184315.51545                  23977612.142    23977610.830
                  23977605.610                          45.000          30.0004

 108905820.444 8  84861677.40747                  20724080.904    20724080.763
                  20724075.112                          49.000          45.0004

 129480976.381 7 100894269.59444                  24639406.510    24639405.351
                  24639403.832                          42.000          29.0004

 110065525.783 9  85765344.35847                  20944770.846    20944770.729
                  20944765.146                          54.000          46.0004

 111569009.143 8  86936889.17147                  21230873.537    21230873.346
                  21230867.912                          53.000          45.0004

 120259629.059 7  93708797.00246                  22884646.812    22884646.019
                  22884638.985                          47.000          37.0004

 132052087.666 6 102897728.73243                  25128675.406    25128674.401
                  25128670.563                          36.000          18.0004

 19  9 29 17 39 30.0000000  0  8G15G21G13G30G29G05G02G20
 111974647.870 8  87252971.13047                  21308060.713    21308060.799
                  21308055.253                          52.000          45.0004

 125923492.063 7  98122197.61344                  23962442.011    23962440.737
                  23962435.419                          43.000          29.0004

 108879808.032 8  84841408.00547                  20719130.647    20719130.949
                  20719125.111                          51.000          45.0004

 129462432.688 7 100879819.97244                  24635877.616    24635877.041
                  24635875.042                          42.000          28.0004

 110091303.373 9  85785430.78347                  20949676.328    20949675.958
                  20949670.480                          54.000          46.0004

 111628027.379 8  86982877.40047                  21242104.420    21242104.431
                  21242098.804                          53.000          45.0004

 120331208.016 7  93764572.78646                  22898267.899    22898267.119
                  22898260.078                          47.000          37.0004

 131962401.477 6 102827843.46443                  25111609.049    25111607.287
                  25111603.857                          38.000          19.0004

 19  9 29 17 40  0.0000000  0  8G15G21G13G30G29G05G02G20
 111891734.371 8  87188363.23347                  21292282.868    21292282.815
                  21292277.433                          52.000          44.0004

 125843818.670 6  98060114.47744                  23947280.486    23947279.014
                  23947274.281                          40.000          29.0004

 108854409.627 8  84821617.05247                  20714297.972    20714297.678
                  20714291.973                          50.000          45.0004

 129444363.778 7 100865740.33044                  24632439.360    24632438.053
                  24632436.817                          44.000          28.0004

 110117696.049 9  85805996.49947                  20954698.709    20954698.230
                  20954692.901                          54.000          46.0004

 111687266.250 8  87029037.55947                  21253377.129    21253377.202
                  21253371.468                          53.000          45.0004

 120403061.023 7  93820562.11846                  22911941.139    22911940.342
                  22911933.652                          47.000          38.0004

 131872764.212 6 102757996.30143                  25094551.063    25094550.324
                  25094546.542                          37.000          19.0004

 19  9 29 17 40 30.0000000  0  8G15G21G13G30G29G05G02G20
 111809260.617 9  87124098.00147                  21276588.657    21276588.494
                  21276582.983                          54.000          45.0004

 125764190.508 7  97998066.58844                  23932127.584    23932125.892
                  23932121.672                          42.000          29.0004

 108829625.449 8  84802304.71847                  20709581.629    20709581.446
                  20709575.490                          52.000          45.0004

 129426770.550 7 100852031.34744                  24629091.324    24629089.966
                  24629088.722                          42.000          28.0004

 110144702.592 8  85827040.54747                  20959837.691    20959837.464
                  20959832.000                          53.000          46.0004

 111746723.737 9  87075368.06147                  21264691.564    21264691.619
                  21264685.889                          54.000          45.0004

 120475187.521 7  93876764.56346                  22925666.310    22925665.437
                  22925658.720                          47.000          37.0004

 131783176.030 6 102688187.36843                  25077503.075    25077502.614
                  25077498.115                          40.000          19.0004

 19  9 29 17 41  0.0000000  0  8G15G21G13G30G29G05G02G20
 111727227.703 8  87060176.27047                  21260978.031    21260978.145
                  21260972.587                          53.000          45.0004

 125684607.518 7  97936053.90745                  23916983.144    23916982.121
                  23916977.646                          43.000          30.0004

 108805455.844 8  84783471.27447                  20704982.187    20704981.938
                  20704976.149                          52.000          45.0004

 129409653.408 7 100838693.35244                  24625834.021    24625832.505
                  24625831.293                          43.000          28.0004

 110172321.033 9  85848561.39847                  20965093.342    20965093.106
                  20965087.639                          54.000          46.0004

 111806398.087 9  87121867.54947                  21276047.348    21276047.192
                  21276041.345                          54.000          45.0004

 120547585.806 7  93933178.77546                  22939443.216    22939442.424
                  22939435.387                          47.000          37.0004

 131693636.266 6 102618416.17343                  25060464.312    25060463.319
                  25060459.546                          38.000          20.0004

 19  9 29 17 41 30.0000000  0  8G15G21G13G30G29G05G02G20
 111645639.023 8  86996600.70047                  21245452.271    21245452.248
                  21245446.901                          53.000          46.0004

 125605071.981 7  97874078.19845                  23901848.181    23901847.142
                  23901842.367                          44.000          31.0004

 108781901.887 8  84765117.55947                  20700500.003    20700499.658
                  20700494.090                          50.000          45.0004

 129393014.663 7 100825728.12944                  24622667.554    24622666.244
                  24622665.318                          42.000          28.0004

 110200551.221 8  85870558.93547                  20970465.465    20970465.262
                  20970459.690                          52.000          46.0004

 111866289.257 8  87168535.98547                  21287444.166    21287444.138
                  21287438.314                          52.000          45.0004

 120620256.605 8  93989805.35246                  22953271.987    22953271.420
                  22953264.334                          48.000          37.0004

 131604146.413 6 102548683.85243                  25043435.029    25043433.787
                  25043429.728                          38.000          19.0004

 19  9 29 17 42  0.0000000  0  8G15G21G13G30G29G05G02G20
 111564494.972 8  86933371.59547                  21230011.203    21230010.994
                  21230005.642                          53.000          45.0004

 125525583.666 7  97812139.27545                  23886722.256    23886721.223
                  23886716.154                          44.000          32.0004

 108758962.613 8  84747242.81947                  20696134.805    20696134.666
                  20696128.830                          50.000          45.0004

 129376853.993 6 100813135.42644                  24619592.460    24619591.207
                  24619589.673                          41.000          28.0004

 110229390.793 9  85893031.31647                  20975953.552    20975953.172
                  20975947.752                          54.000          46.0004

 111926394.387 8  87215371.14947                  21298881.823    21298881.674
                  21298875.969                          53.000          45.0004

 120693197.781 7  94046642.61046                  22967152.582    22967151.695
                  22967144.690                          46.000          37.0004

 131514704.887 6 102478989.22143                  25026414.695    25026413.772
                  25026409.940                          40.000          21.0004

 19  9 29 17 42 30.0000000  0  8G15G21G13G30G29G05G02G20
 111483800.098 8  86870492.49447                  21214655.447    21214655.336
                  21214649.770                          52.000          45.0004

 125446145.811 7  97750239.67545                  23871605.874    23871604.779
                  23871599.667                          45.000          32.0004

 108736641.167 8  84729849.50047                  20691887.261    20691887.207
                  20691881.197                          50.000          46.0004

 129361174.812 6 100800917.88844                  24616609.019    24616607.732
                  24616605.992                          41.000          28.0004

 110258840.997 8  85915979.51447                  20981557.585    20981557.261
                  20981551.877                          52.000          46.0004

 111986714.165 8  87262373.56347                  21310360.239    21310360.058
                  21310354.482                          53.000          45.0004

 120766410.863 7  94103691.74546                  22981084.540    22981083.543
                  22981076.960                          47.000          38.0004

 131425314.464 6 102409334.39943                  25009402.951    25009403.280
                  25009399.422                          39.000          20.0004

 19  9 29 17 43  0.0000000  0  8G15G21G13G30G29G05G02G20
 111403556.118 8  86807964.73947                  21199385.687    21199385.385
                  21199379.882                          53.000          45.0004

 125366759.525 7  97688380.24445                  23856499.136    23856498.226
                  23856492.775                          43.000          33.0004

 108714937.843 8  84712937.83947                  20687757.184    20687756.950
                  20687751.280                          50.000          45.0004

 129345978.178 7 100789076.35144                  24613716.932    24613716.169
                  24613714.389                          43.000          28.0004

 110288900.586 9  85939402.55947                  20987277.703    20987277.350
                  20987271.877                          54.000          46.0004

 112047247.473 8  87309542.36847                  21321879.188    21321878.967
                  21321873.685                          52.000          45.0004

 120839894.966 7  94160952.05646                  22995067.885    22995067.052
                  22995060.708                          45.000          37.0004

 131335975.418 6 102339719.61343                  24992403.938    24992402.566
                  24992398.808                          38.000          20.0004

 19  9 29 17 43 30.0000000  0  8G15G21G13G30G29G05G02G20
 111323767.411 8  86745791.74247                  21184202.087    21184201.922
                  21184196.604                          52.000          45.0004

 125287428.387 7  97626563.79345                  23841403.190    23841402.054
                  23841396.817                          44.000          33.0004

 108693855.588 8  84696510.12047                  20683745.468    20683745.122
                  20683739.351                          51.000          45.0004

 129331267.524 7 100777613.53244                  24610917.738    24610916.389
                  24610914.546                          44.000          28.0004

 110319570.774 8  85963301.39347                  20993114.163    20993113.772
                  20993108.266                          53.000          46.0004

 112107994.998 8  87356878.08547                  21333439.170    21333438.763
                  21333433.569                          52.000          45.0004

 120913652.442 7  94218425.37246                  23009103.420    23009102.440
                  23009096.197                          47.000          37.0004

 131246690.259 6 102270146.80043                  24975412.826    24975411.813
                  24975408.199                          38.000          20.0004

 19  9 29 17 44  0.0000000  0  8G15G21G13G30G29G05G02G20
 111244435.057 8  86683974.34647                  21169105.875    21169105.542
                  21169100.144                          52.000          45.0004

 125208152.540 7  97564790.41045                  23826317.409    23826316.329
                  23826310.992                          45.000          33.0004

 108673393.697 8  84680565.80147                  20679851.579    20679851.329
                  20679845.451                          51.000          44.0004

 129317043.147 7 100766529.61444                  24608211.010    24608209.993
                  24608207.961                          44.000          28.0004

 110350849.541 8  85987674.44847                  20999066.352    20999065.952
                  20999060.525                          53.000          46.0004

 112168955.161 8  87404379.49947                  21345039.469    21345039.168
                  21345033.780                          53.000          45.0004

 120987681.210 7  94276110.09146                  23023190.550    23023189.796
                  23023183.208                          47.000          36.0004

 131157458.559 6 102200615.63643                  24958432.754    24958431.282
                  24958428.200                          36.000          21.0004

 19  9 29 17 44 30.0000000  0  8G15G21G13G30G29G05G02G20
 111165562.772 8  86622515.44547                  21154096.733    21154096.573
                  21154091.218                          53.000          45.0004

 125128934.500 7  97503062.09745                  23811242.271    23811241.378
                  23811236.490                          44.000          33.0004

 108653554.071 8  84665106.36247                  20676076.247    20676075.947
                  20676069.994                          50.000          45.0004

 129303307.645 7 100755826.66144                  24605597.206    24605596.738
                  24605594.310                          44.000          28.0004

 110382737.137 9  86012521.91047                  21005134.260    21005134.033
                  21005128.528                          54.000          46.0004

 112230127.540 8  87452046.27947                  21356680.303    21356680.114
                  21356674.461                          52.000          44.0004

 121061982.140 7  94334006.88846                  23037329.824    23037328.767
                  23037322.115                          44.000          36.0004

 131068281.831 5 102131127.30043                  24941462.086    24941461.422
                  24941458.160                          35.000          19.0004

 19  9 29 17 45  0.0000000  0  8G15G21G13G30G29G05G02G20
 111087150.219 8  86561414.78147                  21139175.161    21139175.130
                  21139169.755                          52.000          45.0004

 125049773.444 7  97441378.18045                  23796178.614    23796177.291
                  23796172.629                          43.000          33.0004

 108634335.286 8  84650130.69247                  20672419.064    20672418.858
                  20672412.707                          51.000          45.0004

 129290059.919 7 100745503.78844                  24603076.320    24603075.144
                  24603072.980                          43.000          28.0004

 110415230.521 8  86037841.42147                  21011317.618    21011317.485
                  21011311.859                          53.000          46.0004

 112291509.368 8  87499876.26847                  21368361.066    21368360.726
                  21368354.953                          53.000          45.0004

 121136552.619 7  94392113.71745                  23051520.296    23051519.173
                  23051512.288                          44.000          35.0004

 130979158.494 5 102061680.59443                  24924502.302    24924502.001
                  24924498.306                          35.000          18.0004

 19  9 29 17 45 30.0000000  0  8G15G21G13G30G29G05G02G20
 111009198.875 8  86500673.49847                  21124341.585    21124341.584
                  21124336.268                          53.000          45.0004

 124970670.014 7  97379739.18345                  23781125.781    23781124.550
                  23781120.001                          46.000          33.0004

 108615736.754 8  84635638.33347                  20668879.825    20668879.686
                  20668873.589                          51.000          45.0004

 129277300.353 7 100735561.29644                  24600648.183    24600646.993
                  24600644.956                          44.000          28.0004

 110448327.311 8  86063631.10847                  21017615.794    21017615.540
                  21017609.947                          53.000          46.0004

 112353098.308 8  87547867.64447                  21380080.913    21380080.897
                  21380075.027                          53.000          45.0004

 121211391.424 7  94450429.63345                  23065761.223    23065760.171
                  23065754.035                          44.000          35.0004

 130890087.965 5 101992275.06143                  24907553.448    24907552.508
                  24907548.884                          35.000          18.0004

 19  9 29 17 46  0.0000000  0  8G15G21G13G30G29G05G02G20
 110931710.965 8  86440293.33147                  21109595.983    21109595.974
                  21109590.757                          52.000          45.0004

 124891625.476 7  97318146.07245                  23766084.175    23766082.601
                  23766078.331                          44.000          34.0004

 108597759.228 8  84621629.87747                  20665458.812    20665458.504
                  20665452.694                          53.000          45.0004

 129265030.365 6 100726000.27244                  24598313.104    24598311.592
                  24598309.523                          40.000          28.0004

 110482026.750 9  86089890.40847                  21024028.634    21024028.181
                  21024022.704                          54.000          45.0004

 112414893.621 8  87596019.83147                  21391840.092    21391840.136
                  21391834.340                          52.000          45.0004

 121286498.007 7  94508954.19245                  23080053.348    23080052.579
                  23080046.806                          46.000          35.0004

 130801070.799 6 101922911.09643                  24890614.248    24890613.003
                  24890609.489                          37.000          19.0004

 19  9 29 17 46 30.0000000  0  8G15G21G13G30G29G05G02G20
 110854688.699 8  86380275.99947                  21094939.172    21094939.212
                  21094933.800                          51.000          45.0004

 124812641.557 7  97256600.19145                  23751054.146    23751052.330
                  23751048.247                          44.000          34.0004

 108580403.550 8  84608105.97647                  20662156.183    20662155.920
                  20662150.059                          49.000          45.0004

 129253251.368 7 100716821.83944                  24596071.500    24596069.363
                  24596067.933                          43.000          28.0004

 110516328.235 9  86116618.82847                  21030555.782    21030555.534
                  21030549.897                          54.000          46.0004

 112476894.256 8  87644331.99947                  21403638.490    21403638.388
                  21403632.592                          52.000          45.0004

 121361872.285 7  94567687.34846                  23094397.269    23094396.154
                  23094389.711                          43.000          36.0004

 130712107.912 6 101853589.42243                  24873684.992    24873684.106
                  24873680.054                          37.000          21.0004

 19  9 29 17 47  0.0000000  0  8G15G21G13G30G29G05G02G20
 110778131.712 8  86320621.22547                  21080371.041    21080370.955
                  21080365.382                          52.000          45.0004

 124733716.872 7  97195100.46545                  23736034.778    23736033.658
                  23736028.951                          44.000          33.0004

 108563667.837 8  84595065.16247                  20658971.412    20658971.153
                  20658965.545                          51.000          45.0004

 129241962.135 6 100708024.99844                  24593923.545    24593921.248
                  24593920.884                          41.000          28.0004

 110551228.231 8  86143813.61747                  21037197.143    21037196.844
                  21037191.279                          53.000          46.0004

 112539097.217 8  87692801.83247                  21415475.100    21415475.090
                  21415469.499                          53.000          45.0004

 121437511.389 7  94626626.87046                  23108791.015    23108790.092
                  23108782.784                          46.000          36.0004

 130623197.347 6 101784308.51243                  24856766.319    24856765.239
                  24856761.028                          38.000          22.0004

 19  9 29 17 47 30.0000000  0  8G15G21G13G30G29G05G02G20
 110702044.304 8  86261332.35647                  21065892.067    21065891.987
                  21065886.465                          52.000          45.0004

 124654855.470 7  97133650.05745                  23721027.846    23721026.265
                  23721022.168                          42.000          32.0004

 108547554.931 8  84582509.65947                  20655905.288    20655904.940
                  20655899.264                          51.000          45.0004

 129231166.047 6 100699612.43844                  24591868.936    24591866.598
                  24591866.229                          40.000          28.0004

 110586727.764 8  86171475.58847                  21043952.569    21043952.240
                  21043946.612                          52.000          46.0004

 112601503.284 8  87741429.92647                  21427350.624    21427350.460
                  21427345.020                          52.000          45.0004

 121513416.907 7  94685774.00346                  23123235.260    23123234.570
                  23123227.338                          47.000          36.0004

 130534341.924 6 101715070.59943                  24839857.350    24839856.567
                  24839852.839                          40.000          22.0004

 19  9 29 17 48  0.0000000  0  8G15G21G13G30G29G05G02G20
 110626425.577 8  86202408.69247                  21051502.301    21051502.079
                  21051496.634                          52.000          46.0004

 124576055.088 7  97072247.19645                  23706032.449    23706031.316
                  23706026.691                          45.000          32.0004

 108532061.359 8  84570436.74647                  20652957.057    20652956.663
                  20652950.744                          51.000          45.0004

 129220860.882 7 100691582.41344                  24589907.671    24589906.213
                  24589906.664                          43.000          29.0004

 110622821.901 8  86199600.88147                  21050821.000    21050820.716
                  21050815.301                          53.000          46.0004

 112664107.935 8  87790212.75547                  21439263.821    21439263.952
                  21439258.324                          51.000          44.0004

 121589584.966 7  94745125.70746                  23137729.568    23137728.872
                  23137721.677                          46.000          36.0004

 130445538.247 6 101645872.99544                  24822958.711    24822957.615
                  24822953.628                          40.000          24.0004

