     2.11           OBSERVATION DATA    G (GPS)             RINEX VERSION / TYPE
teqc  2018Jun8      root                20191128 20:46:44UTCPGM / RUN BY / DATE
Linux 2.4.21-27.ELsmp|Opteron|gcc|Linux 64|=+               COMMENT
teqc  2019Feb25     CORS-ADM Account    20191031 19:06:54UTCCOMMENT
teqc  2019Feb25     NOAA/NOS/NGS/CORS   20190930 08:55:04UTCCOMMENT
BIT 2 OF LLI FLAGS DATA COLLECTED UNDER A/S CONDITION       COMMENT
 SNR is mapped to RINEX snr flag value [0-9]                COMMENT
  L1 & L2: min(max(int(snr_dBHz/6), 0), 9)                  COMMENT
teqc.e edited: all SBAS satellites excluded                 COMMENT
teqc.e edited: all QZSS satellites excluded                 COMMENT
pseudorange smoothing corrections not applied               COMMENT
rx serial #: 618-03100                                      COMMENT
Forced Modulo Decimation to 30 seconds                      COMMENT
LYCO                                                        MARKER NAME
Fran Jones          PA-081                                  OBSERVER / AGENCY
618-01994           TPS NET-G3A         4.7 Nov,23,2017 p6  REC # / TYPE / VERS
762-11000           TPSCR.G5        TPSH                    ANT # / TYPE
  1080274.0570 -4680045.2290  4182682.6660                  APPROX POSITION XYZ
        0.0000        0.0000        0.0000                  ANTENNA: DELTA H/E/N
     1     1                                                WAVELENGTH FACT L1/2
    11    L1    L2    L5    C1    P1    C2    P2    C5    S1# / TYPES OF OBSERV
          S2    S5                                          # / TYPES OF OBSERV
    30.0000                                                 INTERVAL
teqc.w windowed: start @ 2019 Sep 29 20:00:00.000           COMMENT
teqc.w windowed:  end  @ 2019 Sep 30 08:00:00.000           COMMENT
teqc.w edited: all GLONASS satellites excluded              COMMENT
teqc.w edited: all SBAS satellites excluded                 COMMENT
teqc.w edited: all Galileo satellites excluded              COMMENT
teqc.w edited: all Beidou satellites excluded               COMMENT
teqc.w edited: all QZSS satellites excluded                 COMMENT
  2019     9    29    20     0    0.0000000     GPS         TIME OF FIRST OBS
    18                                                      LEAP SECONDS
                                                            END OF HEADER
 19  9 29 20  0  0.0000000  0  9G15G21G13G24G10G32G04G20G27
 109184867.947 8  85079117.29547                  20777182.713    20777182.430
                  20777177.111                          53.000          46.0004

 110800839.229 8  86338314.50247                  21084695.106    21084694.098
                  21084688.290                          51.000          46.0004

 122564418.333 7  95504737.57745                  23323228.123    23323227.653
                  23323223.285                          44.000          30.0004

 113088054.426 8  88120567.32247                  21519934.583    21519934.632
                  21519932.247                          49.000          42.0004

 121832240.139 7  94934210.02646                  23183897.830    23183897.983
                  23183895.657                          46.000          36.0004

 132691288.668 6 103395807.75243                  25250311.412    25250311.734
                  25250311.013                          39.000          23.0004

 127031067.837 6  98985239.17944                  24173209.510    24173208.192
                  24173205.321                          41.000          24.0004

 110155965.810 8  85835822.62847                  20961976.332    20961975.408
                  20961970.332                          50.000          45.0004

 127324535.545 7  99213930.47745                  24229053.147    24229052.523
                  24229050.604                          42.000          31.0004

 19  9 29 20  0 30.0000000  0  9G15G21G13G24G10G32G04G20G27
 109243116.474 8  85124505.75847                  20788267.070    20788266.922
                  20788261.383                          53.000          46.0004

 110794916.286 8  86333699.22047                  21083568.033    21083566.913
                  21083561.066                          50.000          46.0004

 122662350.981 6  95581048.71045                  23341863.995    23341863.234
                  23341859.470                          41.000          30.0004

 113016867.387 8  88065096.93747                  21506388.301    21506388.159
                  21506385.727                          49.000          42.0004

 121752481.841 7  94872060.73646                  23168720.446    23168720.026
                  23168718.117                          46.000          37.0004

 132592608.388 6 103318914.14044                  25231533.574    25231533.491
                  25231532.365                          39.000          24.0004

 127056967.485 6  99005420.71544                  24178138.159    24178137.432
                  24178133.708                          40.000          25.0004

 110098768.228 8  85791253.09747                  20951092.181    20951091.226
                  20951086.006                          50.000          45.0004

 127312418.824 6  99204488.89645                  24226747.730    24226747.121
                  24226744.534                          40.000          31.0004

 19  9 29 20  1  0.0000000  0  9G15G21G13G24G10G32G04G20G27
 109301710.652 8  85170163.54947                  20799417.329    20799417.199
                  20799411.474                          53.000          46.0004

 110789467.344 8  86329453.29147                  21082531.070    21082530.192
                  21082524.439                          50.000          46.0004

 122760414.524 7  95657461.84144                  23360525.015    23360524.015
                  23360519.425                          42.000          29.0004

 112946151.784 8  88009993.89547                  21492931.538    21492931.687
                  21492929.024                          49.000          43.0004

 121672790.782 7  94809963.83146                  23153555.617    23153555.520
                  23153553.187                          45.000          36.0004

 132494029.203 6 103242099.30543                  25212774.309    25212774.465
                  25212773.488                          40.000          23.0004

 127083373.441 7  99025996.77644                  24183163.217    24183162.284
                  24183158.420                          42.000          25.0004

 110041803.544 8  85746865.04447                  20940252.147    20940251.297
                  20940245.943                          49.000          44.0004

 127300865.973 6  99195486.68845                  24224549.374    24224548.052
                  24224545.856                          41.000          30.0004

 19  9 29 20  1 30.0000000  0  9G15G21G13G24G10G32G04G20G27
 109360647.091 8  85216088.04247                  20810632.510    20810632.284
                  20810626.822                          53.000          46.0004

 110784491.610 8  86325576.09647                  21081584.300    21081583.159
                  21081577.619                          49.000          46.0004

 122858605.616 7  95733974.35645                  23379210.179    23379209.699
                  23379204.804                          45.000          30.0004

 112875908.095 8  87955258.58247                  21479564.798    21479564.603
                  21479562.003                          50.000          43.0004

 121593166.281 7  94747918.79646                  23138403.429    23138403.391
                  23138400.861                          46.000          36.0004

 132395550.916 6 103165363.11444                  25194034.366    25194034.463
                  25194033.259                          41.000          24.0004

 127110283.122 6  99046965.37144                  24188283.688    24188283.471
                  24188279.851                          41.000          26.0004

 109985071.968 8  85702658.63247                  20929456.601    20929455.582
                  20929450.366                          51.000          44.0004

 127289875.469 7  99186922.66645                  24222457.564    24222456.470
                  24222454.626                          42.000          30.0004

 19  9 29 20  2  0.0000000  0  9G15G21G13G24G10G32G04G20G27
 109419922.873 9  85262276.96247                  20821912.261    20821912.177
                  20821906.678                          54.000          46.0004

 110779989.218 8  86322067.74047                  21080727.487    21080726.321
                  21080720.789                          50.000          45.0004

 122956921.348 7  95810583.99644                  23397918.935    23397918.274
                  23397913.203                          42.000          29.0004

 112806138.450 8  87900892.65147                  21466288.045    21466288.037
                  21466285.260                          49.000          43.0004

 121513608.229 7  94685925.53346                  23123264.521    23123263.945
                  23123261.561                          45.000          37.0004

 132297173.753 6 103088705.69444                  25175313.822    25175313.733
                  25175312.524                          41.000          24.0004

 127137693.684 6  99068324.23044                  24193499.256    24193498.700
                  24193496.076                          40.000          26.0004

 109928573.609 8  85658633.94847                  20918705.098    20918704.076
                  20918699.040                          51.000          45.0004

 127279446.499 6  99178796.21344                  24220472.162    24220471.976
                  24220470.315                          41.000          29.0004

 19  9 29 20  2 30.0000000  0  9G15G21G13G24G10G32G04G20G27
 109479537.839 8  85308730.17647                  20833256.595    20833256.434
                  20833251.003                          53.000          46.0004

 110775962.470 8  86318930.01947                  21079961.100    21079960.107
                  21079954.486                          50.000          46.0004

 123055361.308 7  95887290.43445                  23416651.375    23416651.453
                  23416645.859                          44.000          30.0004

 112736847.922 8  87846900.05547                  21453102.359    21453102.466
                  21453099.594                          50.000          44.0004

 121434119.173 7  94623986.02646                  23108138.120    23108138.002
                  23108135.117                          46.000          37.0004

 132198900.606 6 103012129.32244                  25156612.107    25156612.317
                  25156612.335                          38.000          24.0004

 127165605.130 6  99090073.39744                  24198811.059    24198810.338
                  24198807.174                          41.000          26.0004

 109872311.737 8  85614793.54347                  20907998.931    20907997.726
                  20907992.646                          51.000          44.0004

 127269580.782 6  99171108.64444                  24218595.368    24218594.487
                  24218593.121                          40.000          29.0004

 19  9 29 20  3  0.0000000  0  9G15G21G13G24G10G32G04G20G27
 109539491.499 8  85355447.30947                  20844665.425    20844665.181
                  20844659.753                          53.000          46.0004

 110772413.463 8  86316164.56147                  21079285.709    21079284.731
                  21079279.217                          52.000          46.0004

 123153924.440 7  95964092.85045                  23435407.405    23435407.891
                  23435402.356                          45.000          30.0004

 112668039.358 8  87793283.02447                  21440008.489    21440008.372
                  21440005.682                          49.000          43.0004

 121354701.214 7  94562101.92746                  23093025.255    23093025.080
                  23093022.793                          47.000          38.0004

 132100734.008 6 102935635.97144                  25137931.414    25137931.937
                  25137931.230                          40.000          24.0004

 127194017.233 6  99112212.68444                  24204217.839    24204217.425
                  24204213.614                          40.000          26.0004

 109816289.201 8  85571139.63847                  20897338.043    20897336.967
                  20897331.785                          50.000          44.0004

 127260279.574 6  99163860.95744                  24216825.562    24216824.429
                  24216822.705                          40.000          29.0004

 19  9 29 20  3 30.0000000  0  9G15G21G13G24G10G32G04G20G27
 109599777.996 8  85402423.79447                  20856137.634    20856137.420
                  20856131.813                          53.000          46.0004

 110769339.424 8  86313769.20347                  21078700.746    21078699.796
                  21078694.258                          50.000          46.0004

 123252605.364 7  96040987.05644                  23454185.521    23454185.839
                  23454180.239                          44.000          29.0004

 112599712.608 8  87740041.42547                  21427006.211    21427006.405
                  21427003.563                          48.000          43.0004

 121275351.499 7  94500271.01046                  23077925.564    23077925.322
                  23077922.894                          47.000          38.0004

 132002671.281 6 102859223.52643                  25119270.934    25119271.313
                  25119270.760                          39.000          22.0004

 127222924.941 6  99134738.16244                  24209718.620    24209717.802
                  24209714.526                          41.000          26.0004

 109760503.340 8  85527670.14347                  20886722.183    20886721.373
                  20886716.067                          51.000          45.0004

 127251539.129 6  99157050.25244                  24215162.337    24215161.441
                  24215159.025                          40.000          29.0004

 19  9 29 20  4  0.0000000  0  9G15G21G13G24G10G32G04G20G27
 109660397.560 9  85449659.81647                  20867673.152    20867672.913
                  20867667.283                          54.000          46.0004

 110766742.662 8  86311745.75347                  21078206.543    21078205.617
                  21078199.924                          51.000          46.0004

 123351404.063 7  96117973.03344                  23472986.417    23472986.013
                  23472981.060                          42.000          29.0004

 112531871.375 8  87687178.15447                  21414096.540    21414096.614
                  21414093.695                          48.000          43.0004

 121196072.606 7  94438495.28546                  23062839.221    23062839.117
                  23062836.818                          47.000          38.0004

 131904715.414 6 102782894.39844                  25100630.896    25100630.976
                  25100629.928                          41.000          25.0004

 127252328.265 6  99157649.81944                  24215314.399    24215312.943
                  24215309.934                          39.000          25.0004

 109704957.550 8  85484387.72347                  20876152.378    20876151.212
                  20876146.005                          49.000          44.0004

 127243361.258 6  99150677.90644                  24213605.655    24213604.543
                  24213603.177                          40.000          29.0004

 19  9 29 20  4 30.0000000  0  9G15G21G13G24G10G32G04G20G27
 109721351.028 9  85497156.02747                  20879272.163    20879272.068
                  20879266.328                          54.000          46.0004

 110764627.027 8  86310097.20947                  21077804.155    21077802.963
                  21077797.294                          50.000          46.0004

 123450321.087 7  96195051.20944                  23491810.314    23491809.292
                  23491805.013                          42.000          29.0004

 112464522.044 8  87634698.17947                  21401280.653    21401280.514
                  21401277.635                          50.000          43.0004

 121116868.314 8  94376777.67946                  23047767.179    23047767.037
                  23047764.660                          48.000          38.0004

 131806870.218 6 102706651.46043                  25082011.719    25082012.023
                  25082010.074                          40.000          23.0004

 127282227.961 6  99180948.26744                  24221004.086    24221002.761
                  24220999.917                          38.000          25.0004

 109649655.998 8  85441295.61747                  20865628.942    20865627.618
                  20865622.500                          51.000          45.0004

 127235748.706 6  99144746.05844                  24212156.817    24212156.304
                  24212154.588                          41.000          29.0004

 19  9 29 20  5  0.0000000  0  9G15G21G13G24G10G32G04G20G27
 109782634.592 8  85544909.45447                  20890933.847    20890933.898
                  20890928.255                          53.000          46.0004

 110762992.095 8  86308823.23547                  21077493.048    21077492.019
                  21077486.426                          50.000          46.0004

 123549353.022 7  96272218.92544                  23510655.044    23510654.726
                  23510649.697                          43.000          29.0004

 112397665.131 8  87582601.90947                  21388558.121    21388558.135
                  21388555.293                          50.000          44.0004

 121037738.165 8  94315117.85246                  23032709.268    23032709.281
                  23032706.592                          48.000          39.0004

 131709135.852 6 102630494.95044                  25063413.816    25063413.692
                  25063412.010                          39.000          26.0004

 127312621.220 6  99204631.32044                  24226787.285    24226786.679
                  24226783.718                          40.000          26.0004

 109594598.703 8  85398393.84447                  20855151.667    20855150.567
                  20855145.367                          50.000          44.0004

 127228700.038 6  99139253.59644                  24210816.435    24210815.158
                  24210813.081                          40.000          29.0004

 19  9 29 20  5 30.0000000  0  9G15G21G13G24G10G32G04G20G27
 109844244.896 8  85592917.48347                  20902658.146    20902657.797
                  20902652.395                          53.000          46.0004

 110761836.297 8  86307922.61047                  21077273.199    21077272.155
                  21077266.384                          49.000          46.0004

 123648496.681 7  96349473.70544                  23529521.429    23529521.525
                  23529516.340                          43.000          29.0004

 112331302.171 7  87530890.53747                  21375929.179    21375929.473
                  21375926.740                          47.000          43.0004

 120958681.361 7  94253515.17946                  23017665.194    23017665.064
                  23017662.727                          46.000          38.0004

 131611511.705 6 102554424.26243                  25044836.746    25044836.793
                  25044834.312                          41.000          23.0004

 127343504.853 6  99228696.46944                  24232664.376    24232663.625
                  24232660.002                          40.000          25.0004

 109539785.905 8  85355682.58147                  20844721.411    20844720.270
                  20844715.068                          50.000          44.0004

 127222213.483 6  99134199.16444                  24209581.515    24209581.047
                  24209578.658                          41.000          29.0004

 19  9 29 20  6  0.0000000  0  9G15G21G13G24G10G32G04G20G27
 109906178.740 9  85641177.61847                  20914443.668    20914443.440
                  20914437.934                          54.000          46.0004

 110761159.470 8  86307395.21347                  21077144.390    21077143.182
                  21077137.548                          51.000          45.0004

 123747748.820 7  96426813.00944                  23548408.715    23548408.682
                  23548403.422                          42.000          29.0004

 112265433.849 7  87479564.59847                  21363395.119    21363395.027
                  21363392.336                          47.000          43.0004

 120879697.442 7  94191969.29946                  23002634.751    23002634.477
                  23002632.303                          46.000          38.0004

 131513997.550 6 102478439.31244                  25026280.064    25026279.913
                  25026278.389                          39.000          24.0004

 127374875.925 6  99253141.45644                  24238634.264    24238633.191
                  24238629.397                          41.000          24.0004

 109485217.188 8  85313161.51047                  20834337.335    20834336.313
                  20834330.970                          51.000          45.0004

 127216287.590 6  99129581.59744                  24208453.453    24208452.726
                  24208451.062                          41.000          28.0004

 19  9 29 20  6 30.0000000  0  9G15G21G13G24G10G32G04G20G27
 109968438.194 8  85689691.46747                  20926291.304    20926291.146
                  20926285.558                          53.000          46.0004

 110760966.022 8  86307244.47747                  21077107.647    21077106.524
                  21077100.744                          51.000          45.0004

 123847110.984 7  96504238.05144                  23567316.479    23567316.713
                  23567311.533                          44.000          28.0004

 112200066.641 8  87428629.14247                  21350956.276    21350955.762
                  21350953.240                          49.000          43.0004

 120800790.904 7  94130483.71746                  22987619.489    22987619.382
                  22987616.892                          46.000          38.0004

 131416598.169 6 102402543.78544                  25007745.282    25007745.340
                  25007743.598                          39.000          24.0004

 127406735.873 6  99277967.38744                  24244696.694    24244695.879
                  24244692.992                          41.000          25.0004

 109430897.852 8  85270834.75747                  20824000.558    20823999.490
                  20823994.191                          50.000          44.0004

 127210925.748 6  99125403.53944                  24207433.311    24207432.263
                  24207430.875                          40.000          28.0004

 19  9 29 20  7  0.0000000  0  9G15G21G13G24G10G32G04G20G27
 110031018.146 9  85738455.07147                  20938199.827    20938199.677
                  20938194.110                          54.000          46.0004

 110761253.742 8  86307468.67647                  21077162.142    21077161.361
                  21077155.535                          50.000          46.0004

 123946578.485 7  96581745.16444                  23586244.313    23586245.049
                  23586238.970                          44.000          28.0004

 112135200.453 7  87378084.09047                  21338612.244    21338611.944
                  21338609.629                          47.000          43.0004

 120721959.980 8  94069057.05746                  22972618.375    22972618.253
                  22972615.526                          48.000          38.0004

 131319312.052 6 102326736.52844                  24989231.869    24989231.543
                  24989230.599                          39.000          25.0004

 127439080.710 7  99303171.15744                  24250851.993    24250851.623
                  24250848.228                          42.000          26.0004

 109376826.587 8  85228701.31547                  20813711.382    20813710.013
                  20813704.936                          49.000          44.0004

 127206125.128 6  99121662.80744                  24206519.556    24206519.215
                  24206517.477                          40.000          28.0004

 19  9 29 20  7 30.0000000  0  9G15G21G13G24G10G32G04G20G27
 110093915.242 8  85787465.80147                  20950168.899    20950168.500
                  20950163.209                          53.000          46.0004

 110762021.277 8  86308066.75047                  21077308.378    21077307.453
                  21077301.625                          51.000          46.0004

 124046147.630 7  96659331.48644                  23605191.969    23605191.790
                  23605187.467                          42.000          29.0004

 112070836.432 8  87327930.33847                  21326364.404    21326364.104
                  21326361.506                          48.000          43.0004

 120643203.893 7  94007688.70346                  22957631.507    22957631.530
                  22957629.093                          46.000          38.0004

 131222138.601 6 102251017.07844                  24970740.599    24970740.303
                  24970738.696                          40.000          25.0004

 127471906.695 6  99328749.84144                  24257098.600    24257098.119
                  24257094.713                          41.000          27.0004

 109323003.078 8  85186760.92347                  20803468.654    20803467.796
                  20803462.735                          51.000          45.0004

 127201883.818 6  99118357.89744                  24205712.170    24205711.601
                  24205710.248                          39.000          28.0004

 19  9 29 20  8  0.0000000  0  9G15G21G13G24G10G32G04G20G27
 110157125.489 9  85836720.53347                  20962197.309    20962196.888
                  20962191.644                          54.000          46.0004

 110763267.490 8  86309037.81947                  21077545.394    21077544.784
                  21077538.660                          51.000          46.0004

 124145814.737 7  96736994.14244                  23624157.849    23624158.200
                  23624153.011                          42.000          28.0004

 112006975.104 8  87278168.29447                  21314211.770    21314211.659
                  21314209.163                          49.000          43.0004

 120564521.683 8  93946377.91746                  22942658.764    22942658.951
                  22942656.216                          48.000          38.0004

 131125077.089 6 102175384.83044                  24952270.123    24952270.135
                  24952268.259                          40.000          25.0004

 127505209.861 6  99354700.35244                  24263435.670    24263435.194
                  24263432.305                          39.000          27.0004

 109269426.785 8  85145013.17747                  20793273.672    20793272.633
                  20793267.592                          51.000          45.0004

 127198199.720 6  99115487.16544                  24205011.720    24205009.943
                  24205009.115                          38.000          27.0004

 19  9 29 20  8 30.0000000  0  9G15G21G13G24G10G32G04G20G27
 110220647.930 8  85886218.53347                  20974285.174    20974284.747
                  20974279.606                          52.000          46.0004

 110764994.110 8  86310383.24047                  21077873.992    21077873.052
                  21077867.244                          50.000          46.0004

 124245578.951 7  96814732.47744                  23643142.649    23643142.177
                  23643137.931                          42.000          28.0004

 111943619.607 7  87228800.39947                  21302155.554    21302155.839
                  21302152.820                          47.000          43.0004

 120485915.099 8  93885126.05346                  22927700.782    22927700.868
                  22927698.072                          48.000          39.0004

 131028129.518 6 102099841.39544                  24933822.057    24933821.552
                  24933820.249                          39.000          26.0004

 127538989.820 6  99381022.37944                  24269864.476    24269863.211
                  24269859.702                          40.000          26.0004

 109216100.233 8  85103460.03147                  20783125.987    20783124.973
                  20783119.834                          52.000          46.0004

 127195073.443 6  99113051.08344                  24204416.854    24204415.662
                  24204414.347                          39.000          28.0004

 19  9 29 20  9  0.0000000  0  9G15G21G13G24G10G32G04G20G27
 110284482.204 8  85935959.51947                  20986432.432    20986432.168
                  20986426.885                          53.000          46.0004

 110767203.053 8  86312104.49447                  21078294.288    21078293.241
                  21078287.685                          52.000          46.0004

 124345439.529 7  96892545.88044                  23662145.671    23662145.476
                  23662139.154                          43.000          28.0004

 111880773.951 8  87179829.78047                  21290196.654    21290196.864
                  21290193.712                          51.000          44.0004

 120407386.584 8  93823935.03646                  22912757.222    22912757.298
                  22912754.488                          48.000          39.0004

 130931298.496 6 102024388.75144                  24915395.342    24915395.187
                  24915394.525                          40.000          26.0004

 127573246.058 6  99407715.53944                  24276382.985    24276382.219
                  24276378.330                          40.000          26.0004

 109163026.435 8  85062103.82547                  20773026.269    20773025.351
                  20773020.128                          51.000          45.0004

 127192506.118 6  99111050.57544                  24203928.308    24203927.547
                  24203925.831                          41.000          28.0004

 19  9 29 20  9 30.0000000  0  9G15G21G13G24G10G32G04G20G27
 110348625.049 9  85985940.95447                  20998638.430    20998638.261
                  20998632.820                          54.000          46.0004

 110769893.844 8  86314201.21147                  21078806.486    21078805.468
                  21078799.714                          51.000          46.0004

 124445393.604 7  96970432.13744                  23681166.204    23681165.660
                  23681161.085                          42.000          28.0004

 111818439.497 8  87131257.49747                  21278334.692    21278334.918
                  21278331.956                          50.000          44.0004

 120328935.913 8  93762804.65046                  22897828.420    22897828.556
                  22897825.661                          48.000          39.0004

 130834583.992 6 101949026.89144                  24896991.086    24896990.377
                  24896990.150                          41.000          26.0004

 127607975.441 6  99434777.39144                  24282991.166    24282990.521
                  24282987.586                          40.000          26.0004

 109110205.719 8  85020944.83547                  20762974.905    20762973.782
                  20762968.599                          52.000          45.0004

 127190496.388 6  99109484.55644                  24203545.674    24203545.298
                  24203542.951                          41.000          28.0004

 19  9 29 20 10  0.0000000  0  9G15G21G13G24G10G32G04G20G27
 110413074.071 9  86036160.96847                  21010902.733    21010902.500
                  21010896.885                          54.000          46.0004

 110773066.067 8  86316673.07147                  21079410.014    21079409.090
                  21079403.401                          50.000          46.0004

 124545438.560 6  97048389.23644                  23700204.234    23700203.452
                  23700199.021                          41.000          28.0004

 111756618.125 8  87083085.02047                  21266570.417    21266570.575
                  21266567.744                          50.000          44.0004

 120250563.032 8  93701734.89446                  22882914.515    22882914.553
                  22882911.601                          48.000          38.0004

 130737986.136 6 101873755.91744                  24878608.706    24878608.396
                  24878607.754                          40.000          26.0004

 127643175.480 6  99462205.96144                  24289690.118    24289689.438
                  24289686.250                          40.000          27.0004

 109057638.455 8  84979983.33547                  20752971.629    20752970.573
                  20752965.338                          50.000          45.0004

 127189042.912 6  99108351.97944                  24203269.642    24203268.795
                  24203266.442                          39.000          28.0004

 19  9 29 20 10 30.0000000  0  9G15G21G13G24G10G32G04G20G27
 110477827.875 8  86086618.47547                  21023224.908    21023224.851
                  21023219.130                          53.000          46.0004

 110776721.063 8  86319521.11447                  21080105.656    21080104.455
                  21080098.937                          50.000          46.0004

 124645573.226 7  97126416.23044                  23719258.911    23719258.749
                  23719254.249                          43.000          28.0004

 111695312.348 8  87035314.30447                  21254904.520    21254904.350
                  21254901.690                          51.000          44.0004

 120172269.752 7  93640727.16146                  22868015.881    22868015.823
                  22868012.903                          47.000          38.0004

 130641506.824 6 101798577.30644                  24860249.560    24860249.331
                  24860248.343                          41.000          27.0004

 127678844.747 6  99490000.17244                  24296477.475    24296476.467
                  24296473.917                          39.000          27.0004

 109005326.618 8  84939220.87347                  20743017.048    20743015.969
                  20743010.708                          51.000          45.0004

 127188146.059 6  99107653.14744                  24203098.150    24203098.235
                  24203095.178                          41.000          28.0004

 19  9 29 20 11  0.0000000  0  9G15G21G13G24G10G32G04G20G27
 110542883.193 9  86137310.92647                  21035604.640    21035604.344
                  21035598.765                          54.000          46.0004

 110780858.348 8  86322744.96647                  21080893.053    21080891.868
                  21080886.092                          51.000          46.0004

 124745794.299 7  97204510.54644                  23738330.296    23738330.176
                  23738325.647                          42.000          28.0004

 111634524.372 8  86987947.07747                  21243336.935    21243336.585
                  21243334.156                          48.000          44.0004

 120094055.813 8  93579781.25446                  22853132.287    22853132.055
                  22853129.473                          48.000          38.0004

 130545146.000 7 101723491.05944                  24841912.792    24841912.996
                  24841911.858                          42.000          29.0004

 127714980.078 6  99518157.54544                  24303354.112    24303353.205
                  24303349.643                          41.000          27.0004

 108953270.827 8  84898657.93647                  20733111.136    20733110.019
                  20733104.860                          50.000          45.0004

 127187804.408 6  99107386.93444                  24203033.863    24203032.623
                  24203030.790                          39.000          28.0004

 19  9 29 20 11 30.0000000  0  9G15G21G13G24G10G32G04G20G27
 110608239.715 9  86188238.08447                  21048041.394    21048041.367
                  21048035.755                          54.000          46.0004

 110785479.447 8  86326345.82247                  21081772.556    21081771.378
                  21081765.423                          50.000          46.0004

 124846101.669 7  97282672.09644                  23757417.955    23757418.211
                  23757411.824                          42.000          27.0004

 111574257.059 8  86940985.56347                  21231868.651    21231868.111
                  21231865.539                          49.000          44.0004

 120015923.505 8  93518898.95946                  22838264.331    22838263.905
                  22838261.089                          48.000          39.0004

 130448906.092 7 101648499.01744                  24823598.958    24823599.117
                  24823597.268                          42.000          28.0004

 127751581.091 6  99546677.80244                  24310318.760    24310318.706
                  24310314.478                          41.000          27.0004

 108901473.897 8  84858296.70147                  20723254.552    20723253.462
                  20723248.213                          52.000          45.0004

 127188018.803 6  99107553.99544                  24203073.908    24203073.578
                  24203071.859                          38.000          28.0004

 19  9 29 20 12  0.0000000  0  9G15G21G13G24G10G32G04G20G27
 110673897.152 8  86239399.71747                  21060535.437    21060535.701
                  21060529.908                          53.000          45.0004

 110790587.009 8  86330325.74147                  21082744.174    21082743.310
                  21082737.356                          50.000          46.0004

 124946495.174 6  97360900.77544                  23776522.379    23776522.003
                  23776518.454                          41.000          27.0004

 111514515.411 8  86894433.65047                  21220499.774    21220499.756
                  21220496.942                          49.000          45.0004

 119937875.697 7  93458082.50546                  22823412.350    22823411.977
                  22823409.183                          47.000          39.0004

 130352790.155 6 101573603.57644                  24805308.248    24805308.338
                  24805306.951                          40.000          27.0004

 127788647.913 6  99575561.01944                  24317372.335    24317371.778
                  24317368.775                          41.000          28.0004

 108849939.217 8  84818139.81947                  20713447.894    20713446.728
                  20713441.328                          51.000          45.0004

 127188790.653 6  99108155.45144                  24203221.062    24203220.750
                  24203218.624                          41.000          28.0004

 19  9 29 20 12 30.0000000  0  9G15G21G13G24G10G32G04G20G27
 110739850.172 9  86290791.67047                  21073086.093    21073086.001
                  21073080.496                          54.000          46.0004

 110796177.523 8  86334681.98447                  21083807.809    21083807.077
                  21083801.357                          51.000          46.0004

 125046969.210 7  97439192.22844                  23795641.832    23795642.550
                  23795636.784                          43.000          27.0004

 111455297.485 8  86848289.83347                  21209231.108    21209231.098
                  21209228.068                          48.000          44.0004

 119859909.676 8  93397329.78646                  22808575.746    22808575.451
                  22808572.636                          48.000          39.0004

 130256795.525 6 101498802.64044                  24787040.228    24787040.636
                  24787039.267                          41.000          25.0004

 127826175.034 6  99604802.89644                  24324513.765    24324512.569
                  24324509.663                          38.000          27.0004

 108798664.582 8  84778185.56447                  20703690.676    20703689.421
                  20703684.092                          50.000          45.0004

 127190115.852 6  99109188.09344                  24203473.021    24203473.093
                  24203470.806                          39.000          28.0004

 19  9 29 20 13  0.0000000  0  9G15G21G13G24G10G32G04G20G27
 110806100.356 9  86342415.18147                  21085692.943    21085692.908
                  21085687.615                          54.000          46.0004

 110802255.007 8  86339417.68347                  21084964.427    21084963.415
                  21084957.943                          51.000          45.0004

 125147525.404 7  97517547.66044                  23814777.735    23814777.432
                  23814773.079                          43.000          28.0004

 111396609.461 8  86802558.91947                  21198063.063    21198063.390
                  21198060.124                          51.000          45.0004

 119782029.635 8  93336644.06346                  22793755.335    22793755.212
                  22793752.596                          48.000          39.0004

 130160926.577 6 101424099.63144                  24768797.808    24768797.250
                  24768796.005                          40.000          26.0004

 127864162.966 6  99634403.86344                  24331742.815    24331741.695
                  24331738.784                          40.000          27.0004

 108747654.384 8  84738437.36947                  20693983.860    20693982.536
                  20693977.280                          51.000          45.0004

 127191997.200 6  99110654.07944                  24203831.663    24203830.072
                  24203829.033                          38.000          28.0004

 19  9 29 20 13 30.0000000  0  9G15G21G13G24G10G32G04G20G27
 110872641.855 8  86394265.69147                  21098355.603    21098355.370
                  21098349.994                          53.000          45.0004

 110808816.280 8  86344530.35647                  21086212.985    21086212.069
                  21086206.482                          50.000          46.0004

 125248158.521 6  97595963.04544                  23833927.549    23833926.517
                  23833921.151                          41.000          26.0004

 111338450.008 8  86757239.88247                  21186995.677    21186995.994
                  21186992.809                          50.000          45.0004

 119704233.172 7  93276023.46546                  22778951.406    22778951.178
                  22778948.333                          47.000          39.0004

 130065180.882 6 101349492.69644                  24750577.730    24750577.749
                  24750576.394                          41.000          26.0004

 127902607.015 6  99664360.24544                  24339058.621    24339057.431
                  24339054.417                          41.000          27.0004

 108696906.921 8  84698893.89947                  20684326.600    20684325.605
                  20684320.328                          49.000          45.0004

 127194430.708 6  99112550.29644                  24204293.761    24204293.466
                  24204292.074                          39.000          28.0004

 19  9 29 20 14  0.0000000  0  9G15G21G13G24G10G32G04G20G27
 110939471.849 8  86446341.00547                  21111073.119    21111072.535
                  21111067.232                          53.000          45.0004

 110815861.102 8  86350019.83347                  21087553.597    21087552.762
                  21087547.174                          52.000          46.0004

 125348865.805 6  97674436.24244                  23853091.008    23853091.001
                  23853086.796                          41.000          28.0004

 111280820.489 8  86712333.78147                  21176029.187    21176029.478
                  21176026.176                          50.000          44.0004

 119626520.295 8  93215467.99546                  22764163.079    22764162.928
                  22764160.131                          48.000          40.0004

 129969558.608 6 101274981.93344                  24732381.750    24732381.851
                  24732379.698                          40.000          27.0004

 127941503.897 7  99694669.48644                  24346460.076    24346459.454
                  24346455.761                          42.000          27.0004

 108646422.753 8  84659555.59847                  20674719.611    20674718.784
                  20674713.492                          51.000          45.0004

 127197414.942 6  99114875.67244                  24204862.730    24204861.952
                  24204859.740                          40.000          28.0004

 19  9 29 20 14 30.0000000  0  9G15G21G13G24G10G32G04G20G27
 111006588.414 8  86498639.62447                  21123844.750    21123844.371
                  21123839.102                          52.000          45.0004

 110823389.057 8  86355885.76647                  21088986.254    21088985.026
                  21088979.729                          49.000          46.0004

 125449644.741 7  97752965.25244                  23872268.778    23872269.021
                  23872264.083                          44.000          27.0004

 111223722.320 8  86667841.72047                  21165163.681    21165163.617
                  21165160.708                          49.000          44.0004

 119548891.513 8  93154978.05846                  22749390.809    22749390.979
                  22749387.905                          48.000          40.0004

 129874060.328 6 101200567.77044                  24714208.947    24714208.895
                  24714206.913                          39.000          27.0004

 127980851.129 6  99725329.66244                  24353947.410    24353946.717
                  24353943.105                          40.000          26.0004

 108596203.093 8  84620423.40047                  20665163.325    20665162.253
                  20665156.843                          49.000          45.0004

 127200948.720 6  99117629.28244                  24205534.538    24205534.792
                  24205532.158                          41.000          28.0004

 19  9 29 20 15  0.0000000  0  9G15G21G13G24G10G32G04G20G27
 111073992.270 9  86551162.10347                  21136671.211    21136670.880
                  21136665.426                          54.000          45.0004

 110831403.669 8  86362130.91647                  21090511.361    21090510.322
                  21090504.794                          52.000          46.0004

 125550496.622 7  97831551.10144                  23891460.578    23891459.949
                  23891454.331                          43.000          26.0004

 111167160.967 8  86623767.96147                  21154400.188    21154400.165
                  21154397.549                          50.000          44.0004

 119471350.818 8  93094556.75346                  22734635.242    22734635.427
                  22734632.515                          50.000          40.0004

 129778690.114 6 101126253.40244                  24696060.568    24696060.361
                  24696058.537                          40.000          27.0004

 128020649.367 6  99756341.26244                  24361521.479    24361520.293
                  24361516.806                          41.000          27.0004

 108546251.889 8  84581500.39147                  20655658.018    20655656.780
                  20655651.457                          52.000          45.0004

 127205034.522 6  99120813.02744                  24206311.832    24206311.522
                  24206309.297                          38.000          27.0004

 19  9 29 20 15 30.0000000  0  9G15G21G13G24G10G32G04G20G27
 111141683.210 8  86603908.27647                  21149552.330    21149552.164
                  21149546.489                          53.000          46.0004

 110839906.660 8  86368756.61947                  21092129.422    21092128.471
                  21092122.734                          50.000          46.0004

 125651421.483 6  97910193.83444                  23910665.547    23910665.272
                  23910661.618                          41.000          27.0004

 111111140.791 8  86580115.90447                  21143739.920    21143739.517
                  21143737.103                          49.000          44.0004

 119393900.775 8  93034206.08946                  22719897.131    22719896.968
                  22719894.128                          48.000          41.0004

 129683450.540 6 101052040.81044                  24677936.553    24677937.119
                  24677935.229                          40.000          27.0004

 128060898.430 7  99787704.15544                  24369180.181    24369179.606
                  24369176.172                          42.000          27.0004

 108496572.455 8  84542789.15247                  20646204.055    20646203.044
                  20646197.797                          51.000          45.0004

 127209673.356 6  99124427.69044                  24207194.606    24207194.139
                  24207192.294                          40.000          28.0004

 19  9 29 20 16  0.0000000  0  9G15G21G13G24G10G32G04G20G27
 111209657.944 9  86656875.59147                  21162487.477    21162487.436
                  21162481.722                          54.000          46.0004

 110848896.977 8  86375762.05547                  21093840.087    21093839.149
                  21093833.704                          50.000          46.0004

 125752415.814 7  97988890.72244                  23929884.235    23929885.750
                  23929878.635                          43.000          26.0004

 111055661.899 8  86536885.62747                  21133182.762    21133182.394
                  21133179.853                          50.000          44.0004

 119316540.936 8  92973925.71846                  22705176.044    22705175.787
                  22705173.227                          48.000          40.0004

 129588341.219 7 100977929.73344                  24659838.229    24659838.161
                  24659836.206                          42.000          27.0004

 128101594.900 6  99819415.68044                  24376924.518    24376923.587
                  24376920.846                          40.000          27.0004

 108447164.774 8  84504289.67047                  20636802.198    20636801.071
                  20636795.913                          50.000          45.0004

 127214863.021 6  99128471.57344                  24208182.809    24208182.042
                  24208179.750                          38.000          28.0004

 19  9 29 20 16 30.0000000  0  9G15G21G13G24G10G32G04G20G27
 111277911.673 8  86710060.30547                  21175475.716    21175475.654
                  21175470.173                          53.000          45.0004

 110858372.102 8  86383145.26747                  21095643.400    21095642.190
                  21095636.678                          49.000          46.0004

 125853474.868 7  98067637.98144                  23949115.167    23949115.669
                  23949111.579                          43.000          26.0004

 111000723.861 8  86494076.79147                  21122728.298    21122728.240
                  21122725.560                          49.000          44.0004

 119239269.243 7  92913714.03946                  22690471.543    22690471.281
                  22690468.859                          47.000          40.0004

 129493360.087 6 100903918.54344                  24641764.105    24641763.745
                  24641761.336                          41.000          28.0004

 128142733.380 6  99851471.62944                  24384753.125    24384752.152
                  24384748.409                          41.000          26.0004

 108398027.128 8  84466000.60847                  20627451.440    20627450.741
                  20627445.407                          50.000          46.0004

 127220599.850 7  99132941.84244                  24209274.386    24209274.242
                  24209271.275                          42.000          28.0004

 19  9 29 20 17  0.0000000  0  9G15G21G13G24G10G32G04G20G27
 111346448.731 8  86763465.79447                  21188517.948    21188517.868
                  21188512.432                          53.000          46.0004

 110868338.645 8  86390911.40347                  21097539.969    21097538.748
                  21097533.155                          49.000          45.0004

 125954603.383 6  98146439.42344                  23968358.788    23968359.209
                  23968353.816                          40.000          25.0004

 110946335.197 8  86451696.04247                  21112378.478    21112378.454
                  21112375.669                          50.000          44.0004

 119162093.315 7  92853576.98146                  22675785.653    22675784.909
                  22675782.728                          47.000          40.0004

 129398514.803 7 100830013.22544                  24623715.114    24623715.288
                  24623713.003                          43.000          28.0004

 128184318.379 6  99883875.52244                  24392666.379    24392665.533
                  24392662.011                          41.000          27.0004

 108349167.936 8  84427928.51547                  20618153.893    20618152.988
                  20618147.816                          51.000          46.0004

 127226889.719 6  99137843.05444                  24210471.073    24210470.655
                  24210468.383                          41.000          28.0004

 19  9 29 20 17 30.0000000  0  9G15G21G13G24G10G32G04G20G27
 111415264.929 8  86817088.79147                  21201613.311    21201613.107
                  21201607.655                          53.000          46.0004

 110878794.517 8  86399058.83347                  21099529.785    21099528.409
                  21099522.651                          50.000          46.0004

 126055797.320 7  98225291.81144                  23987616.061    23987617.183
                  23987612.380                          43.000          28.0004

 110892495.645 8  86409743.16347                  21102133.313    21102133.271
                  21102130.219                          50.000          45.0004

 119085011.593 7  92793513.34046                  22661116.967    22661116.490
                  22661114.528                          47.000          40.0004

 129303803.801 6 100756212.53944                  24605692.368    24605692.278
                  24605690.505                          41.000          28.0004

 128226345.501 6  99916623.92144                  24400663.845    24400662.889
                  24400659.714                          41.000          27.0004

 108300585.838 8  84390072.35147                  20608909.020    20608907.910
                  20608902.853                          50.000          45.0004

 127233729.379 6  99143172.67544                  24211773.255    24211772.022
                  24211770.321                          41.000          29.0004

 19  9 29 20 18  0.0000000  0  9G15G21G13G24G10G32G04G20G27
 111484355.428 8  86870925.53647                  21214760.844    21214760.525
                  21214754.978                          53.000          45.0004

 110889737.230 8  86407585.62047                  21101611.867    21101611.047
                  21101605.119                          49.000          46.0004

 126157052.006 7  98304191.51544                  24006884.851    24006884.897
                  24006878.998                          45.000          25.0004

 110839204.483 8  86368217.60147                  21091992.230    21091992.232
                  21091989.392                          50.000          44.0004

 119008022.449 8  92733521.82946                  22646466.320    22646466.356
                  22646463.856                          48.000          40.0004

 129209225.423 6 100682515.20144                  24587694.549    24587694.126
                  24587692.792                          41.000          28.0004

 128268809.128 6  99949712.46844                  24408744.582    24408743.835
                  24408740.458                          41.000          27.0004

 108252279.714 8  84352431.22647                  20599716.557    20599715.597
                  20599710.469                          50.000          45.0004

 127241115.346 6  99148927.96444                  24213177.879    24213177.400
                  24213176.057                          38.000          29.0004

 19  9 29 20 18 30.0000000  0  9G15G21G13G24G10G32G04G20G27
 111553720.165 8  86924975.97647                  21227960.312    21227960.226
                  21227954.759                          53.000          46.0004

 110901168.893 8  86416493.40347                  21103787.059    21103786.269
                  21103780.500                          48.000          46.0004

 126258367.546 6  98383138.70044                  24026163.574    24026162.940
                  24026159.866                          39.000          27.0004

 110786466.214 8  86327122.86347                  21081956.498    21081956.650
                  21081953.547                          50.000          44.0004

 118931128.751 8  92673604.69346                  22631834.073    22631834.135
                  22631831.392                          48.000          40.0004

 129114782.495 7 100608923.37144                  24569722.627    24569721.954
                  24569720.793                          42.000          27.0004

 128311709.720 6  99983141.47944                  24416908.354    24416907.551
                  24416904.051                          41.000          27.0004

 108204252.970 8  84315007.79647                  20590577.513    20590576.427
                  20590571.363                          51.000          45.0004

 127249048.716 6  99155109.82144                  24214687.540    24214687.976
                  24214685.468                          41.000          29.0004

 19  9 29 20 19  0.0000000  0  9G15G21G13G24G10G32G04G20G27
 111623357.652 8  86979238.94847                  21241212.240    21241211.689
                  21241206.274                          53.000          45.0004

 110913089.835 8  86425782.44447                  21106055.558    21106054.634
                  21106049.142                          49.000          46.0004

 126359742.546 7  98462132.17744                  24045455.776    24045456.597
                  24045450.128                          43.000          27.0004

 110734282.054 8  86286459.89947                  21072026.154    21072026.189
                  21072023.208                          49.000          45.0004

 118854331.620 7  92613762.79246                  22617219.986    22617219.981
                  22617217.378                          47.000          40.0004

 129020476.188 6 100535438.02244                  24551776.368    24551776.551
                  24551774.826                          41.000          27.0004

 128355044.884 7 100016909.11944                  24425154.549    24425154.244
                  24425150.347                          43.000          27.0004

 108156507.016 8  84277803.16847                  20581491.803    20581490.707
                  20581485.628                          49.000          45.0004

 127257528.774 6  99161717.66844                  24216301.608    24216301.492
                  24216298.814                          40.000          28.0004

 19  9 29 20 19 30.0000000  0  9G15G21G13G24G10G32G04G20G27
 111693264.793 8  87033712.03447                  21254514.970    21254514.446
                  21254509.230                          53.000          45.0004

 110925499.016 8  86435451.93447                  21108417.139    21108416.090
                  21108410.588                          51.000          46.0004

 126461174.234 6  98541169.79444                  24064756.672    24064755.978
                  24064753.177                          41.000          24.0004

 110682653.870 8  86246230.17147                  21062201.641    21062201.568
                  21062198.756                          50.000          45.0004

 118777631.085 8  92553996.16446                  22602624.747    22602624.408
                  22602621.786                          48.000          41.0004

 128926306.342 7 100462059.00444                  24533856.707    24533856.412
                  24533854.854                          42.000          27.0004

 128398811.559 6 100051012.99644                  24433483.033    24433482.440
                  24433478.508                          41.000          26.0004

 108109042.345 8  84240817.71747                  20572459.427    20572458.490
                  20572453.447                          50.000          45.0004

 127266553.677 6  99168750.07744                  24218018.826    24218019.069
                  24218015.951                          39.000          29.0004

 19  9 29 20 20  0.0000000  0  9G15G21G13G24G10G32G04G20G27
 111763442.161 8  87088395.68947                  21267869.161    21267868.977
                  21267863.585                          53.000          45.0004

 110938399.325 8  86445504.11147                  21110871.797    21110870.975
                  21110865.457                          52.000          46.0004

 126562662.995 6  98620251.99344                  24084068.973    24084069.804
                  24084063.695                          39.000          26.0004

 110631585.783 8  86206436.88547                  21052483.648    21052483.557
                  21052480.930                          50.000          44.0004

 118701030.633 8  92494307.52546                  22588047.924    22588047.837
                  22588045.053                          48.000          41.0004

 128832276.553 7 100388789.11944                  24515963.446    24515963.349
                  24515961.121                          43.000          28.0004

 128443009.689 6 100085453.07944                  24441893.445    24441892.828
                  24441889.125                          40.000          25.0004

 108061863.078 8  84204054.66247                  20563481.863    20563480.431
                  20563475.330                          51.000          45.0004

 127276125.034 6  99176208.29344                  24219840.881    24219839.450
                  24219837.980                          40.000          29.0004

 19  9 29 20 20 30.0000000  0  9G15G21G13G24G10G32G04G20G27
 111833884.603 8  87143285.89747                  21281273.923    21281273.981
                  21281268.407                          53.000          45.0004

 110951786.830 8  86455935.92447                  21113419.549    21113418.673
                  21113413.003                          50.000          46.0004

 126664203.558 7  98699374.44744                  24103392.499    24103392.922
                  24103388.080                          43.000          26.0004

 110581076.201 8  86167078.79547                  21042872.193    21042871.840
                  21042869.166                          50.000          45.0004

 118624527.419 8  92434694.65146                  22573489.788    22573489.643
                  22573487.075                          48.000          40.0004

 128738383.742 7 100315625.96544                  24498096.194    24498095.807
                  24498093.647                          43.000          27.0004

 128487633.456 6 100120224.83044                  24450385.245    24450384.537
                  24450380.668                          40.000          25.0004

 108014966.607 8  84167511.96847                  20554557.668    20554556.472
                  20554551.226                          50.000          45.0004

 127286238.013 6  99184088.53844                  24221764.067    24221763.857
                  24221762.473                          40.000          29.0004

 19  9 29 20 21  0.0000000  0  9G15G21G13G24G10G32G04G20G27
 111904588.921 9  87198380.16347                  21294728.664    21294728.531
                  21294723.031                          54.000          45.0004

 110965660.989 8  86466746.94847                  21116059.789    21116058.811
                  21116053.192                          51.000          46.0004

 126765793.474 6  98778535.39244                  24122723.973    24122723.056
                  24122717.514                          41.000          25.0004

 110531126.283 8  86128156.80147                  21033366.784    21033366.903
                  21033364.086                          50.000          45.0004

 118548121.869 8  92375157.88747                  22558950.120    22558950.201
                  22558947.644                          49.000          42.0004

 128644628.378 7 100242569.90344                  24480254.889    24480254.600
                  24480252.608                          43.000          28.0004

 128532679.615 6 100155325.72844                  24458956.978    24458956.582
                  24458953.195                          41.000          25.0004

 107968353.751 8  84131190.26847                  20545687.624    20545686.415
                  20545681.123                          51.000          45.0004

 127296891.110 6  99192389.64544                  24223791.393    24223791.057
                  24223789.388                          41.000          28.0004

 19  9 29 20 21 30.0000000  0  9G15G21G13G24G10G32G04G20G27
 111975556.638 9  87253679.67747                  21308233.404    21308233.061
                  21308227.696                          54.000          45.0004

 110980025.378 8  86477939.97847                  21118793.089    21118792.074
                  21118786.661                          51.000          45.0004

 126867434.247 6  98857736.01244                  24142065.328    24142065.437
                  24142061.474                          40.000          27.0004

 110481741.407 8  86089675.10447                  21023969.150    21023969.206
                  21023966.336                          50.000          45.0004

 118471818.696 8  92315700.89346                  22544430.311    22544430.369
                  22544427.510                          49.000          41.0004

 128551014.909 6 100169624.41244                  24462440.797    24462440.170
                  24462438.680                          41.000          28.0004

 128578149.515 6 100190756.79744                  24467609.893    24467609.030
                  24467605.521                          40.000          24.0004

 107922029.758 8  84095093.65647                  20536872.422    20536871.161
                  20536866.073                          51.000          45.0004

 127308086.951 6  99201113.69544                  24225921.995    24225921.969
                  24225919.685                          40.000          28.0004

 19  9 29 20 22  0.0000000  0  9G15G21G13G24G10G32G04G20G27
 112046786.432 8  87309183.40947                  21321787.821    21321787.593
                  21321782.250                          53.000          45.0004

 110994880.518 8  86489515.40847                  21121619.922    21121618.978
                  21121613.420                          51.000          46.0004

 126969125.011 6  98936975.49544                  24161417.497    24161416.762
                  24161410.377                          41.000          24.0004

 110432923.946 8  86051635.54547                  21014679.695    21014679.596
                  21014676.498                          50.000          45.0004

 118395619.022 8  92256324.54446                  22529930.153    22529929.997
                  22529927.276                          49.000          41.0004

 128457544.505 7 100096790.40544                  24444654.143    24444653.658
                  24444651.688                          42.000          29.0004

 128624041.327 6 100226516.64844                  24476342.614    24476342.514
                  24476338.644                          39.000          24.0004

 107875996.208 8  84059223.36947                  20528112.323    20528111.232
                  20528106.035                          51.000          45.0004

 127319824.854 6  99210260.12544                  24228155.675    24228155.515
                  24228153.127                          40.000          28.0004

 19  9 29 20 22 30.0000000  0  9G15G21G13G24G10G32G04G20G27
 112118281.397 8  87364893.76347                  21335392.862    21335392.867
                  21335387.384                          53.000          45.0004

 111010231.623 8  86501477.31047                  21124541.300    21124540.237
                  21124534.514                          51.000          46.0004

 127070868.978 6  99016256.53844                  24180776.862    24180776.141
                  24180773.441                          37.000          24.0004

 110384680.382 8  86014043.17547                  21005499.154    21005499.000
                  21005496.047                          50.000          45.0004

 118319528.955 8  92197033.60446                  22515450.442    22515450.340
                  22515447.737                          48.000          40.0004

 128364223.167 7 100024072.52745                  24426895.243    24426895.610
                  24426893.185                          44.000          30.0004

 128670357.504 6 100262607.16144                  24485156.557    24485155.264
                  24485152.431                          38.000          24.0004

 107830259.153 8  84023584.11547                  20519408.954    20519407.859
                  20519402.650                          50.000          46.0004

 127332108.806 6  99219832.04244                  24230493.297    24230493.262
                  24230491.104                          41.000          29.0004

 19  9 29 20 23  0.0000000  0  9G15G21G13G24G10G32G04G20G27
 112190036.036 8  87420806.45747                  21349047.390    21349047.473
                  21349041.858                          53.000          45.0004

 111026075.112 8  86513822.87947                  21127556.173    21127555.224
                  21127549.526                          50.000          46.0004

 127172660.664 7  99095574.67144                  24200148.748    24200149.016
                  24200143.142                          43.000          27.0004

 110337009.480 8  85976897.04147                  20996427.607    20996427.498
                  20996424.614                          49.000          45.0004

 118243546.125 8  92137826.22646                  22500991.338    22500991.037
                  22500988.394                          49.000          40.0004

 128271048.272 7  99951468.78445                  24409165.029    24409164.548
                  24409162.588                          43.000          30.0004

 128717092.663 6 100299024.14943                  24494049.409    24494049.219
                  24494045.428                          38.000          23.0004

 107784817.241 8  83988174.84247                  20510761.680    20510760.593
                  20510755.409                          51.000          46.0004

 127344934.290 6  99229825.93345                  24232934.769    24232933.722
                  24232932.003                          40.000          30.0004

 19  9 29 20 23 30.0000000  0  9G15G21G13G24G10G32G04G20G27
 112262051.444 8  87476922.35247                  21362751.419    21362751.572
                  21362745.907                          53.000          45.0004

 111042413.698 8  86526554.24247                  21130665.165    21130664.360
                  21130658.799                          51.000          46.0004

 127274501.485 6  99174931.15043                  24219528.447    24219526.723
                  24219522.465                          40.000          22.0004

 110289915.654 8  85940200.57447                  20987466.093    20987465.926
                  20987462.717                          51.000          45.0004

 118167674.433 8  92078705.44946                  22486553.618    22486553.496
                  22486550.653                          48.000          40.0004

 128178023.650 7  99878982.14345                  24391462.711    24391462.802
                  24391460.864                          43.000          31.0004

 128764246.943 6 100335767.73043                  24503023.165    24503022.265
                  24503019.184                          38.000          23.0004

 107739674.461 8  83952998.65447                  20502171.305    20502170.297
                  20502164.954                          51.000          46.0004

 127358303.110 6  99240243.18845                  24235478.078    24235477.776
                  24235475.985                          39.000          30.0004

 19  9 29 20 24  0.0000000  0  9G15G21G13G24G10G32G04G20G27
 112334323.829 8  87533238.49347                  21376504.516    21376504.473
                  21376498.903                          52.000          45.0004

 111059245.474 8  86539669.90847                  21133868.210    21133867.344
                  21133861.697                          51.000          47.0004

 127376387.566 6  99254322.88544                  24238915.854    24238916.459
                  24238911.187                          39.000          26.0004

 110243398.790 8  85903953.68247                  20978614.241    20978614.085
                  20978610.847                          50.000          45.0004

 118091912.941 8  92019670.53446                  22472136.583    22472136.424
                  22472133.612                          48.000          40.0004

 128085148.134 7  99806611.67345                  24373789.060    24373788.664
                  24373786.968                          43.000          30.0004

 128811815.578 6 100372834.17743                  24512074.594    24512074.354
                  24512071.173                          36.000          23.0004

 107694830.376 8  83918055.21847                  20493637.759    20493636.782
                  20493631.340                          51.000          45.0004

 127372212.170 6  99251081.40844                  24238124.951    24238123.766
                  24238122.801                          40.000          29.0004

 19  9 29 20 24 30.0000000  0  9G15G21G13G24G10G32G04G20G27
 112406850.124 8  87589752.47947                  21390305.715    21390305.675
                  21390300.104                          53.000          45.0004

 111076569.224 8  86553168.92947                  21137164.791    21137163.909
                  21137158.354                          49.000          46.0004

 127478316.220 6  99333747.75443                  24258313.451    24258311.944
                  24258307.380                          41.000          23.0004

 110197460.317 8  85868157.48447                  20969872.334    20969872.335
                  20969869.090                          50.000          45.0004

 118016261.601 8  91960721.45246                  22457740.637    22457740.201
                  22457737.604                          49.000          40.0004

 127992421.594 7  99734357.28145                  24356143.821    24356142.999
                  24356141.841                          42.000          30.0004

 128859795.985 6 100410221.47543                  24521205.930    24521204.661
                  24521201.729                          39.000          23.0004

 107650285.519 8  83883344.94147                  20485161.135    20485160.050
                  20485154.804                          50.000          45.0004

 127386659.278 6  99262338.90144                  24240873.946    24240873.554
                  24240872.024                          40.000          28.0004

 19  9 29 20 25  0.0000000  0  9G15G21G13G24G10G32G04G20G27
 112479629.726 8  87646463.84647                  21404155.343    21404155.098
                  21404149.938                          53.000          45.0004

 111094386.367 8  86567052.41347                  21140555.211    21140554.414
                  21140548.853                          51.000          46.0004

 127580286.979 6  99413205.50044                  24277717.241    24277716.227
                  24277712.189                          39.000          24.0004

 110152102.865 8  85832814.03047                  20961240.859    20961241.178
                  20961237.810                          50.000          45.0004

 117940722.856 8  91901860.11346                  22443365.970    22443365.605
                  22443363.009                          48.000          40.0004

 127899846.271 7  99662220.71645                  24338526.962    24338526.951
                  24338525.251                          42.000          30.0004

 128908186.395 6 100447928.26743                  24530414.138    24530413.033
                  24530409.557                          38.000          23.0004

 107606042.287 8  83848869.70747                  20476741.783    20476740.644
                  20476735.553                          50.000          46.0004

 127401644.674 6  99274015.82444                  24243725.902    24243725.062
                  24243723.459                          40.000          29.0004

 19  9 29 20 25 30.0000000  0  9G15G21G13G24G10G32G04G20G27
 112552662.308 8  87703372.33647                  21418052.937    21418052.726
                  21418047.418                          52.000          45.0004

 111112698.062 8  86581321.26247                  21144039.953    21144038.825
                  21144033.359                          51.000          45.0004

 127682300.058 6  99492696.18944                  24297130.038    24297129.353
                  24297124.193                          40.000          24.0004

 110107329.457 8  85797925.67847                  20952721.016    20952720.879
                  20952717.851                          50.000          45.0004

 117865299.273 8  91843088.50846                  22429013.277    22429012.858
                  22429010.367                          48.000          41.0004

 127807424.493 7  99590203.80745                  24320940.055    24320939.817
                  24320937.825                          43.000          30.0004

 128956986.112 6 100485954.00743                  24539700.860    24539699.548
                  24539695.733                          38.000          23.0004

 107562103.864 8  83814631.98347                  20468380.689    20468379.556
                  20468374.341                          51.000          45.0004

 127417168.660 6  99286112.44344                  24246679.094    24246678.920
                  24246677.354                          40.000          29.0004

 19  9 29 20 26  0.0000000  0  9G15G21G13G24G10G32G04G20G27
 112625942.006 9  87760473.39647                  21431997.614    21431997.415
                  21431992.215                          54.000          45.0004

 111131500.615 8  86595972.59747                  21147617.942    21147616.677
                  21147611.333                          51.000          45.0004

 127784349.553 6  99572215.23843                  24316548.548    24316548.144
                  24316544.157                          39.000          23.0004

 110063137.646 8  85763490.52247                  20944311.638    20944311.510
                  20944308.527                          50.000          44.0004

 117789987.770 8  91784404.23946                  22414681.907    22414681.599
                  22414679.091                          49.000          41.0004

 127715152.925 7  99518303.95345                  24303381.089    24303381.262
                  24303379.179                          42.000          30.0004

 129006188.567 6 100524293.56943                  24549062.510    24549062.961
                  24549059.046                          38.000          22.0004

 107518467.481 8  83780629.61647                  20460077.108    20460075.863
                  20460070.505                          51.000          45.0004

 127433225.949 6  99298624.62044                  24249735.110    24249734.267
                  24249733.110                          38.000          28.0004

 19  9 29 20 26 30.0000000  0  9G15G21G13G24G10G32G04G20G27
 112699464.949 9  87817763.99047                  21445988.536    21445988.477
                  21445983.013                          54.000          45.0004

 111150792.169 8  86611004.97347                  21151289.162    21151287.891
                  21151282.336                          50.000          46.0004

 127886432.062 6  99651760.03043                  24335974.975    24335974.518
                  24335968.922                          41.000          23.0004

 110019528.138 8  85729509.10047                  20936012.748    20936012.807
                  20936009.826                          52.000          45.0004

 117714787.867 8  91725806.94346                  22400371.985    22400371.545
                  22400368.954                          50.000          41.0004

 127623030.984 7  99446520.68945                  24285850.703    24285850.794
                  24285848.709                          42.000          30.0004

 129055789.630 6 100562943.71543                  24558501.832    24558501.515
                  24558497.347                          38.000          20.0004

 107475133.100 8  83746862.57647                  20451830.668    20451829.600
                  20451824.263                          50.000          45.0004

 127449813.753 6  99311550.18244                  24252891.815    24252891.229
                  24252889.458                          39.000          28.0004

 19  9 29 20 27  0.0000000  0  9G15G21G13G24G10G32G04G20G27
 112773230.117 9  87875243.33947                  21460025.606    21460025.517
                  21460020.019                          54.000          45.0004

 111170572.434 8  86626418.16247                  21155053.047    21155051.937
                  21155046.494                          50.000          46.0004

 127988546.504 6  99731329.69843                  24355406.648    24355405.940
                  24355402.298                          40.000          23.0004

 109976502.799 8  85695982.87847                  20927825.304    20927825.394
                  20927822.382                          50.000          44.0004

 117639701.081 8  91667297.77947                  22386083.485    22386083.247
                  22386080.570                          48.000          42.0004

 127531059.847 6  99374854.93445                  24268349.371    24268349.276
                  24268347.196                          41.000          30.0004

 129105787.438 6 100601903.02543                  24568015.781    24568015.327
                  24568011.999                          37.000          21.0004

 107432102.442 8  83713332.19747                  20443642.095    20443641.112
                  20443635.842                          51.000          46.0004

 127466931.193 6  99324888.45244                  24256149.829    24256148.759
                  24256147.117                          39.000          28.0004

 19  9 29 20 27 30.0000000  0  9G15G21G13G24G10G32G04G20G27
 112847233.266 8  87932908.12147                  21474108.048    21474107.942
                  21474102.390                          53.000          44.0004

 111190839.584 8  86642210.73447                  21158909.755    21158908.628
                  21158903.398                          51.000          46.0004

 128090689.029 6  99810921.23944                  24374843.480    24374843.669
                  24374838.263                          41.000          24.0004

 109934061.142 8  85662911.47547                  20919748.768    20919748.970
                  20919746.025                          51.000          45.0004

 117564726.297 8  91608875.89347                  22371816.099    22371816.124
                  22371813.063                          49.000          42.0004

 127439238.294 6  99303305.72844                  24250875.709    24250875.555
                  24250873.656                          41.000          28.0004

 129156176.878 6 100641167.49543                  24577605.133    24577604.207
                  24577600.862                          39.000          21.0004

 107389374.791 8  83680037.93847                  20435511.346    20435510.419
                  20435505.081                          51.000          45.0004

 127484574.949 6  99338636.80844                  24259506.014    24259505.723
                  24259505.075                          39.000          28.0004

 19  9 29 20 28  0.0000000  0  9G15G21G13G24G10G32G04G20G27
 112921474.167 8  87990758.16447                  21488235.648    21488235.441
                  21488229.936                          53.000          44.0004

 111211595.058 8  86658383.82347                  21162859.253    21162858.278
                  21162852.947                          50.000          45.0004

 128192859.719 6  99890534.74543                  24394285.985    24394285.934
                  24394281.189                          41.000          23.0004

 109892206.111 8  85630297.18547                  20911783.952    20911784.103
                  20911781.089                          49.000          45.0004

 117489866.436 8  91550543.55847                  22357570.953    22357570.833
                  22357567.788                          49.000          42.0004

 127347568.885 7  99231875.07344                  24233431.744    24233431.410
                  24233429.779                          42.000          28.0004

 129206957.728 6 100680736.96743                  24587268.521    24587267.496
                  24587264.895                          37.000          23.0004

 107346953.352 8  83646982.28647                  20427438.809    20427437.769
                  20427432.460                          51.000          45.0004

 127502745.473 6  99352795.63944                  24262963.896    24262963.300
                  24262962.742                          39.000          28.0004

 19  9 29 20 28 30.0000000  0  9G15G21G13G24G10G32G04G20G27
 112995952.312 8  88048793.07447                  21502408.144    21502408.033
                  21502402.709                          53.000          44.0004

 111232839.180 8  86674937.67947                  21166902.061    21166900.917
                  21166895.584                          51.000          46.0004

 128295057.681 6  99970169.48544                  24413733.590    24413734.150
                  24413729.385                          40.000          25.0004

 109850940.332 8  85598142.04947                  20903931.321    20903931.381
                  20903928.447                          49.000          44.0004

 117415123.379 8  91492302.23747                  22343347.666    22343347.583
                  22343344.607                          50.000          42.0004

 127256053.275 7  99160564.26244                  24216017.200    24216016.726
                  24216015.052                          42.000          28.0004

 129258128.121 6 100720609.96343                  24597005.273    24597004.679
                  24597002.284                          38.000          23.0004

 107304840.644 8  83614167.19547                  20419425.101    20419423.971
                  20419418.670                          52.000          46.0004

 127521442.264 6  99367364.55544                  24266523.114    24266521.923
                  24266520.199                          40.000          29.0004

 19  9 29 20 29  0.0000000  0  9G15G21G13G24G10G32G04G20G27
 113070664.167 8  88107010.09247                  21516625.469    21516625.066
                  21516619.958                          53.000          44.0004

 111254571.155 8  86691871.67547                  21171037.490    21171036.329
                  21171030.957                          50.000          46.0004

 128397280.420 6 100049823.55743                  24433186.037    24433186.223
                  24433180.014                          41.000          22.0004

 109810264.070 8  85566446.27947                  20896191.052    20896190.793
                  20896188.088                          50.000          45.0004

 117340497.168 8  91434151.97447                  22329146.944    22329146.634
                  22329143.731                          49.000          42.0004

 127164691.108 6  99089373.01544                  24198631.183    24198631.169
                  24198629.499                          41.000          29.0004

 129309684.640 6 100760783.84243                  24606816.634    24606816.078
                  24606812.499                          38.000          23.0004

 107263036.673 8  83581592.68447                  20411470.011    20411468.963
                  20411463.710                          51.000          46.0004

 127540662.838 6  99382341.62445                  24270180.564    24270179.803
                  24270177.520                          41.000          30.0004

 19  9 29 20 29 30.0000000  0  9G15G21G13G24G10G32G04G20G27
 113145605.148 8  88165405.65947                  21530886.008    21530885.648
                  21530880.721                          52.000          44.0004

 111276787.856 8  86709183.38047                  21175265.068    21175264.222
                  21175258.605                          51.000          46.0004

 128499523.589 7 100129493.52944                  24452642.108    24452642.466
                  24452637.537                          42.000          24.0004

 109770176.451 8  85535209.18947                  20888562.457    20888562.526
                  20888559.688                          50.000          44.0004

 117265986.271 8  91376091.56647                  22314968.060    22314967.459
                  22314964.785                          49.000          42.0004

 127073480.653 7  99018299.98544                  24181274.584    24181274.474
                  24181272.326                          42.000          29.0004

 129361621.547 6 100801254.13743                  24616700.404    24616699.489
                  24616695.252                          41.000          22.0004

 107221540.362 8  83549257.90747                  20403573.487    20403572.623
                  20403567.258                          50.000          46.0004

 127560403.250 6  99397723.74745                  24273936.727    24273936.332
                  24273934.226                          40.000          30.0004

 19  9 29 20 30  0.0000000  0  9G15G21G13G24G10G32G04G20G27
 113220774.081 8  88223978.84647                  21545190.181    21545190.112
                  21545185.047                          53.000          44.0004

 111299489.616 8  86726873.05047                  21179585.222    21179584.099
                  21179578.754                          50.000          46.0004

 128601786.198 6 100209178.65443                  24472102.520    24472102.354
                  24472097.248                          41.000          23.0004

 109730679.833 8  85504432.61847                  20881046.837    20881046.583
                  20881043.634                          50.000          45.0004

 117191592.312 8  91318122.27547                  22300811.123    22300810.960
                  22300807.736                          49.000          42.0004

 126982423.239 7  98947346.21844                  24163946.923    24163946.586
                  24163944.745                          43.000          29.0004

 129413937.199 6 100842019.56043                  24626655.310    24626654.521
                  24626651.094                          40.000          23.0004

 107180353.716 8  83517164.42347                  20395735.897    20395734.899
                  20395729.715                          51.000          45.0004

 127580662.622 6  99413510.26344                  24277791.899    24277791.289
                  24277789.352                          41.000          29.0004

 19  9 29 20 30 30.0000000  0  9G15G21G13G24G10G32G04G20G27
 113296171.196 8  88282729.83947                  21559538.093    21559537.830
                  21559532.463                          53.000          44.0004

 111322677.741 8  86744941.70647                  21183997.523    21183996.555
                  21183991.382                          51.000          45.0004

 128704068.526 6 100288879.16043                  24491565.143    24491566.310
                  24491559.949                          40.000          23.0004

 109691777.173 8  85474118.86947                  20873643.579    20873643.624
                  20873640.722                          51.000          45.0004

 117117318.282 8  91260246.42947                  22286677.294    22286677.228
                  22286673.903                          51.000          43.0004

 126891521.531 7  98876513.79044                  24146648.763    24146648.833
                  24146646.793                          42.000          28.0004

 129466630.769 6 100883079.46844                  24636682.560    24636681.727
                  24636678.373                          40.000          24.0004

 107139480.089 8  83485314.85547                  20387957.967    20387956.924
                  20387951.619                          50.000          46.0004

 127601441.469 6  99429701.58144                  24281746.009    24281745.781
                  24281743.252                          41.000          29.0004

 19  9 29 20 31  0.0000000  0  9G15G21G13G24G10G32G04G20G27
 113371793.477 8  88341656.29147                  21573928.087    21573928.309
                  21573923.050                          52.000          44.0004

 111346351.105 8  86763388.47447                  21188502.704    21188501.468
                  21188496.291                          51.000          46.0004

 128806367.795 6 100368592.82744                  24511032.233    24511033.041
                  24511027.960                          40.000          24.0004

 109653468.560 8  85444268.02247                  20866353.877    20866353.796
                  20866350.832                          51.000          45.0004

 117043164.287 8  91202464.11447                  22272566.292    22272566.070
                  22272562.886                          50.000          42.0004

 126800775.321 7  98805802.52044                  24129380.099    24129380.196
                  24129378.225                          42.000          29.0004

 129519699.093 6 100924431.38244                  24646781.665    24646779.778
                  24646777.178                          38.000          24.0004

 107098919.742 8  83453709.39647                  20380239.391    20380238.603
                  20380233.207                          50.000          45.0004

 127622737.278 6  99446295.71444                  24285798.768    24285798.342
                  24285795.560                          41.000          29.0004

 19  9 29 20 31 30.0000000  0  9G15G21G13G24G10G32G04G20G27
 113447641.573 8  88400758.70047                  21588361.738    21588361.707
                  21588356.407                          53.000          44.0004

 111370511.562 8  86782214.79747                  21193100.329    21193099.302
                  21193093.706                          51.000          46.0004

 128908685.279 6 100448320.70543                  24530503.295    24530503.322
                  24530498.893                          40.000          23.0004

 109615758.512 8  85414883.58347                  20859177.656    20859177.774
                  20859174.687                          51.000          45.0004

 116969133.841 8  91144778.06747                  22258478.508    22258478.402
                  22258475.174                          50.000          42.0004

 126710187.746 7  98735214.85344                  24112141.948    24112142.166
                  24112139.928                          42.000          29.0004

 129573141.448 6 100966074.73444                  24656950.943    24656950.185
                  24656946.932                          40.000          24.0004

 107058676.498 8  83422351.02947                  20372581.701    20372580.398
                  20372575.170                          51.000          45.0004

 127644551.054 6  99463293.46444                  24289949.102    24289948.906
                  24289946.345                          40.000          29.0004

 19  9 29 20 32  0.0000000  0  9G15G21G13G24G10G32G04G20G27
 113523712.987 8  88460035.12147                  21602837.725    21602837.603
                  21602832.398                          52.000          44.0004

 111395158.313 8  86801420.05147                  21197790.444    21197789.409
                  21197783.719                          51.000          45.0004

 129011018.047 6 100528060.51643                  24549976.641    24549976.855
                  24549971.089                          40.000          23.0004

 109578647.450 8  85385965.88447                  20852115.742    20852115.921
                  20852112.824                          50.000          45.0004

 116895227.449 8  91087188.69147                  22244414.881    22244414.436
                  22244411.344                          48.000          42.0004

 126619758.975 7  98664750.93144                  24094934.149    24094934.428
                  24094931.508                          44.000          29.0004

 129626954.601 6 101008007.02344                  24667191.874    24667190.715
                  24667187.795                          41.000          27.0004

 107018751.243 8  83391240.44847                  20364983.829    20364982.928
                  20364977.676                          50.000          46.0004

 127666880.617 6  99480693.10744                  24294198.717    24294197.931
                  24294196.048                          40.000          29.0004

 19  9 29 20 32 30.0000000  0  9G15G21G13G24G10G32G04G20G27
 113600003.822 8  88519482.52247                  21617355.184    21617355.290
                  21617349.941                          53.000          44.0004

 111420288.987 8  86821002.38047                  21202572.298    21202571.435
                  21202565.943                          49.000          45.0004

 129113362.935 6 100607809.73743                  24569452.430    24569452.176
                  24569447.341                          41.000          22.0004

 109542134.708 8  85357514.41047                  20845167.926    20845167.805
                  20845164.601                          51.000          46.0004

 116821444.246 8  91029695.30547                  22230374.031    22230373.839
                  22230370.995                          50.000          42.0004

 126529487.708 7  98594409.73945                  24077755.810    24077755.986
                  24077753.619                          43.000          30.0004

 129681133.986 6 101050224.69844                  24677501.333    24677500.445
                  24677497.464                          41.000          27.0004

 106979143.374 8  83360377.17947                  20357446.931    20357445.831
                  20357440.610                          51.000          45.0004

 127689722.535 7  99498492.00645                  24298545.208    24298544.795
                  24298542.838                          42.000          30.0004

 19  9 29 20 33  0.0000000  0  9G15G21G13G24G10G32G04G20G27
 113676510.396 8  88579098.03147                  21631914.077    21631914.036
                  21631908.637                          52.000          44.0004

 111445901.454 8  86840960.13747                  21207446.490    21207445.236
                  21207439.935                          49.000          45.0004

 129215716.730 6 100687565.91543                  24588930.046    24588929.182
                  24588924.235                          40.000          22.0004

 109506219.754 8  85329528.74847                  20838333.285    20838333.258
                  20838330.257                          50.000          46.0004

 116747783.747 8  90972297.53747                  22216356.938    22216356.871
                  22216353.750                          49.000          42.0004

 126439373.168 7  98524190.67145                  24060607.383    24060607.981
                  24060605.468                          45.000          31.0004

 129735675.543 6 101092724.59544                  24687880.113    24687879.386
                  24687875.771                          41.000          25.0004

 106939852.704 8  83329761.07747                  20349970.014    20349969.060
                  20349963.811                          49.000          46.0004

 127713073.573 6  99516687.62545                  24302989.135    24302988.476
                  24302986.231                          41.000          30.0004

 19  9 29 20 33 30.0000000  0  9G15G21G13G24G10G32G04G20G27
 113753234.363 8  88638882.94047                  21646514.279    21646514.020
                  21646508.704                          52.000          44.0004

 111471998.527 8  86861295.51747                  21212412.347    21212411.299
                  21212406.064                          51.000          45.0004

 129318081.056 6 100767330.31643                  24608409.198    24608408.225
                  24608403.252                          40.000          21.0004

 109470907.664 8  85302012.84547                  20831613.880    20831613.714
                  20831610.543                          51.000          46.0004

 116674250.420 8  90914998.86347                  22202364.301    22202363.951
                  22202360.767                          51.000          42.0004

 126349419.350 7  98454096.85545                  24043489.938    24043489.693
                  24043487.723                          44.000          30.0004

 129790579.837 7 101135507.12844                  24698327.982    24698327.388
                  24698323.773                          42.000          26.0004

 106900883.694 8  83299395.61947                  20342554.527    20342553.382
                  20342548.202                          50.000          46.0004

 127736935.523 6  99535281.37245                  24307529.428    24307529.302
                  24307526.956                          41.000          30.0004

 19  9 29 20 34  0.0000000  0  9G15G21G13G24G10G32G04G20G27
 113830173.009 8  88698835.13147                  21661155.057    21661155.062
                  21661149.679                          52.000          44.0004

 111498578.778 8  86882007.39347                  21217470.324    21217469.529
                  21217464.277                          50.000          45.0004

 129420453.209 6 100847100.81643                  24627889.442    24627889.246
                  24627884.173                          39.000          22.0004

 109436198.589 8  85274966.82747                  20825008.660    20825008.619
                  20825005.748                          51.000          46.0004

 116600844.106 8  90857799.15047                  22188395.172    22188395.066
                  22188392.035                          49.000          42.0004

 126259625.744 7  98384127.85545                  24026403.152    24026403.063
                  24026400.479                          44.000          31.0004

 129845842.885 6 101178569.22044                  24708844.247    24708843.730
                  24708840.318                          41.000          26.0004

 106862236.861 8  83269281.20947                  20335200.205    20335198.962
                  20335193.951                          51.000          45.0004

 127761305.526 7  99554270.96545                  24312167.102    24312166.770
                  24312164.363                          42.000          30.0004

 19  9 29 20 34 30.0000000  0  9G15G21G13G24G10G32G04G20G27
 113907321.939 8  88758951.17347                  21675836.009    21675836.137
                  21675830.576                          52.000          44.0004

 111525639.427 8  86903093.60047                  21222620.110    21222619.169
                  21222613.810                          49.000          45.0004

 129522829.813 6 100926874.75543                  24647371.629    24647370.703
                  24647366.015                          41.000          21.0004

 109402091.169 8  85248389.63147                  20818518.417    20818518.376
                  20818515.339                          51.000          45.0004

 116527563.914 8  90800697.72147                  22174450.419    22174450.492
                  22174447.132                          49.000          42.0004

 126169991.056 7  98314282.69445                  24009345.820    24009345.887
                  24009343.707                          44.000          32.0004

 129901459.977 6 101221907.17744                  24719427.966    24719427.218
                  24719423.982                          41.000          27.0004

 106823911.414 8  83239417.23247                  20327907.121    20327905.900
                  20327900.836                          50.000          45.0004

 127786179.926 7  99573653.61245                  24316901.248    24316899.966
                  24316898.158                          43.000          31.0004

 19  9 29 20 35  0.0000000  0  9G15G21G13G24G10G32G04G20G27
 113984684.782 8  88819233.90147                  21690557.704    21690557.741
                  21690552.180                          53.000          43.0004

 111553185.162 8  86924557.79847                  21227861.713    21227860.898
                  21227855.492                          51.000          45.0004

 129625214.910 6 101006655.33443                  24666854.078    24666854.216
                  24666848.796                          40.000          21.0004

 109368592.840 8  85222287.05147                  20812143.849    20812144.001
                  20812140.536                          52.000          45.0004

 116454416.444 8  90743699.71347                  22160531.063    22160530.945
                  22160527.577                          49.000          42.0004

 126080521.443 7  98244566.17545                  23992319.964    23992320.403
                  23992318.159                          45.000          32.0004

 129957433.821 6 101265523.12344                  24730079.426    24730078.967
                  24730075.556                          41.000          26.0004

 106785913.927 8  83209808.80847                  20320676.538    20320675.395
                  20320670.179                          50.000          45.0004

 127811562.503 7  99593432.23445                  24321730.628    24321730.325
                  24321727.767                          42.000          31.0004

 19  9 29 20 35 30.0000000  0  9G15G21G13G24G10G32G04G20G27
 114062257.811 8  88879680.41747                  21705319.388    21705319.394
                  21705313.767                          52.000          43.0004

 111581214.040 8  86946398.47347                  21233195.562    21233194.561
                  21233189.114                          51.000          45.0004

 129727604.013 6 101086439.03043                  24686338.473    24686337.442
                  24686333.376                          38.000          21.0004

 109335701.761 8  85196657.65247                  20805884.853    20805884.957
                  20805881.549                          51.000          46.0004

 116381400.798 8  90686804.42047                  22146636.551    22146636.417
                  22146633.327                          49.000          43.0004

 125991215.493 7  98174977.17745                  23975325.742    23975326.132
                  23975323.200                          45.000          32.0004

 130013759.230 6 101309413.01544                  24740797.471    24740797.070
                  24740794.273                          39.000          26.0004

 106748244.169 8  83180455.75847                  20313508.315    20313507.115
                  20313501.921                          49.000          46.0004

 127837449.576 7  99613603.98545                  24326656.958    24326656.690
                  24326654.309                          42.000          31.0004

 19  9 29 20 36  0.0000000  0  9G15G21G13G24G10G32G04G20G27
 114140037.813 8  88940288.21147                  21720120.710    21720120.328
                  21720114.943                          53.000          44.0004

 111609724.029 8  86968614.04147                  21238620.856    21238619.850
                  21238614.399                          51.000          45.0004

 129829995.191 6 101166224.34043                  24705822.878    24705822.066
                  24705817.610                          40.000          21.0004

 109303418.320 8  85171501.73847                  20799741.555    20799741.653
                  20799738.236                          51.000          46.0004

 116308517.031 8  90630011.89947                  22132767.119    22132767.164
                  22132763.852                          50.000          43.0004

 125902072.856 7  98105515.44445                  23958362.977    23958362.569
                  23958359.924                          45.000          32.0004

 130070432.965 6 101353574.34344                  24751582.440    24751581.396
                  24751579.250                          38.000          25.0004

 106710902.120 8  83151358.06847                  20306402.277    20306401.352
                  20306395.994                          50.000          46.0004

 127863838.399 6  99634166.70145                  24331678.764    24331678.512
                  24331675.692                          41.000          31.0004

 19  9 29 20 36 30.0000000  0  9G15G21G13G24G10G32G04G20G27
 114218023.367 8  89001056.17347                  21734960.610    21734960.435
                  21734955.208                          52.000          43.0004

 111638714.595 8  86991204.08347                  21244137.893    21244136.423
                  21244131.169                          50.000          46.0004

 129932386.755 6 101246009.96643                  24725307.653    24725306.525
                  24725302.139                          39.000          21.0004

 109271744.092 8  85146820.53147                  20793713.944    20793713.941
                  20793710.834                          49.000          46.0004

 116235766.292 8  90573323.03147                  22118923.113    22118923.314
                  22118919.940                          50.000          43.0004

 125813094.211 7  98036181.50745                  23941430.063    23941430.418
                  23941428.251                          44.000          32.0004

 130127452.020 6 101398004.73944                  24762432.683    24762432.221
                  24762429.608                          40.000          25.0004

 106673889.366 8  83122516.97247                  20299358.678    20299357.912
                  20299352.658                          49.000          45.0004

 127890727.199 7  99655119.00845                  24336795.387    24336795.302
                  24336792.806                          43.000          31.0004

 19  9 29 20 37  0.0000000  0  9G15G21G13G24G10G32G04G20G27
 114296214.808 8  89061984.55547                  21749840.072    21749839.839
                  21749834.592                          52.000          44.0004

 111668187.676 8  87014170.10847                  21249745.893    21249745.112
                  21249739.783                          50.000          45.0004

 130034779.856 6 101325796.75343                  24744792.135    24744791.319
                  24744787.697                          39.000          21.0004

 109240682.154 8  85122616.43947                  20787803.160    20787802.837
                  20787799.893                          50.000          45.0004

 116163152.440 8  90516740.82747                  22105105.206    22105105.431
                  22105101.949                          51.000          44.0004

 125724282.913 7  97966977.93445                  23924529.791    23924530.254
                  23924527.424                          44.000          32.0004

 130184816.459 6 101442704.27644                  24773349.290    24773348.293
                  24773345.322                          39.000          24.0004

 106637209.710 8  83093935.43447                  20292378.884    20292377.766
                  20292372.597                          50.000          45.0004

 127918116.946 6  99676461.65545                  24342008.166    24342007.365
                  24342004.785                          41.000          31.0004

 19  9 29 20 37 30.0000000  0  9G15G21G13G24G10G32G04G20G27
 114374606.091 8  89123068.66447                  21764757.487    21764757.196
                  21764752.126                          52.000          43.0004

 111698138.076 8  87037508.07147                  21255445.450    21255444.514
                  21255439.195                          50.000          45.0004

 130137168.562 6 101405580.12743                  24764275.970    24764275.297
                  24764270.995                          38.000          22.0004

 109210229.610 8  85098887.20147                  20782008.114    20782007.949
                  20782005.148                          50.000          45.0004

 116090672.145 8  90460262.69247                  22091312.448    22091312.630
                  22091309.367                          51.000          43.0004

 125635635.183 7  97897901.83945                  23907660.871    23907660.396
                  23907658.686                          43.000          31.0004

 130242518.655 6 101487667.00143                  24784329.266    24784328.441
                  24784325.911                          39.000          23.0004

 106600859.936 8  83065610.94747                  20285461.808    20285460.723
                  20285455.524                          49.000          45.0004

 127946001.463 7  99698189.83045                  24347313.319    24347313.183
                  24347311.169                          44.000          31.0004

 19  9 29 20 38  0.0000000  0  9G15G21G13G24G10G32G04G20G27
 114453197.237 8  89184308.50947                  21779712.884    21779712.565
                  21779707.600                          52.000          43.0004

 111728567.340 8  87061219.17647                  21261235.878    21261234.794
                  21261229.426                          50.000          45.0004

 130239552.800 6 101485360.03443                  24783759.348    24783757.928
                  24783754.223                          37.000          20.0004

 109180388.613 8  85075634.49247                  20776329.584    20776329.234
                  20776326.616                          50.000          45.0004

 116018328.110 8  90403890.74047                  22077545.766    22077545.858
                  22077542.676                          50.000          43.0004

 125547153.214 7  97828954.89145                  23890823.172    23890823.150
                  23890821.004                          42.000          32.0004

 130300558.312 6 101532892.69043                  24795373.942    24795373.699
                  24795370.460                          38.000          22.0004

 106564843.256 8  83037546.01247                  20278608.008    20278606.999
                  20278601.752                          49.000          45.0004

 127974380.402 7  99720303.28845                  24352714.026    24352713.995
                  24352711.343                          43.000          31.0004

 19  9 29 20 38 30.0000000  0  9G15G21G13G24G10G32G04G20G27
 114531986.739 8  89245702.91247                  21794705.802    21794705.804
                  21794700.623                          52.000          43.0004

 111759475.135 8  87085303.16347                  21267117.356    21267116.445
                  21267111.091                          51.000          45.0004

 130341931.888 6 101565135.92943                  24803241.049    24803240.568
                  24803237.028                          37.000          22.0004

 109151161.508 8  85052860.14047                  20770767.701    20770767.736
                  20770764.851                          51.000          46.0004

 115946122.341 8  90347626.52247                  22063805.874    22063805.717
                  22063802.514                          50.000          43.0004

 125458838.457 7  97760138.24645                  23874017.172    23874017.144
                  23874015.403                          43.000          31.0004

 130358932.357 5 101578378.94543                  24806481.732    24806481.840
                  24806478.412                          35.000          21.0004

 106529161.947 8  83009742.40747                  20271818.194    20271817.101
                  20271811.789                          49.000          45.0004

 128003252.890 7  99742801.32345                  24358208.481    24358208.341
                  24358205.611                          42.000          31.0004

 19  9 29 20 39  0.0000000  0  9G15G21G13G24G10G32G04G20G27
 114610970.152 8  89307248.41147                  21809735.998    21809735.827
                  21809730.342                          52.000          43.0004

 111790858.368 8  87109757.62147                  21273089.678    21273088.670
                  21273083.231                          51.000          45.0004

 130444301.481 6 101644904.41243                  24822721.234    24822720.140
                  24822716.381                          37.000          20.0004

 109122546.159 8  85030562.47447                  20765322.649    20765322.579
                  20765319.558                          51.000          45.0004

 115874053.157 8  90291468.73847                  22050091.421    22050091.365
                  22050088.239                          51.000          43.0004

 125370688.735 7  97691450.20245                  23857243.067    23857243.018
                  23857241.095                          44.000          32.0004

 130417635.676 5 101624121.75543                  24817651.847    24817652.412
                  24817649.789                          35.000          19.0004

 106493814.483 8  82982198.93547                  20265091.672    20265090.692
                  20265085.424                          49.000          45.0004

 128032614.203 7  99765680.24845                  24363795.813    24363794.913
                  24363792.959                          43.000          31.0004

 19  9 29 20 39 30.0000000  0  9G15G21G13G24G10G32G04G20G27
 114690146.467 8  89368944.22947                  21824802.691    21824802.621
                  21824797.114                          52.000          43.0004

 111822716.821 8  87134582.37847                  21279152.068    21279151.183
                  21279145.666                          51.000          45.0004

 130546660.925 6 101724664.99643                  24842200.158    24842199.564
                  24842195.544                          38.000          21.0004

 109094543.943 8  85008742.58047                  20759993.994    20759993.855
                  20759990.951                          51.000          45.0004

 115802122.359 8  90235418.79147                  22036403.678    22036403.396
                  22036400.258                          51.000          44.0004

 125282705.272 7  97622891.70345                  23840500.420    23840500.098
                  23840498.344                          43.000          32.0004

 130476666.064 5 101670119.41242                  24828885.166    24828885.014
                  24828882.213                          31.000          15.0004

 106458802.807 8  82954917.12047                  20258429.159    20258428.124
                  20258422.987                          50.000          45.0004

 128062463.104 7  99788939.11745                  24369475.556    24369475.284
                  24369472.466                          43.000          31.0004

 19  9 29 20 40  0.0000000  0  9G15G21G13G24G10G32G04G20G27
 114769515.940 8  89430790.55847                  21839906.188    21839905.908
                  21839900.590                          52.000          43.0004

 111855051.274 8  87159778.04147                  21285305.436    21285304.116
                  21285298.718                          52.000          45.0004

 130649010.912 6 101804418.22243                  24861677.025    24861675.820
                  24861672.412                          39.000          20.0004

 109067158.547 8  84987403.31847                  20754782.515    20754782.539
                  20754779.648                          50.000          46.0004

 115730333.418 8  90179479.37547                  22022742.288    22022742.546
                  22022739.133                          50.000          44.0004

 125194891.069 7  97554465.11345                  23823789.777    23823789.866
                  23823787.743                          44.000          32.0004

 130536022.723 5 101716371.30942                  24840180.597    24840179.533
                  24840177.623                          30.000          13.0004

 106424130.504 8  82927899.74647                  20251831.335    20251830.276
                  20251825.019                          48.000          45.0004

 128092800.062 7  99812578.28345                  24375248.481    24375247.892
                  24375245.597                          44.000          31.0004

 19  9 29 20 40 30.0000000  0  9G15G21G13G24G10G32G04G20G27
 114849075.180 8  89492784.76147                  21855045.915    21855045.520
                  21855040.341                          52.000          43.0004

 111887860.299 8  87185343.50247                  21291548.458    21291547.469
                  21291542.099                          51.000          45.0004

 130751348.057 6 101884161.40843                  24881150.956    24881149.603
                  24881146.549                          38.000          20.0004

 109040388.787 8  84966543.77747                  20749688.307    20749688.139
                  20749685.448                          51.000          46.0004

 115658685.906 8  90123650.16047                  22009108.389    22009108.405
                  22009104.970                          50.000          44.0004

 125107245.052 7  97486169.54845                  23807111.814    23807111.357
                  23807109.164                          44.000          32.0004

 130595701.392 5 101762874.12942                  24851537.136    24851535.964
                  24851534.067                          30.000          12.0004

 106389797.189 8  82901146.52347                  20245297.887    20245296.834
                  20245291.521                          50.000          45.0004

 128123621.494 7  99836594.98045                  24381114.081    24381113.907
                  24381111.357                          44.000          32.0004

 19  9 29 20 41  0.0000000  0  9G15G21G13G24G10G32G04G20G27
 114928824.308 8  89554926.92847                  21870221.682    21870221.407
                  21870216.040                          52.000          42.0004

 111921144.345 8  87211279.11647                  21297882.184    21297881.075
                  21297875.817                          51.000          45.0004

 130853672.713 6 101963894.90443                  24900621.676    24900622.197
                  24900618.270                          38.000          20.0004

 109014237.298 8  84946166.01047                  20744712.036    20744711.683
                  20744709.018                          51.000          45.0004

 115587182.682 8  90067933.38447                  21995501.899    21995501.488
                  21995498.430                          50.000          44.0004

 125019769.543 7  97418006.84645                  23790465.366    23790465.376
                  23790462.723                          44.000          32.0004

 130655701.073 5 101809627.07541                  24862955.889    24862954.247
                  24862950.959                          33.000           9.0004

 106355805.888 8  82874659.80747                  20238829.465    20238828.606
                  20238823.251                          49.000          46.0004

 128154927.218 7  99860989.04245                  24387071.961    24387070.925
                  24387068.740                          44.000          31.0004

 19  9 29 20 41 30.0000000  0  9G15G21G13G24G10G32G04G20G27
 115008761.763 8  89617215.84347                  21885433.257    21885433.160
                  21885427.734                          52.000          43.0004

 111954903.443 8  87237584.89447                  21304306.339    21304305.411
                  21304300.027                          52.000          45.0004

 130955984.382 6 102043618.28443                  24920091.904    24920091.255
                  24920087.311                          37.000          19.0004

 108988705.771 8  84926271.32547                  20739853.479    20739853.444
                  20739850.331                          51.000          45.0004

 115515825.692 8  90012330.55747                  21981922.713    21981922.717
                  21981919.608                          50.000          44.0004

 124932465.871 7  97349978.03745                  23773852.118    23773852.184
                  23773849.322                          44.000          32.0004

 130716019.484 5 101856628.39942                  24874433.537    24874432.944
                  24874430.344                          34.000          12.0004

 106322158.758 8  82848441.27047                  20232426.729    20232425.714
                  20232420.380                          50.000          46.0004

 128186715.979 6  99885759.50545                  24393120.101    24393120.056
                  24393117.524                          41.000          31.0004

 19  9 29 20 42  0.0000000  0  9G15G21G13G24G10G32G04G20G27
 115088885.643 8  89679650.02247                  21900680.166    21900680.304
                  21900674.743                          51.000          43.0004

 111989136.366 8  87264259.89247                  21310820.763    21310819.678
                  21310814.271                          51.000          45.0004

 131058281.292 6 102123330.09143                  24939557.983    24939557.075
                  24939553.939                          39.000          20.0004

 108963794.079 8  84906859.62347                  20735113.028    20735112.907
                  20735109.748                          50.000          46.0004

 115444615.613 8  89956842.20647                  21968372.306    21968372.011
                  21968368.729                          51.000          44.0004

 124845334.150 7  97282083.21445                  23757271.661    23757271.600
                  23757268.597                          45.000          32.0004

 130776653.005 6 101903875.28042                  24885972.104    24885971.371
                  24885967.541                          36.000          14.0004

 106288856.508 8  82822491.47347                  20226089.506    20226088.486
                  20226083.158                          48.000          46.0004

 128218985.367 7  99910904.46345                  24399261.087    24399260.439
                  24399258.709                          44.000          31.0004

 19  9 29 20 42 30.0000000  0  9G15G21G13G24G10G32G04G20G27
 115169192.807 8  89742227.01947                  21915962.083    21915962.479
                  21915956.658                          52.000          42.0004

 112023841.018 8  87291302.46647                  21317424.750    21317423.779
                  21317418.312                          50.000          45.0004

 131160560.103 6 102203027.83943                  24959021.434    24959019.813
                  24959016.808                          38.000          20.0004

 108939502.175 8  84887930.87747                  20730490.214    20730490.356
                  20730487.304                          51.000          46.0004

 115373552.533 8  89901468.38847                  21954849.225    21954849.029
                  21954846.021                          50.000          44.0004

 124758373.796 7  97214321.94445                  23740723.392    23740723.582
                  23740721.031                          45.000          32.0004

 130837597.803 6 101951364.70842                  24897569.617    24897568.304
                  24897566.046                          37.000          16.0004

 106255899.272 8  82796810.51447                  20219817.898    20219816.962
                  20219811.665                          49.000          45.0004

 128251732.218 7  99936421.47845                  24405492.546    24405492.829
                  24405489.587                          44.000          31.0004

 19  9 29 20 43  0.0000000  0  9G15G21G13G24G10G32G04G20G27
 115249683.054 8  89804946.68647                  21931278.954    21931279.167
                  21931273.660                          53.000          42.0004

 112059018.298 8  87318713.32147                  21324118.983    21324118.014
                  21324112.447                          51.000          46.0004

 131262821.308 6 102282711.90643                  24978480.357    24978479.702
                  24978475.042                          37.000          20.0004

 108915832.672 8  84869487.11647                  20725986.168    20725986.347
                  20725983.025                          51.000          46.0004

 115302639.144 8  89846211.21847                  21941354.889    21941354.552
                  21941351.772                          50.000          44.0004

 124671586.944 7  97146695.86645                  23724208.388    23724208.399
                  23724205.805                          43.000          32.0004

 130898852.499 6 101999095.62842                  24909225.706    24909225.317
                  24909221.772                          38.000          16.0004

 106223290.072 8  82771400.75347                  20213612.736    20213611.568
                  20213606.423                          50.000          45.0004

 128284956.083 7  99962310.19845                  24411814.995    24411814.502
                  24411812.781                          44.000          31.0004

 19  9 29 20 43 30.0000000  0  9G15G21G13G24G10G32G04G20G27
 115330353.356 8  89867806.65047                  21946629.941    21946630.042
                  21946624.565                          52.000          42.0004

 112094665.810 8  87346490.59147                  21330902.485    21330901.621
                  21330895.989                          52.000          45.0004

 131365062.513 6 102362380.32743                  24997936.841    24997935.861
                  24997932.509                          37.000          19.0004

 108892785.049 8  84851527.93647                  20721600.411    20721600.583
                  20721597.189                          51.000          46.0004

 115231875.568 8  89791070.79047                  21927888.896    21927888.581
                  21927885.935                          50.000          44.0004

 124584973.027 7  97079204.55545                  23707726.166    23707726.121
                  23707723.870                          45.000          32.0004

 130960413.320 6 102047065.11042                  24920940.684    24920939.927
                  24920937.260                          39.000          17.0004

 106191029.115 8  82746262.35047                  20207473.582    20207472.500
                  20207467.253                          50.000          46.0004

 128318653.830 7  99988568.16845                  24418227.555    24418226.590
                  24418225.092                          42.000          30.0004

 19  9 29 20 44  0.0000000  0  9G15G21G13G24G10G32G04G20G27
 115411203.371 8  89930806.65747                  21962015.427    21962015.291
                  21962010.038                          52.000          42.0004

 112130784.337 8  87374634.88747                  21337775.548    21337774.724
                  21337769.207                          51.000          45.0004

 131467283.831 6 102442033.30643                  25017388.439    25017387.513
                  25017383.915                          38.000          19.0004

 108870360.762 8  84834054.48847                  20717333.107    20717333.369
                  20717330.080                          51.000          47.0004

 115161264.359 8  89736049.08747                  21914452.114    21914451.723
                  21914448.727                          51.000          44.0004

 124498533.940 7  97011849.47145                  23691277.412    23691277.364
                  23691274.830                          43.000          32.0004

 131022278.374 6 102095271.63543                  24932712.986    24932712.283
                  24932709.094                          38.000          19.0004

 106159119.244 8  82721397.51947                  20201401.280    20201400.286
                  20201394.897                          49.000          45.0004

 128352824.709 7 100015194.82745                  24424729.849    24424729.800
                  24424727.044                          43.000          30.0004

 19  9 29 20 44 30.0000000  0  9G15G21G13G24G10G32G04G20G27
 115492231.843 8  89993945.71347                  21977434.567    21977434.548
                  21977429.129                          52.000          42.0004

 112167373.483 8  87403145.90147                  21344738.316    21344737.231
                  21344731.876                          50.000          45.0004

 131569483.786 6 102521669.61943                  25036836.447    25036836.339
                  25036831.663                          38.000          20.0004

 108848561.590 8  84817068.12947                  20713184.931    20713185.100
                  20713181.829                          51.000          47.0004

 115090807.286 8  89681147.48047                  21901044.721    21901044.357
                  21901041.172                          50.000          44.0004

 124412270.859 7  96944631.54545                  23674861.946    23674861.924
                  23674859.674                          44.000          32.0004

 131084445.414 6 102143713.45343                  24944543.237    24944542.252
                  24944539.029                          39.000          20.0004

 106127562.059 8  82696807.50947                  20195396.419    20195395.090
                  20195389.810                          50.000          45.0004

 128387467.277 7 100042189.03244                  24431322.257    24431321.840
                  24431319.303                          42.000          29.0004

 19  9 29 20 45  0.0000000  0  9G15G21G13G24G10G32G04G20G27
 115573433.016 8  90057219.34547                  21992886.702    21992886.629
                  21992880.992                          53.000          43.0004

 112204427.909 8  87432019.47147                  21351789.549    21351788.259
                  21351783.063                          51.000          45.0004

 131671657.077 6 102601285.16043                  25056279.098    25056279.153
                  25056275.718                          37.000          18.0004

 108827384.011 8  84800566.13547                  20709155.139    20709154.965
                  20709151.781                          51.000          46.0004

 115020501.521 8  89626363.78147                  21887665.803    21887665.617
                  21887662.431                          50.000          44.0004

 124326180.199 7  96877547.98545                  23658479.578    23658479.366
                  23658477.040                          43.000          32.0004

 131146907.402 6 102192385.09143                  24956429.536    24956428.502
                  24956425.423                          40.000          21.0004

 106096354.617 8  82672490.03247                  20189457.730    20189456.579
                  20189451.153                          50.000          45.0004

 128422575.327 7 100069545.93344                  24438002.967    24438002.717
                  24437999.828                          42.000          28.0004

 19  9 29 20 45 30.0000000  0  9G15G21G13G24G10G32G04G20G27
 115654804.713 8  90120625.85447                  22008371.320    22008371.046
                  22008365.544                          51.000          43.0004

 112241946.545 8  87461254.76247                  21358928.850    21358927.811
                  21358922.617                          50.000          45.0004

 131773801.874 6 102680878.47743                  25075717.890    25075716.773
                  25075712.501                          38.000          19.0004

 108806827.757 8  84784548.28947                  20705243.113    20705243.182
                  20705239.927                          49.000          46.0004

 114950347.774 8  89571698.53347                  21874316.071    21874315.617
                  21874312.895                          51.000          44.0004

 124240262.026 7  96810598.81945                  23642129.492    23642129.312
                  23642126.921                          43.000          32.0004

 131209660.722 6 102241283.75243                  24968371.370    24968370.644
                  24968366.898                          41.000          22.0004

 106065497.755 8  82648445.73147                  20183585.705    20183584.751
                  20183579.326                          49.000          46.0004

 128458146.253 6 100097263.53044                  24444771.514    24444771.341
                  24444768.940                          41.000          28.0004

 19  9 29 20 46  0.0000000  0  9G15G21G13G24G10G32G04G20G27
 115736347.307 8  90184165.53247                  22023888.266    22023888.091
                  22023882.500                          52.000          42.0004

 112279930.465 8  87490852.61147                  21366157.060    21366156.083
                  21366150.595                          51.000          45.0004

 131875919.165 6 102760450.39043                  25095149.646    25095149.468
                  25095145.189                          36.000          20.0004

 108786896.007 8  84769017.06847                  20701450.551    20701450.162
                  20701447.051                          50.000          46.0004

 114880349.666 8  89517154.56847                  21860995.683    21860995.191
                  21860992.590                          50.000          44.0004

 124154519.298 7  96743786.36445                  23625813.106    23625813.066
                  23625810.942                          44.000          32.0004

 131272705.137 6 102290409.25043                  24980367.543    24980367.488
                  24980364.379                          39.000          23.0004

 106034995.719 8  82624677.91847                  20177781.188    20177780.446
                  20177775.081                          49.000          46.0004

 128494180.326 6 100125342.01844                  24451628.731    24451628.236
                  24451626.196                          41.000          27.0004

 19  9 29 20 46 30.0000000  0  9G15G21G13G24G10G32G04G20G27
 115818058.633 8  90247836.69547                  22039437.450    22039437.386
                  22039431.624                          52.000          42.0004

 112318378.404 8  87520812.03847                  21373473.625    21373472.411
                  21373467.030                          51.000          45.0004

 131978007.304 6 102839999.58343                  25114576.416    25114576.065
                  25114571.713                          38.000          18.0004

 108767589.132 8  84753972.76847                  20697776.543    20697776.304
                  20697773.014                          51.000          46.0004

 114810508.040 8  89462732.54547                  21847705.206    21847704.903
                  21847702.086                          51.000          44.0004

 124068952.040 7  96677110.62545                  23609530.126    23609530.168
                  23609527.546                          44.000          32.0004

 131336037.224 7 102339758.87244                  24992419.605    24992419.191
                  24992415.857                          42.000          25.0004

 106004848.842 8  82601186.85247                  20172044.781    20172043.619
                  20172038.377                          50.000          46.0004

 128530675.022 6 100153779.44544                  24458573.331    24458572.647
                  24458570.734                          40.000          26.0004

 19  9 29 20 47  0.0000000  0  9G15G21G13G24G10G32G04G20G27
 115899938.145 8  90311638.90347                  22055018.622    22055018.566
                  22055013.019                          52.000          42.0004

 112357290.322 8  87551132.99947                  21380877.938    21380876.957
                  21380871.697                          51.000          44.0004

 132080065.559 6 102919525.47143                  25133996.933    25133997.878
                  25133992.828                          39.000          18.0004

 108748908.280 8  84739416.27347                  20694221.536    20694221.532
                  20694218.144                          50.000          46.0004

 114740824.877 8  89408433.99247                  21834444.859    21834444.797
                  21834441.911                          51.000          45.0004

 123983561.604 7  96610572.67145                  23593281.006    23593280.781
                  23593278.586                          44.000          33.0004

 131399654.678 7 102389330.87744                  25004525.642    25004524.573
                  25004522.072                          42.000          26.0004

 105975059.327 8  82577974.24947                  20166375.915    20166374.631
                  20166369.598                          48.000          45.0004

 128567628.873 6 100182574.66444                  24465605.962    24465605.382
                  24465602.443                          41.000          26.0004

 19  9 29 20 47 30.0000000  0  9G15G21G13G24G10G32G04G20G27
 115981979.908 8  90375567.54647                  22070630.666    22070630.777
                  22070625.231                          52.000          42.0004

 112396661.413 8  87581811.76247                  21388370.292    21388369.175
                  21388363.926                          51.000          45.0004

 132182088.761 6 102999024.05243                  25153410.390    25153411.104
                  25153407.209                          38.000          19.0004

 108730850.038 8  84725344.92847                  20690785.251    20690785.097
                  20690781.839                          51.000          46.0004

 114671297.801 8  89354257.05947                  21821214.349    21821214.329
                  21821211.190                          51.000          45.0004

 123898344.832 7  96544170.04945                  23577065.017    23577065.171
                  23577062.532                          46.000          34.0004

 131463550.655 6 102439119.92344                  25016684.378    25016683.613
                  25016681.143                          41.000          26.0004

 105945624.662 8  82555038.15047                  20160774.642    20160773.350
                  20160768.320                          49.000          45.0004

 128605036.069 6 100211723.13844                  24472724.466    24472723.446
                  24472721.282                          40.000          25.0004

 19  9 29 20 48  0.0000000  0  9G15G21G13G24G10G32G04G20G27
 116064186.298 8  90439624.46147                  22086273.830    22086274.021
                  22086268.681                          53.000          42.0004

 112436494.804 8  87612850.75247                  21395950.190    21395949.383
                  21395944.024                          50.000          45.0004

 132284079.303 6 103078497.21043                  25172819.280    25172819.958
                  25172815.126                          37.000          19.0004

 108713418.294 8  84711761.76547                  20687467.900    20687467.942
                  20687464.740                          50.000          46.0004

 114601931.743 8  89300205.60347                  21808014.608    21808014.429
                  21808011.290                          51.000          45.0004

 123813305.933 7  96477906.01745                  23560882.425    23560882.528
                  23560879.899                          45.000          34.0004

 131527726.059 7 102489126.70444                  25028897.195    25028896.342
                  25028893.086                          42.000          25.0004

 105916550.125 8  82532382.67547                  20155242.023    20155240.727
                  20155235.548                          49.000          45.0004

 128642898.145 6 100241226.05644                  24479928.948    24479928.014
                  24479925.762                          39.000          24.0004

 19  9 29 20 48 30.0000000  0  9G15G21G13G24G10G32G04G20G27
 116146555.082 8  90503807.92347                  22101948.107    22101948.185
                  22101942.843                          51.000          42.0004

 112476788.289 8  87644248.26047                  21403617.833    21403616.993
                  21403611.663                          50.000          45.0004

 132386035.642 6 103157943.66443                  25192221.896    25192221.807
                  25192216.380                          39.000          19.0004

 108696613.741 8  84698667.31647                  20684270.016    20684270.127
                  20684266.855                          51.000          46.0004

 114532727.744 8  89246280.42247                  21794845.411    21794845.099
                  21794842.151                          50.000          45.0004

 123728445.167 7  96411780.80645                  23544734.053    23544734.079
                  23544731.426                          44.000          34.0004

 131592177.856 7 102539348.85044                  25041161.933    25041161.463
                  25041158.109                          42.000          27.0004

 105887836.878 8  82510008.72847                  20149777.490    20149777.029
                  20149771.406                          50.000          45.0004

 128681212.598 6 100271081.47543                  24487219.884    24487218.566
                  24487216.892                          37.000          22.0004

 19  9 29 20 49  0.0000000  0  9G15G21G13G24G10G32G04G20G27
 116229085.628 8  90568117.43247                  22117653.255    22117653.322
                  22117648.094                          51.000          42.0004

 112517542.048 8  87676004.41647                  21411373.180    21411372.090
                  21411366.745                          50.000          45.0004

 132487957.104 6 103237362.95043                  25211616.084    25211616.207
                  25211611.477                          37.000          19.0004

 108680437.554 8  84686062.50547                  20681191.817    20681191.666
                  20681188.619                          51.000          45.0004

 114463687.940 8  89192483.19247                  21781707.403    21781707.344
                  21781704.188                          51.000          45.0004

 123643763.954 7  96345795.49745                  23528619.432    23528619.505
                  23528617.095                          46.000          34.0004

 131656903.897 7 102589784.69044                  25053478.432    25053478.225
                  25053475.148                          42.000          28.0004

 105859486.923 8  82487917.86347                  20144383.058    20144382.286
                  20144376.559                          50.000          46.0004

 128719978.089 6 100301288.36043                  24494596.879    24494595.955
                  24494593.955                          38.000          23.0004

 19  9 29 20 49 30.0000000  0  9G15G21G13G24G10G32G04G20G27
 116311777.380 8  90632552.54946                  22133388.956    22133388.893
                  22133383.677                          51.000          41.0004

 112558756.418 8  87708119.49947                  21419215.777    21419214.862
                  21419209.573                          50.000          45.0004

 132589844.186 6 103316755.49343                  25231005.200    25231005.475
                  25230999.784                          39.000          18.0004

 108664891.272 8  84673948.53147                  20678233.385    20678233.177
                  20678230.234                          50.000          46.0004

 114394815.194 8  89138816.14047                  21768601.501    21768601.351
                  21768598.172                          50.000          44.0004

 123559264.355 7  96279951.70645                  23512539.707    23512539.749
                  23512537.326                          45.000          34.0004

 131721902.570 7 102640432.97044                  25065847.574    25065847.016
                  25065843.846                          43.000          28.0004

 105831502.825 8  82466112.08047                  20139058.116    20139057.141
                  20139051.462                          50.000          45.0004

 128759193.994 6 100331846.20443                  24502059.478    24502058.749
                  24502055.733                          39.000          23.0004

 19  9 29 20 50  0.0000000  0  8G15G21G24G10G32G04G20G27
 116394628.266 8  90697111.67447                  22149155.155    22149154.866
                  22149149.679                          51.000          42.0004

 112600429.863 8  87740592.30047                  21427146.211    21427145.222
                  21427139.735                          50.000          45.0004

 108649975.360 8  84662325.75647                  20675394.767    20675394.841
                  20675391.897                          50.000          45.0004

 114326110.236 8  89085279.82347                  21755527.436    21755527.483
                  21755524.033                          52.000          45.0004

 123474946.262 7  96214249.34945                  23496494.324    23496494.595
                  23496492.367                          45.000          34.0004

 131787170.289 6 102691290.89744                  25078267.179    25078266.336
                  25078263.870                          41.000          27.0004

 105803885.289 8  82444591.92747                  20133802.770    20133801.667
                  20133796.136                          50.000          46.0004

 128798857.397 6 100362752.79143                  24509606.601    24509607.041
                  24509603.993                          40.000          23.0004

 19  9 29 20 50 30.0000000  0  8G15G21G24G10G32G04G20G27
 116477637.028 8  90761793.80847                  22164951.187    22164951.294
                  22164945.544                          51.000          42.0004

 112642561.325 8  87773421.99947                  21435163.387    21435162.676
                  21435157.233                          51.000          45.0004

 108635690.025 8  84651194.34547                  20672676.889    20672676.258
                  20672673.400                          49.000          45.0004

 114257574.625 8  89031875.46647                  21742485.598    21742485.615
                  21742482.210                          50.000          45.0004

 123390810.435 7  96148689.01745                  23480483.765    23480483.615
                  23480481.505                          44.000          34.0004

 131852704.476 6 102742356.45244                  25090738.447    25090737.677
                  25090734.890                          40.000          26.0004

 105776635.799 8  82423358.56647                  20128617.066    20128616.218
                  20128610.704                          49.000          45.0004

 128838966.345 6 100394006.53743                  24517239.427    24517238.173
                  24517236.264                          36.000          21.0004

 19  9 29 20 51  0.0000000  0  8G15G21G24G10G32G04G20G27
 116560799.113 8  90826595.42546                  22180776.322    22180776.283
                  22180770.691                          51.000          41.0004

 112685147.034 8  87806605.65947                  21443267.090    21443266.467
                  21443261.201                          49.000          45.0004

 108622032.379 8  84640552.03647                  20670077.521    20670077.362
                  20670074.518                          51.000          45.0004

 114189206.839 8  88978601.88747                  21729475.634    21729475.515
                  21729472.085                          51.000          45.0004

 123306854.610 7  96083268.93845                  23464508.035    23464507.852
                  23464504.905                          44.000          34.0004

 131918499.355 6 102793625.14344                  25103258.748    25103258.005
                  25103255.180                          39.000          26.0004

 105749753.084 8  82402411.00347                  20123501.506    20123500.628
                  20123495.136                          49.000          46.0004

 128879515.725 5 100425603.40543                  24524955.645    24524953.512
                  24524953.307                          34.000          20.0004

 19  9 29 20 51 30.0000000  0  8G15G21G24G10G32G04G20G27
 116644115.446 8  90891517.23446                  22196630.458    22196630.835
                  22196625.297                          52.000          41.0004

 112728188.327 8  87840144.31947                  21451457.810    21451456.786
                  21451451.673                          50.000          44.0004

 108609005.705 8  84630401.39447                  20667598.879    20667598.559
                  20667595.703                          50.000          45.0004

 114121010.705 8  88925462.06147                  21716498.147    21716498.154
                  21716494.646                          50.000          45.0004

 123223081.727 7  96017991.40745                  23448566.139    23448566.204
                  23448563.370                          43.000          33.0004

 131984554.335 6 102845096.52444                  25115828.499    25115827.613
                  25115824.700                          39.000          26.0004

 105723240.860 8  82381752.13147                  20118456.455    20118455.387
                  20118449.967                          49.000          45.0004

 128920505.733 6 100457543.61543                  24532755.419    24532753.937
                  24532753.831                          36.000          20.0004

 19  9 29 20 52  0.0000000  0  8G15G21G24G10G32G04G20G27
 116727584.612 8  90956558.13646                  22212514.463    22212514.502
                  22212508.929                          51.000          41.0004

 112771684.759 8  87874037.62747                  21459734.795    21459733.624
                  21459728.528                          50.000          45.0004

 108596610.872 8  84620743.09747                  20665240.143    20665239.835
                  20665237.006                          50.000          45.0004

 114052988.245 8  88872457.55947                  21703553.836    21703553.900
                  21703550.461                          50.000          45.0004

 123139493.018 7  95952857.40145                  23432659.451    23432659.928
                  23432656.899                          45.000          34.0004

 132050867.158 6 102896768.81244                  25128447.103    25128447.076
                  25128443.933                          39.000          26.0004

 105697101.005 8  82361383.41847                  20113482.151    20113481.071
                  20113475.741                          49.000          45.0004

 128961934.804 6 100489825.95443                  24540638.336    24540638.221
                  24540637.614                          36.000          21.0004

 19  9 29 20 52 30.0000000  0  8G15G21G24G10G32G04G20G27
 116811203.109 8  91021715.37846                  22228426.554    22228426.701
                  22228420.966                          50.000          41.0004

 112815632.555 8  87908282.65147                  21468097.511    21468096.822
                  21468091.632                          48.000          44.0004

 108584846.046 8  84611575.70048                  20663001.269    20663000.928
                  20662998.082                          51.000          48.0004

 113985138.590 8  88819587.71647                  21690642.632    21690642.591
                  21690639.201                          51.000          45.0004

 123056086.646 7  95887865.46845                  23416787.948    23416787.896
                  23416785.216                          45.000          33.0004

 132117432.548 6 102948637.88944                  25141114.484    25141114.042
                  25141111.297                          36.000          25.0004

 105671332.542 8  82341304.10147                  20108578.644    20108577.549
                  20108572.181                          50.000          45.0004

 129003798.215 6 100522446.77443                  24548605.981    24548605.747
                  24548603.557                          38.000          23.0004

 19  9 29 20 53  0.0000000  0  8G15G21G24G10G32G04G20G27
 116894967.778 8  91086986.53746                  22244366.453    22244366.494
                  22244360.810                          51.000          41.0004

 112860029.463 8  87942877.62847                  21476546.587    21476545.259
                  21476540.007                          50.000          44.0004

 108573709.601 9  84602897.96048                  20660881.456    20660881.747
                  20660878.819                          54.000          48.0004

 113917461.486 8  88766852.32447                  21677764.307    21677764.160
                  21677760.678                          52.000          46.0004

 122972861.642 7  95823014.85945                  23400950.782    23400950.987
                  23400947.687                          44.000          33.0004

 132184245.880 6 103000700.16343                  25153828.290    25153827.814
                  25153825.261                          36.000          23.0004

 105645935.276 7  82321514.03047                  20103745.387    20103744.612
                  20103739.216                          47.000          45.0004

 129046092.214 6 100555403.13644                  24556654.619    24556654.101
                  24556651.517                          38.000          25.0004

 19  9 29 20 53 30.0000000  0  8G15G21G24G10G32G04G20G27
 116978880.863 8  91152373.34446                  22260334.685    22260334.695
                  22260329.244                          50.000          41.0004

 112904878.120 8  87977824.62347                  21485080.908    21485079.772
                  21485074.479                          50.000          44.0004

 108563205.749 9  84594713.15248                  20658882.762    20658883.043
                  20658879.952                          54.000          48.0004

 113849962.456 8  88714255.69447                  21664919.292    21664919.310
                  21664915.997                          52.000          45.0004

 122889822.536 7  95758309.10545                  23385148.654    23385148.628
                  23385145.818                          44.000          32.0004

 132251308.325 5 103052956.57143                  25166589.904    25166588.951
                  25166587.021                          34.000          21.0004

 105620914.443 8  82302017.28747                  20098984.420    20098983.439
                  20098977.883                          49.000          45.0004

 129088818.524 6 100588696.36544                  24564784.716    24564784.608
                  24564781.833                          39.000          25.0004

 19  9 29 20 54  0.0000000  0  9G15G08G21G24G10G32G04G20G27
 117062940.766 8  91217874.55546                  22276330.828    22276331.004
                  22276325.239                          51.000          41.0004

 133255816.378 6 103835704.22743                  25357737.428    25357737.850
                  25357736.571                          36.000          18.0004

 112950177.015 8  88013122.44947                  21493700.817    21493699.939
                  21493694.545                          51.000          45.0004

 108553334.690 9  84587021.42748                  20657004.640    20657004.760
                  20657001.480                          54.000          48.0004

 113782642.722 8  88661798.77747                  21652108.908    21652108.575
                  21652105.677                          52.000          45.0004

 122806969.722 7  95693748.51745                  23369382.346    23369382.113
                  23369379.961                          43.000          33.0004

 132318616.779 6 103105404.67143                  25179397.530    25179397.449
                  25179394.903                          36.000          21.0004

 105596271.408 8  82282814.93047                  20094294.590    20094294.073
                  20094288.515                          50.000          45.0004

 129131974.686 6 100622324.53944                  24572997.236    24572997.028
                  24572993.716                          40.000          26.0004

 19  9 29 20 54 30.0000000  0  9G15G08G21G24G10G32G04G20G27
 117147146.061 8  91283489.05146                  22292354.377    22292354.594
                  22292349.153                          51.000          41.0004

 133247751.857 5 103829420.21243                  25356203.016    25356203.065
                  25356201.113                          35.000          18.0004

 112995925.297 8  88048770.45347                  21502406.398    21502405.523
                  21502400.408                          50.000          44.0004

 108544096.667 8  84579822.97748                  20655246.830    20655246.795
                  20655243.612                          53.000          48.0004

 113715503.903 8  88609482.83647                  21639332.864    21639332.615
                  21639329.545                          50.000          45.0004

 122724303.949 7  95629333.67545                  23353651.719    23353651.761
                  23353649.155                          44.000          34.0004

 132386168.634 6 103158042.44443                  25192253.611    25192252.292
                  25192249.879                          36.000          21.0004

 105572007.829 8  82263908.25447                  20089677.656    20089676.523
                  20089671.240                          48.000          45.0004

 129175558.579 6 100656285.98744                  24581290.900    24581290.108
                  24581288.273                          41.000          27.0004

 19  9 29 20 55  0.0000000  0  9G15G08G21G24G10G32G04G20G27
 117231496.613 8  91349216.73946                  22308405.884    22308405.872
                  22308400.642                          51.000          41.0004

 133240202.348 5 103823537.48142                  25354765.778    25354765.571
                  25354765.036                          35.000          17.0004

 113042123.230 8  88084768.82947                  21511197.598    21511196.719
                  21511191.709                          51.000          44.0004

 108535493.559 9  84573119.26948                  20653609.571    20653609.645
                  20653606.603                          54.000          49.0004

 113648548.765 8  88557310.01247                  21626591.683    21626591.505
                  21626588.225                          52.000          45.0004

 122641827.010 7  95565065.97745                  23337956.835    23337957.041
                  23337953.940                          46.000          34.0004

 132453962.029 5 103210868.41343                  25205153.737    25205153.062
                  25205150.232                          34.000          19.0004

 105548126.018 7  82245299.05447                  20085133.141    20085131.928
                  20085126.643                          47.000          45.0004

 129219569.168 6 100690579.93044                  24589665.885    24589665.561
                  24589663.335                          39.000          28.0004

 19  9 29 20 55 30.0000000  0  9G15G08G21G24G10G32G04G20G27
 117315988.279 8  91415054.38246                  22324484.088    22324483.977
                  22324478.673                          50.000          41.0004

 133233164.854 6 103818053.72542                  25353427.046    25353427.264
                  25353425.857                          36.000          17.0004

 113088766.575 8  88121114.28547                  21520073.731    21520072.707
                  21520067.663                          50.000          45.0004

 108527521.928 8  84566907.62448                  20652092.766    20652092.744
                  20652089.713                          53.000          49.0004

 113581775.828 8  88505279.16947                  21613885.178    21613885.067
                  21613881.678                          53.000          45.0004

 122559536.604 7  95500943.62345                  23322297.977    23322297.878
                  23322294.642                          46.000          35.0004

 132521991.365 6 103263878.24943                  25218099.743    25218098.701
                  25218096.043                          36.000          19.0004

 105524624.243 8  82226985.98947                  20080660.989    20080659.592
                  20080654.433                          48.000          44.0004

 129264001.187 6 100725202.27545                  24598121.221    24598120.740
                  24598118.316                          41.000          30.0004

 19  9 29 20 56  0.0000000  0  9G15G08G21G24G10G32G04G20G27
 117400621.273 8  91481002.15746                  22340589.156    22340588.962
                  22340584.105                          50.000          40.0004

 133226641.371 6 103812970.52843                  25352186.284    25352186.079
                  25352184.590                          37.000          19.0004

 113135856.318 8  88157807.58247                  21529034.524    21529033.589
                  21529028.353                          50.000          44.0004

 108520184.304 8  84561190.00848                  20650696.247    20650696.285
                  20650693.408                          51.000          49.0004

 113515189.053 8  88453393.38847                  21601214.270    21601214.060
                  21601210.666                          51.000          46.0004

 122477435.678 7  95436968.92245                  23306674.357    23306674.591
                  23306671.431                          47.000          35.0004

 132590255.986 5 103317071.43243                  25231089.874    25231088.967
                  25231086.631                          35.000          19.0004

 105501506.671 7  82208972.30847                  20076261.820    20076260.441
                  20076255.273                          47.000          45.0004

 129308854.723 7 100760153.09545                  24606656.504    24606655.845
                  24606653.863                          44.000          30.0004

 19  9 29 20 56 30.0000000  0  9G15G08G21G24G10G32G04G20G27
 117485392.900 8  91547057.96046                  22356720.704    22356720.266
                  22356715.402                          49.000          40.0004

 133220630.462 5 103808286.73242                  25351041.843    25351041.829
                  25351040.489                          35.000          17.0004

 113183389.933 8  88194846.75447                  21538079.934    21538078.862
                  21538073.691                          51.000          44.0004

 108513479.724 8  84555965.67548                  20649420.511    20649420.615
                  20649417.449                          53.000          49.0004

 113448788.568 8  88401652.76747                  21588578.580    21588578.349
                  21588575.158                          51.000          46.0004

 122395523.431 7  95373141.23945                  23291086.784    23291086.809
                  23291084.021                          46.000          35.0004

 132658751.690 5 103370444.65043                  25244124.429    25244123.186
                  25244120.486                          34.000          18.0004

 105478772.885 8  82191257.67847                  20071935.515    20071934.513
                  20071929.168                          48.000          45.0004

 129354126.162 6 100795429.53245                  24615271.484    24615271.198
                  24615268.710                          41.000          31.0004

 19  9 29 20 57  0.0000000  0  9G15G08G21G24G10G32G04G20G27
 117570303.408 8  91613221.98046                  22372878.568    22372878.458
                  22372873.393                          51.000          40.0004

 133215133.209 5 103804003.15842                  25349995.529    25349995.388
                  25349994.668                          33.000          16.0004

 113231367.861 8  88232232.13947                  21547209.840    21547208.700
                  21547203.653                          50.000          44.0004

 108507409.937 9  84551235.98748                  20648265.636    20648265.661
                  20648262.351                          54.000          49.0004

 113382577.158 8  88350059.48147                  21575978.899    21575978.718
                  21575975.528                          50.000          45.0004

 122313801.722 7  95309462.03445                  23275535.667    23275535.582
                  23275532.716                          44.000          35.0004

 132727476.808 5 103423996.63242                  25257201.053    25257201.215
                  25257198.411                          33.000          16.0004

 105456425.768 8  82173844.34847                  20067682.971    20067681.961
                  20067676.702                          49.000          45.0004

 129399814.376 6 100831030.72345                  24623965.494    24623965.176
                  24623962.720                          41.000          31.0004

 19  9 29 20 57 30.0000000  0  9G15G08G21G24G10G32G04G20G27
 117655348.420 8  91679490.80746                  22389062.197    22389062.015
                  22389056.767                          50.000          40.0004

 133210146.515 5 103800117.45642                  25349047.194    25349046.640
                  25349045.483                          34.000          17.0004

 113279785.730 8  88269960.33747                  21556423.389    21556422.398
                  21556417.024                          50.000          44.0004

 108501971.168 8  84546997.99948                  20647230.697    20647230.738
                  20647227.511                          53.000          49.0004

 113316553.316 8  88298612.34547                  21563415.033    21563414.688
                  21563411.325                          51.000          46.0004

 122232268.071 7  95245929.36845                  23260020.335    23260020.362
                  23260017.314                          47.000          35.0004

 132796425.155 6 103477722.58142                  25270322.318    25270321.325
                  25270319.161                          37.000          15.0004

 105434463.721 8  82156731.07347                  20063503.654    20063502.675
                  20063497.493                          50.000          45.0004

 129445914.055 7 100866952.52945                  24632737.994    24632737.487
                  24632735.305                          43.000          31.0004

 19  9 29 20 58  0.0000000  0  9G15G08G21G24G10G32G04G20G27
 117740523.364 8  91745860.89046                  22405270.371    22405269.948
                  22405265.481                          49.000          40.0004

 133205667.279 5 103796627.15443                  25348195.120    25348193.955
                  25348193.519                          34.000          19.0004

 113328639.104 8  88308027.88947                  21565720.184    21565718.894
                  21565713.646                          51.000          44.0004

 108497161.348 8  84543250.10048                  20646315.448    20646315.347
                  20646312.173                          53.000          49.0004

 113250715.510 8  88247310.17247                  21550886.684    21550886.186
                  21550882.812                          51.000          45.0004

 122150920.011 7  95182541.31445                  23244540.249    23244540.216
                  23244537.361                          46.000          35.0004

 132865590.949 6 103531618.00342                  25283484.502    25283483.413
                  25283480.876                          38.000          16.0004

 105412884.930 8  82139916.43447                  20059397.570    20059396.459
                  20059391.095                          49.000          45.0004

 129492419.675 7 100903190.65845                  24641587.717    24641587.400
                  24641585.168                          42.000          32.0004

 19  9 29 20 58 30.0000000  0  9G15G08G21G24G10G32G04G20G27
 117825828.086 8  91812332.08646                  22421503.378    22421503.260
                  22421498.398                          50.000          40.0004

 133201696.299 5 103793532.89643                  25347438.821    25347437.858
                  25347438.061                          34.000          18.0004

 113377928.389 8  88346435.11547                  21575099.450    21575098.346
                  21575093.036                          51.000          43.0004

 108492981.533 8  84539993.11248                  20645520.133    20645519.725
                  20645516.742                          53.000          49.0004

 113185067.065 8  88196155.55447                  21538393.966    21538393.809
                  21538390.241                          52.000          46.0004

 122069759.827 7  95119299.65545                  23229095.961    23229095.894
                  23229092.888                          46.000          35.0004

 132934973.125 6 103585682.02142                  25296687.957    25296687.264
                  25296683.565                          39.000          17.0004

 105391692.544 7  82123402.89447                  20055364.515    20055363.563
                  20055358.320                          47.000          45.0004

 129539330.705 7 100939744.69645                  24650514.669    24650513.747
                  24650512.064                          42.000          32.0004

 19  9 29 20 59  0.0000000  0  9G15G08G21G24G10G32G04G20G27
 117911265.432 8  91878906.63046                  22437761.493    22437761.453
                  22437756.497                          50.000          40.0004

 133198237.441 5 103790837.67142                  25346780.409    25346778.892
                  25346779.201                          34.000          16.0004

 113427656.214 8  88385184.06247                  21584562.125    21584561.224
                  21584556.019                          51.000          44.0004

 108489435.860 8  84537230.25848                  20644845.265    20644845.025
                  20644842.058                          53.000          49.0004

 113119613.384 8  88145152.70047                  21525938.530    21525938.478
                  21525934.846                          52.000          46.0004

 121988791.921 7  95056207.82546                  23213688.270    23213688.179
                  23213685.302                          47.000          36.0004

 133004572.653 6 103639915.38442                  25309932.049    25309931.495
                  25309927.806                          40.000          16.0004

 105370891.590 7  82107194.36747                  20051406.473    20051405.358
                  20051399.818                          47.000          44.0004

 129586648.608 7 100976615.76745                  24659519.517    24659518.425
                  24659516.226                          44.000          32.0004

 19  9 29 20 59 30.0000000  0  9G15G08G21G24G10G32G04G20G27
 117996834.223 8  91945583.61546                  22454044.649    22454044.670
                  22454039.802                          51.000          40.0004

 133195291.360 5 103788531.02843                  25346219.942    25346219.263
                  25346218.026                          35.000          19.0004

 113477821.951 8  88424274.23447                  21594108.577    21594107.663
                  21594102.472                          50.000          44.0004

 108486525.303 8  84534962.30548                  20644291.229    20644291.159
                  20644288.093                          53.000          49.0004

 113054356.662 8  88094303.32247                  21513520.533    21513520.516
                  21513516.973                          51.000          46.0004

 121908017.520 7  94993266.78946                  23198317.379    23198317.565
                  23198314.473                          46.000          36.0004

 133074386.841 6 103694316.02743                  25323216.874    25323216.619
                  25323213.355                          39.000          18.0004

 105350484.093 8  82091292.42747                  20047522.911    20047521.799
                  20047516.334                          48.000          45.0004

 129634371.510 7 101013802.43445                  24668600.576    24668600.397
                  24668597.726                          45.000          33.0004

 19  9 29 21  0  0.0000000  0 10G15G08G21G24G10G32G14G04G20G27
 118082533.352 8  92012362.14046                  22470352.864    22470352.898
                  22470347.796                          50.000          40.0004

 133192857.071 6 103786634.23443                  25345755.689    25345756.439
                  25345755.101                          36.000          18.0004

 113528424.371 8  88463704.68147                  21603737.682    21603736.861
                  21603731.707                          51.000          43.0004

 108484249.244 9  84533188.76248                  20643858.214    20643858.232
                  20643854.967                          54.000          48.0004

 112989298.439 8  88043608.62247                  21501140.452    21501140.480
                  21501136.821                          53.000          46.0004

 121827437.200 7  94930476.97546                  23182983.367    23182983.107
                  23182980.790                          45.000          36.0004

 133176822.423 5 103774146.03542                  25342706.064    25342705.946
                  25342702.633                          35.000          16.0004

 133144413.332 6 103748882.06743                  25336542.683    25336542.333
                  25336539.037                          39.000          18.0004

 105330471.326 7  82075698.06947                  20043714.516    20043713.519
                  20043708.281                          47.000          45.0004

 129682497.148 7 101051302.90845                  24677758.624    24677757.910
                  24677755.475                          44.000          33.0004

 19  9 29 21  0 30.0000000  0 10G15G08G21G24G10G32G14G04G20G27
 118168358.159 8  92079238.60646                  22486684.881    22486684.376
                  22486679.431                          49.000          40.0004

 133190931.246 6 103785133.62943                  25345390.949    25345389.965
                  25345388.891                          36.000          18.0004

 113579458.958 8  88503471.87647                  21613449.609    21613448.402
                  21613443.071                          50.000          44.0004

 108482604.427 9  84531907.09548                  20643545.282    20643545.265
                  20643542.010                          54.000          49.0004

 112924437.121 8  87993067.35147                  21488797.854    21488797.877
                  21488794.012                          51.000          46.0004

 121747048.236 7  94867836.27845                  23167685.208    23167685.589
                  23167683.097                          46.000          35.0004

 133088039.568 5 103704964.68142                  25325810.384    25325810.907
                  25325807.708                          34.000          15.0004

 133214645.772 6 103803608.58643                  25349907.864    25349907.516
                  25349904.313                          38.000          19.0004

 105310851.641 8  82060410.00747                  20039981.093    20039980.388
                  20039974.770                          49.000          45.0004

 129731019.832 7 101089112.77445                  24686991.948    24686991.402
                  24686989.550                          43.000          33.0004

 19  9 29 21  1  0.0000000  0 10G15G08G21G24G10G32G14G04G20G27
 118254309.520 8  92146213.68646                  22503040.789    22503040.459
                  22503035.443                          50.000          39.0004

 133189515.869 5 103784030.74843                  25345121.678    25345120.456
                  25345118.905                          33.000          18.0004

 113630926.263 8  88543576.25647                  21623243.339    21623242.197
                  21623236.773                          50.000          44.0004

 108481592.428 9  84531118.53648                  20643352.696    20643352.545
                  20643349.420                          54.000          48.0004

 112859776.370 8  87942682.36547                  21476492.988    21476493.177
                  21476489.463                          52.000          46.0004

 121666853.277 7  94805346.75545                  23152425.225    23152424.968
                  23152422.409                          44.000          35.0004

 132999363.346 5 103635866.39042                  25308936.938    25308936.046
                  25308933.128                          35.000          14.0004

 133285083.255 6 103858494.89243                  25363311.268    25363310.802
                  25363307.838                          37.000          19.0004

 105291628.325 8  82045430.81147                  20036322.830    20036322.195
                  20036316.820                          48.000          45.0004

 129779939.193 7 101127231.73645                  24696301.318    24696300.257
                  24696298.911                          43.000          33.0004

 19  9 29 21  1 30.0000000  0 10G15G08G21G24G10G32G14G04G20G27
 118340385.432 8  92213285.81546                  22519420.348    22519420.255
                  22519415.195                          49.000          39.0004

 133188610.117 5 103783325.00342                  25344948.430    25344948.378
                  25344947.012                          34.000          17.0004

 113682824.672 8  88584016.56647                  21633118.897    21633118.094
                  21633112.705                          49.000          43.0004

 108481213.634 8  84530823.38248                  20643280.363    20643280.369
                  20643277.319                          53.000          49.0004

 112795317.348 8  87892454.57347                  21464226.825    21464227.098
                  21464223.388                          52.000          46.0004

 121586852.473 7  94743008.53245                  23137201.096    23137200.952
                  23137198.686                          44.000          34.0004

 132910793.955 5 103566851.35642                  25292082.229    25292082.393
                  25292079.018                          34.000          14.0004

 133355722.726 6 103913538.61943                  25376753.935    25376752.855
                  25376750.666                          40.000          19.0004

 105272802.367 8  82030761.23747                  20032740.506    20032739.723
                  20032734.359                          48.000          45.0004

 129829252.464 7 101165657.63145                  24705684.982    24705684.515
                  24705682.635                          42.000          31.0004

 19  9 29 21  2  0.0000000  0 10G15G08G21G24G10G32G14G04G20G27
 118426582.271 8  92280452.16746                  22535823.234    22535823.072
                  22535818.012                          49.000          40.0004

 133188210.912 5 103783013.94842                  25344872.276    25344871.280
                  25344870.916                          35.000          16.0004

 113735150.547 8  88624789.96347                  21643076.501    21643075.368
                  21643070.199                          49.000          43.0004

 108481465.010 9  84531019.27148                  20643328.231    20643328.102
                  20643325.228                          54.000          49.0004

 112731059.388 8  87842383.45047                  21451999.066    21451999.244
                  21451995.602                          53.000          46.0004

 121507044.062 7  94680820.21845                  23122013.965    23122014.135
                  23122011.393                          45.000          34.0004

 132822329.916 5 103497918.43842                  25275248.088    25275248.024
                  25275244.887                          34.000          15.0004

 133426558.816 6 103968735.53143                  25390233.625    25390232.900
                  25390230.115                          38.000          19.0004

 105254372.701 8  82016400.46047                  20029233.414    20029232.742
                  20029227.239                          48.000          45.0004

 129878954.880 6 101204386.75745                  24715142.840    24715142.561
                  24715140.928                          40.000          31.0004

 19  9 29 21  2 30.0000000  0 10G15G08G21G24G10G32G14G04G20G27
 118512900.773 8  92347713.32846                  22552249.291    22552249.187
                  22552243.788                          48.000          40.0004

 133188320.031 6 103783098.97142                  25344893.301    25344892.415
                  25344891.473                          37.000          16.0004

 113787904.309 8  88665896.77247                  21653115.562    21653114.266
                  21653108.961                          50.000          44.0004

 108482348.663 8  84531707.84148                  20643496.698    20643496.082
                  20643493.323                          53.000          49.0004

 112667006.020 8  87792471.74947                  21439810.020    21439810.057
                  21439806.545                          53.000          46.0004

 121427430.499 7  94618783.73045                  23106864.198    23106864.248
                  23106861.354                          46.000          35.0004

 132733973.819 5 103429069.59542                  25258434.626    25258434.223
                  25258430.647                          35.000          15.0004

 133497590.518 6 104024084.85543                  25403750.642    25403749.968
                  25403746.592                          38.000          20.0004

 105236342.514 8  82002350.97147                  20025802.591    20025801.677
                  20025796.034                          49.000          44.0004

 129929045.886 6 101243418.67845                  24724675.273    24724674.606
                  24724672.661                          41.000          30.0004

 19  9 29 21  3  0.0000000  0 10G15G08G21G24G10G32G14G04G20G27
 118599340.575 8  92415069.01646                  22568698.003    22568698.144
                  22568692.636                          50.000          40.0004

 133188938.138 6 103783580.63743                  25345011.309    25345010.578
                  25345009.408                          37.000          18.0004

 113841085.769 8  88707336.85947                  21663235.133    21663234.451
                  21663229.034                          49.000          43.0004

 108483864.776 8  84532889.24048                  20643784.626    20643784.671
                  20643781.893                          53.000          48.0004

 112603160.027 8  87742721.64447                  21427660.602    21427660.284
                  21427656.943                          52.000          46.0004

 121348013.547 7  94556900.42745                  23091751.721    23091751.755
                  23091748.567                          46.000          35.0004

 132645727.537 5 103360306.35742                  25241642.369    25241640.979
                  25241638.062                          35.000          15.0004

 133568816.039 6 104079585.20143                  25417304.354    25417303.848
                  25417300.391                          39.000          20.0004

 105218714.391 7  81988614.77747                  20022448.040    20022447.277
                  20022441.495                          47.000          45.0004

 129979524.177 6 101282752.40244                  24734280.705    24734279.623
                  24734278.324                          39.000          29.0004

 19  9 29 21  3 30.0000000  0 10G15G08G21G24G10G32G14G04G20G27
 118685896.874 8  92482515.47346                  22585169.221    22585169.270
                  22585163.611                          50.000          39.0004

 133190061.052 6 103784455.65743                  25345225.335    25345224.079
                  25345222.493                          36.000          18.0004

 113894689.770 8  88749106.20247                  21673435.844    21673434.943
                  21673429.770                          50.000          43.0004

 108486010.402 9  84534561.16648                  20644193.168    20644193.015
                  20644190.186                          54.000          48.0004

 112539519.309 8  87693131.49247                  21415550.038    21415550.044
                  21415546.608                          51.000          46.0004

 121268789.971 7  94495167.80945                  23076676.145    23076676.222
                  23076672.748                          46.000          35.0004

 132557588.197 6 103291626.38842                  25224869.470    25224868.654
                  25224866.318                          37.000          17.0004

 133640228.902 6 104135231.53843                  25430894.206    25430892.907
                  25430889.946                          37.000          19.0004

 105201486.133 8  81975190.16647                  20019169.738    20019168.731
                  20019163.145                          48.000          45.0004

 130030383.571 6 101322383.08644                  24743958.282    24743958.368
                  24743956.108                          40.000          28.0004

 19  9 29 21  4  0.0000000  0 10G15G08G21G24G10G32G14G04G20G27
 118772569.075 8  92550052.24846                  22601662.182    22601662.543
                  22601656.633                          51.000          39.0004

 133191689.563 6 103785724.62442                  25345534.810    25345533.975
                  25345532.326                          36.000          17.0004

 113948716.351 8  88791204.82547                  21683716.911    21683715.752
                  21683710.556                          50.000          43.0004

 108488786.062 8  84536724.03148                  20644721.201    20644721.246
                  20644718.307                          53.000          48.0004

 112476086.677 8  87643703.48047                  21403479.493    21403479.302
                  21403475.692                          53.000          46.0004

 121189761.470 7  94433587.19046                  23061637.549    23061637.427
                  23061634.424                          46.000          36.0004

 132469557.496 6 103223031.10243                  25208117.651    25208117.564
                  25208114.031                          36.000          18.0004

 133711827.221 6 104191022.37343                  25444518.772    25444517.618
                  25444515.377                          36.000          19.0004

 105184659.918 8  81962078.83347                  20015967.887    20015966.812
                  20015961.156                          48.000          45.0004

 130081622.710 6 101362309.67444                  24753709.215    24753708.953
                  24753706.928                          40.000          27.0004

 19  9 29 21  4 30.0000000  0 10G15G08G21G24G10G32G14G04G20G27
 118859357.287 8  92617679.41146                  22618177.944    22618177.603
                  22618171.861                          50.000          39.0004

 133193823.835 6 103787387.71242                  25345940.538    25345940.227
                  25345938.484                          37.000          17.0004

 114003164.768 8  88833632.15347                  21694078.079    21694076.871
                  21694071.822                          51.000          43.0004

 108492192.482 8  84539378.39448                  20645369.394    20645369.377
                  20645366.466                          52.000          48.0004

 112412864.740 8  87594439.64747                  21391448.460    21391448.556
                  21391445.068                          52.000          47.0004

 121110929.597 7  94372159.79446                  23046636.093    23046636.101
                  23046632.870                          47.000          36.0004

 132381637.151 6 103154521.80742                  25191386.870    25191386.517
                  25191383.383                          38.000          17.0004

 133783609.252 5 104246956.35643                  25458177.669    25458176.661
                  25458174.918                          35.000          19.0004

 105168237.993 7  81949282.53347                  20012842.865    20012841.951
                  20012836.275                          47.000          45.0004

 130133240.148 6 101402531.03544                  24763531.409    24763531.502
                  24763529.197                          39.000          25.0004

 19  9 29 21  5  0.0000000  0 10G15G08G21G24G10G32G14G04G20G27
 118946258.226 8  92685394.42546                  22634714.297    22634714.308
                  22634708.724                          49.000          39.0004

 133196461.651 6 103789443.17843                  25346442.886    25346442.532
                  25346440.741                          38.000          18.0004

 114058031.806 8  88876385.66947                  21704518.715    21704517.866
                  21704512.640                          51.000          43.0004

 108496227.907 8  84542522.88848                  20646137.635    20646137.271
                  20646134.426                          53.000          49.0004

 112349853.390 8  87545339.90847                  21379457.646    21379457.791
                  21379454.322                          50.000          47.0004

 121032293.071 7  94310884.61146                  23031671.963    23031672.047
                  23031669.056                          47.000          36.0004

 132293825.818 6 103086097.45243                  25174677.347    25174676.812
                  25174673.516                          38.000          18.0004

 133855570.117 6 104303029.69943                  25471871.068    25471870.737
                  25471868.779                          36.000          21.0004

 105152219.912 8  81936800.91747                  20009794.452    20009793.684
                  20009788.061                          49.000          44.0004

 130185231.544 6 101443043.78044                  24773425.214    24773425.051
                  24773422.945                          36.000          24.0004

 19  9 29 21  5 30.0000000  0 10G15G08G21G24G10G32G14G04G20G27
 119033266.379 8  92753192.97646                  22651271.389    22651271.255
                  22651265.893                          49.000          39.0004

 133199598.231 6 103791887.25343                  25347039.976    25347039.264
                  25347037.815                          38.000          18.0004

 114113311.567 8  88919460.79447                  21715038.298    21715037.379
                  21715032.203                          49.000          43.0004

 108500886.776 8  84546153.18948                  20647024.083    20647023.781
                  20647020.954                          53.000          48.0004

 112287049.704 8  87496401.98747                  21367506.632    21367506.521
                  21367503.253                          52.000          46.0004

 120953847.885 7  94249758.53846                  23016744.249    23016744.612
                  23016741.486                          47.000          37.0004

 132206119.910 6 103017755.25643                  25157987.134    25157986.923
                  25157983.963                          37.000          18.0004

 133927702.645 6 104359236.82043                  25485597.405    25485597.290
                  25485595.008                          37.000          23.0004

 105136602.641 8  81924631.61947                  20006822.670    20006821.563
                  20006816.141                          48.000          44.0004

 130237589.877 6 101483842.45443                  24783388.668    24783388.002
                  24783386.444                          36.000          21.0004

 19  9 29 21  6  0.0000000  0 10G15G08G21G24G10G32G14G04G20G27
 119120383.875 8  92821076.71846                  22667849.038    22667849.009
                  22667844.015                          50.000          39.0004

 133203236.096 6 103794721.97543                  25347731.338    25347731.576
                  25347729.969                          37.000          18.0004

 114169006.272 8  88962859.25647                  21725636.517    21725635.577
                  21725630.483                          50.000          43.0004

 108506172.739 8  84550272.13248                  20648029.730    20648029.561
                  20648026.872                          52.000          48.0004

 112224458.989 8  87447630.02247                  21355595.815    21355595.856
                  21355592.735                          51.000          47.0004

 120875598.182 7  94188784.78146                  23001854.265    23001854.047
                  23001851.020                          46.000          37.0004

 132118523.692 6 102949498.56243                  25141318.569    25141318.063
                  25141314.077                          38.000          19.0004

 134000007.307 6 104415578.06043                  25499357.370    25499356.746
                  25499354.233                          38.000          23.0004

 105121391.182 8  81912778.54147                  20003927.894    20003926.955
                  20003921.504                          49.000          45.0004

 130290316.174 5 101524927.85143                  24793423.204    24793421.067
                  24793420.114                          34.000          21.0004

 19  9 29 21  6 30.0000000  0 10G15G08G21G24G10G32G14G04G20G27
 119207612.445 8  92889047.02546                  22684448.125    22684448.211
                  22684443.174                          50.000          39.0004

 133207378.406 6 103797949.75243                  25348520.963    25348520.005
                  25348517.887                          36.000          18.0004

 114225117.540 8  89006582.30547                  21736314.326    21736313.514
                  21736308.066                          50.000          43.0004

 108512088.321 8  84554881.68947                  20649155.638    20649155.215
                  20649152.552                          52.000          47.0004

 112162086.261 8  87399027.91147                  21343726.931    21343726.851
                  21343723.448                          53.000          46.0004

 120797547.858 8  94127966.38546                  22987001.468    22987001.646
                  22986998.503                          48.000          37.0004

 132031041.308 6 102881330.54443                  25124670.493    25124670.506
                  25124667.374                          38.000          19.0004

 134072484.608 6 104472053.84543                  25513149.677    25513148.827
                  25513146.093                          39.000          23.0004

 105106589.756 8  81901244.96847                  20001111.536    20001110.331
                  20001104.972                          49.000          45.0004

 130343411.307 5 101566300.67643                  24803525.252    24803524.851
                  24803522.867                          35.000          19.0004

 19  9 29 21  7  0.0000000  0 10G15G08G21G24G10G32G14G04G20G27
 119294948.509 8  92957101.08046                  22701067.728    22701067.725
                  22701062.748                          48.000          39.0004

 133212021.927 6 103801568.10243                  25349403.765    25349403.527
                  25349401.955                          38.000          18.0004

 114281641.479 8  89050626.92147                  21747070.416    21747069.583
                  21747064.157                          51.000          43.0004

 108518631.308 8  84559980.13048                  20650400.754    20650400.331
                  20650397.666                          53.000          48.0004

 112099930.515 8  87350594.87447                  21331899.282    21331898.942
                  21331895.560                          52.000          46.0004

 120719694.708 7  94067301.64146                  22972186.399    22972186.654
                  22972183.638                          47.000          37.0004

 131943670.477 6 102813249.48243                  25108044.508    25108044.101
                  25108040.541                          37.000          18.0004

 134145129.087 6 104528659.90243                  25526973.415    25526972.037
                  25526969.780                          37.000          22.0004

 105092196.806 8  81890029.69147                  19998372.439    19998371.483
                  19998366.003                          48.000          45.0004

 130396869.990 5 101607956.76243                  24813699.372    24813698.671
                  24813696.389                          35.000          19.0004

 19  9 29 21  7 30.0000000  0 10G15G08G21G24G10G32G14G04G20G27
 119382389.370 8  93025236.80246                  22717707.850    22717707.301
                  22717702.066                          48.000          38.0004

 133217164.184 5 103805575.04443                  25350382.221    25350381.283
                  25350380.777                          35.000          18.0004

 114338574.841 8  89094990.56847                  21757904.566    21757903.746
                  21757898.352                          50.000          43.0004

 108525799.109 9  84565565.43548                  20651764.319    20651764.399
                  20651761.461                          54.000          48.0004

 112037991.899 8  87302331.03247                  21320112.536    21320112.342
                  21320109.052                          53.000          47.0004

 120642037.754 8  94006789.77446                  22957408.645    22957408.664
                  22957405.917                          48.000          37.0004

 131856410.344 6 102745254.67243                  25091438.892    25091438.751
                  25091435.926                          38.000          19.0004

 134217936.248 6 104585392.71643                  25540827.498    25540827.217
                  25540824.930                          36.000          21.0004

 105078212.648 8  81879132.95047                  19995711.626    19995710.259
                  19995704.937                          48.000          45.0004

 130450688.309 5 101649893.09343                  24823939.876    24823939.952
                  24823937.642                          33.000          18.0004

 19  9 29 21  8  0.0000000  0 10G15G08G21G24G10G32G14G04G20G27
 119469938.001 8  93093456.49746                  22734367.233    22734367.427
                  22734361.793                          48.000          38.0004

 133222809.087 6 103809973.64543                  25351456.476    25351456.564
                  25351454.908                          39.000          18.0004

 114395920.504 8  89139675.48947                  21768816.888    21768816.068
                  21768810.666                          51.000          43.0004

 108533595.365 8  84571640.44748                  20653248.188    20653247.873
                  20653245.129                          52.000          48.0004

 111976276.413 8  87254241.05647                  21308368.426    21308368.386
                  21308365.188                          53.000          47.0004

 120564581.808 7  93946434.55146                  22942669.208    22942669.545
                  22942666.346                          47.000          37.0004

 131769266.209 6 102677350.23643                  25074856.597    25074855.485
                  25074852.732                          37.000          20.0004

 134290907.411 5 104642253.31643                  25554713.273    25554712.513
                  25554710.095                          35.000          20.0004

 105064642.572 8  81868558.87347                  19993129.171    19993127.978
                  19993122.699                          49.000          45.0004

 130504867.787 6 101692110.84543                  24834249.653    24834249.955
                  24834247.420                          36.000          19.0004

 19  9 29 21  8 30.0000000  0 10G15G08G21G24G10G32G14G04G20G27
 119557592.967 8  93161759.05446                  22751048.219    22751047.145
                  22751041.729                          48.000          38.0004

 133228956.006 6 103814763.46543                  25352626.537    25352626.368
                  25352624.229                          39.000          21.0004

 114453677.134 8  89184680.64347                  21779807.673    21779806.773
                  21779801.487                          49.000          43.0004

 108542020.046 8  84578205.14148                  20654851.248    20654851.057
                  20654848.288                          52.000          48.0004

 111914785.733 8  87206326.25547                  21296667.222    21296667.128
                  21296663.851                          52.000          47.0004

 120487327.309 7  93886236.28846                  22927968.259    22927968.266
                  22927965.270                          46.000          37.0004

 131682238.588 6 102609536.56643                  25058295.928    25058294.526
                  25058291.841                          36.000          20.0004

 134364039.790 5 104699239.53642                  25568630.146    25568629.900
                  25568627.566                          35.000          17.0004

 105051487.905 7  81858308.49047                  19990626.031    19990624.840
                  19990619.339                          47.000          45.0004

 130559405.889 6 101734608.06843                  24844628.547    24844628.179
                  24844625.476                          37.000          18.0004

 19  9 29 21  9  0.0000000  0 10G15G08G21G24G10G32G14G04G20G27
 119645353.103 8  93230143.56546                  22767747.683    22767747.517
                  22767742.142                          50.000          38.0004

 133235603.855 6 103819943.59643                  25353891.616    25353891.013
                  25353889.223                          39.000          21.0004

 114511842.558 8  89230004.33847                  21790876.457    21790875.331
                  21790870.098                          50.000          43.0004

 108551072.386 8  84585258.92148                  20656573.924    20656573.662
                  20656570.862                          53.000          48.0004

 111853521.444 9  87158587.86247                  21285008.841    21285008.755
                  21285005.450                          54.000          47.0004

 120410274.729 7  93826195.36446                  22913305.778    22913305.703
                  22913302.635                          47.000          37.0004

 131595327.811 6 102541813.97243                  25041757.176    25041756.019
                  25041752.511                          36.000          19.0004

 134437330.138 6 104756348.84142                  25582577.125    25582577.022
                  25582574.258                          36.000          17.0004

 105038749.561 8  81848382.51547                  19988201.872    19988200.840
                  19988195.343                          49.000          45.0004

 130614300.003 6 101777382.66843                  24855074.281    24855073.623
                  24855071.988                          36.000          18.0004

 19  9 29 21  9 30.0000000  0 10G15G08G21G24G10G32G14G04G20G27
 119733215.642 8  93298607.86746                  22784467.623    22784467.192
                  22784461.891                          49.000          38.0004

 133242750.948 6 103825512.77243                  25355250.885    25355250.679
                  25355249.597                          38.000          20.0004

 114570414.263 8  89275644.61547                  21802022.126    21802021.197
                  21802015.938                          50.000          43.0004

 108560750.723 9  84592800.49648                  20658415.753    20658415.305
                  20658412.548                          54.000          48.0004

 111792483.990 8  87111026.22647                  21273394.021    21273393.685
                  21273390.256                          53.000          47.0004

 120333423.281 7  93766311.16846                  22898681.210    22898681.467
                  22898678.071                          46.000          37.0004

 131508533.307 6 102474181.96443                  25025240.604    25025239.852
                  25025235.894                          38.000          19.0004

 134510774.587 5 104813578.23642                  25596553.197    25596552.925
                  25596550.102                          35.000          15.0004

 105026427.725 7  81838781.09547                  19985856.983    19985856.009
                  19985850.497                          47.000          45.0004

 130669546.153 5 101820431.63543                  24865587.561    24865586.371
                  24865585.133                          35.000          18.0004

 19  9 29 21 10  0.0000000  0 10G15G08G21G24G10G32G14G04G20G27
 119821178.556 8  93367150.37246                  22801206.092    22801205.736
                  22801200.737                          49.000          38.0004

 133250395.118 6 103831469.25543                  25356706.512    25356706.468
                  25356704.168                          37.000          20.0004

 114629389.243 8  89321599.13347                  21813244.632    21813243.733
                  21813238.665                          50.000          43.0004

 108571052.947 8  84600828.20948                  20660376.265    20660375.955
                  20660372.973                          53.000          48.0004

 111731673.802 8  87063641.67347                  21261822.072    21261822.040
                  21261818.480                          53.000          47.0004

 120256772.141 7  93706583.05046                  22884094.735    22884095.161
                  22884091.700                          46.000          37.0004

 131421854.516 6 102406640.12843                  25008746.176    25008745.161
                  25008741.958                          36.000          19.0004

 134584369.005 5 104870924.48942                  25610557.813    25610557.858
                  25610555.447                          34.000          12.0004

 105014522.374 7  81829504.20247                  19983591.522    19983590.396
                  19983585.019                          47.000          45.0004

 130725140.546 6 101863751.92343                  24876167.270    24876166.073
                  24876164.124                          37.000          19.0004

 19  9 29 21 10 30.0000000  0 10G15G08G21G24G10G32G14G04G20G27
 119909237.998 8  93435768.10646                  22817963.428    22817963.067
                  22817957.892                          49.000          38.0004

 133258532.884 6 103837810.39343                  25358255.038    25358254.757
                  25358252.542                          39.000          20.0004

 114688763.684 8  89367864.91147                  21824543.348    21824542.264
                  21824537.212                          51.000          43.0004

 108581976.217 9  84609339.85848                  20662454.674    20662454.817
                  20662451.614                          54.000          48.0004

 111671090.135 8  87016433.63547                  21250293.418    21250293.408
                  21250290.061                          52.000          47.0004

 120180319.368 7  93647009.50846                  22869546.598    22869546.577
                  22869543.248                          47.000          37.0004

 131335289.567 6 102339186.98943                  24992272.866    24992272.499
                  24992268.508                          36.000          19.0004

 134658107.630 5 104928383.05542                  25624590.248    25624590.276
                  25624586.016                          35.000          12.0004

 105003032.388 7  81820550.97547                  19981405.131    19981403.839
                  19981398.576                          47.000          44.0004

 130781078.099 6 101907339.64443                  24886811.578    24886810.880
                  24886808.972                          39.000          21.0004

 19  9 29 21 11  0.0000000  0 10G15G08G21G24G10G32G14G04G20G27
 119997395.428 8  93504462.20046                  22834739.152    22834739.140
                  22834733.453                          48.000          37.0004

 133267166.518 6 103844537.91543                  25359897.368    25359896.699
                  25359895.482                          38.000          20.0004

 114748538.577 8  89414442.73647                  21835917.966    21835917.149
                  21835911.952                          50.000          42.0004

 108593522.283 9  84618336.80348                  20664652.169    20664652.181
                  20664648.700                          54.000          49.0004

 111610737.407 8  86969405.54947                  21238808.874    21238808.671
                  21238805.285                          52.000          47.0004

 120104068.138 7  93587593.00446                  22855036.354    22855036.049
                  22855032.843                          46.000          36.0004

 131248841.995 6 102271825.33743                  24975822.905    24975822.158
                  24975818.591                          37.000          20.0004

 134731990.643 5 104985954.18241                  25638649.764    25638649.450
                  25638647.133                          30.000           8.0004

 104991961.215 8  81811924.08947                  19979298.053    19979297.163
                  19979291.873                          48.000          45.0004

 130837358.829 6 101951194.76343                  24897521.997    24897521.006
                  24897518.792                          39.000          21.0004

 19  9 29 21 11 30.0000000  0 10G15G08G21G24G10G32G14G04G20G27
 120085653.152 7  93573234.43646                  22851534.209    22851533.637
                  22851528.701                          47.000          37.0004

 133276298.623 6 103851653.86543                  25361634.450    25361634.774
                  25361633.729                          38.000          21.0004

 114808715.736 8  89461334.01347                  21847369.592    21847368.307
                  21847363.212                          50.000          42.0004

 108605694.742 8  84627821.84248                  20666968.417    20666968.586
                  20666965.102                          53.000          49.0004

 111550620.844 8  86922561.48647                  21227368.818    21227368.717
                  21227365.295                          53.000          47.0004

 120028022.457 8  93528336.67446                  22840565.196    22840565.194
                  22840561.928                          48.000          37.0004

 131162515.722 6 102204558.17843                  24959395.602    24959394.660
                  24959391.261                          36.000          20.0004

 134806018.812 4                                  25652736.733
                                                        27.000

 104981314.083 8  81803627.62847                  19977271.996    19977270.877
                  19977265.708                          48.000          44.0004

 130893983.663 6 101995317.99143                  24908297.126    24908296.409
                  24908294.892                          40.000          23.0004

 19  9 29 21 12  0.0000000  0 10G15G08G21G24G10G32G14G04G20G27
 120174007.699 8  93642082.12346                  22868346.906    22868347.610
                  22868341.838                          49.000          37.0004

 133285925.777 6 103859155.56243                  25363466.989    25363466.724
                  25363465.534                          39.000          21.0004

 114869291.088 8  89508535.57347                  21858896.570    21858895.432
                  21858890.255                          49.000          42.0004

 108618490.055 9  84637792.22548                  20669403.176    20669403.516
                  20669399.971                          54.000          49.0004

 111490739.869 8  86875900.99647                  21215973.932    21215973.700
                  21215970.324                          53.000          47.0004

 119952180.465 7  93469239.04846                  22826132.972    22826133.170
                  22826129.507                          47.000          37.0004

 131076309.059 6 102137384.24743                  24942991.016    24942989.995
                  24942986.156                          37.000          20.0004

 134880186.132 5                                  25666850.342
                                                        30.000

 104971089.652 8  81795660.54247                  19975326.575    19975325.319
                  19975320.061                          48.000          45.0004

 130950947.608 6 102039705.45244                  24919136.681    24919135.975
                  24919133.880                          41.000          24.0004

 19  9 29 21 12 30.0000000  0  9G15G08G21G24G10G32G14G20G27
 120262456.220 8  93711003.02246                  22885178.238    22885178.772
                  22885173.315                          49.000          38.0004

 133296045.765 6 103867041.27743                  25365392.979    25365391.865
                  25365391.572                          37.000          21.0004

 114930261.318 8  89556044.82847                  21870498.921    21870497.661
                  21870492.510                          49.000          42.0004

 108631905.821 9  84648246.08048                  20671956.175    20671956.391
                  20671952.884                          55.000          49.0004

 111431094.516 8  86829424.11347                  21204623.670    21204623.513
                  21204620.222                          52.000          47.0004

 119876540.991 8  93410299.23846                  22811739.568    22811739.310
                  22811736.133                          48.000          38.0004

 130990221.208 6 102070302.87843                  24926607.863    24926607.978
                  24926604.210                          37.000          21.0004

 104961287.500 8  81788022.50547                  19973461.338    19973460.128
                  19973454.851                          49.000          45.0004

 131008246.319 7 102084353.78944                  24930040.713    24930039.978
                  24930037.496                          42.000          25.0004

 19  9 29 21 13  0.0000000  0  9G15G08G21G24G10G32G14G20G27
 120351000.835 8  93779998.81346                  22902027.960    22902028.285
                  22902022.919                          48.000          38.0004

 133306661.331 6 103875313.13943                  25367413.030    25367411.649
                  25367411.451                          36.000          20.0004

 114991628.369 8  89603863.29747                  21882176.680    21882175.481
                  21882170.387                          51.000          42.0004

 108645944.442 9  84659185.27448                  20674627.572    20674627.758
                  20674624.336                          55.000          49.0004

 111371689.916 8  86783134.82547                  21193319.414    21193319.199
                  21193315.748                          53.000          47.0004

 119801107.827 8  93351520.18546                  22797384.838    22797384.977
                  22797381.510                          48.000          38.0004

 130904256.068 6 102003317.13243                  24910250.354    24910249.267
                  24910246.082                          38.000          20.0004

 104951911.962 8  81780716.89747                  19971677.082    19971676.084
                  19971670.674                          48.000          44.0004

 131065880.511 6 102129263.52844                  24941007.338    24941007.023
                  24941005.046                          40.000          26.0004

 19  9 29 21 13 30.0000000  0  8G15G21G24G10G32G14G20G27
 120439641.953 8  93849069.79046                  22918896.080    22918895.964
                  22918890.775                          48.000          38.0004

 115053391.741 8  89651990.58947                  21893929.952    21893928.830
                  21893923.618                          49.000          42.0004

 108660607.366 8  84670610.93748                  20677417.855    20677417.918
                  20677414.686                          52.000          49.0004

 111312529.204 8  86737035.57647                  21182061.768    21182061.199
                  21182057.811                          52.000          47.0004

 119725882.894 8  93292903.39046                  22783070.314    22783069.976
                  22783066.760                          49.000          38.0004

 130818415.471 6 101936428.43843                  24893914.766    24893914.312
                  24893910.534                          37.000          20.0004

 104942965.563 8  81773745.67747                  19969974.929    19969973.508
                  19969968.144                          48.000          44.0004

 131123848.991 6 102174433.74544                  24952038.865    24952038.445
                  24952036.320                          38.000          26.0004

 19  9 29 21 14  0.0000000  0  8G15G21G24G10G32G14G20G27
 120528374.006 8  93918211.64746                  22935780.976    22935781.266
                  22935775.957                          50.000          38.0004

 115115545.415 8  89700422.01647                  21905756.953    21905756.208
                  21905751.104                          50.000          42.0004

 108675888.706 9  84682518.48348                  20680326.098    20680325.864
                  20680322.615                          54.000          49.0004

 111253609.678 8  86691124.27247                  21170849.033    21170849.248
                  21170845.791                          53.000          47.0004

 119650862.206 8  93234445.74346                  22768794.038    22768793.675
                  22768790.790                          48.000          38.0004

 130732695.631 5 101869633.84843                  24877603.192    24877602.065
                  24877598.664                          35.000          20.0004

 104934445.401 8  81767106.59247                  19968353.321    19968352.253
                  19968346.863                          48.000          45.0004

 131182144.541 6 102219858.82444                  24963132.147    24963132.102
                  24963129.766                          38.000          26.0004

 19  9 29 21 14 30.0000000  0  8G15G21G24G10G32G14G20G27
 120617196.712 8  93987424.13246                  22952683.400    22952683.735
                  22952678.062                          48.000          37.0004

 115178088.676 8  89749157.00746                  21917658.702    21917657.561
                  21917652.536                          50.000          41.0004

 108691789.398 9  84694908.64548                  20683351.594    20683351.650
                  20683348.266                          54.000          48.0004

 111194934.166 9  86645403.10648                  21159683.562    21159683.764
                  21159680.360                          54.000          48.0004

 119576047.234 8  93176148.40846                  22754557.176    22754556.690
                  22754554.158                          48.000          38.0004

 130647098.158 6 101802934.61143                  24861313.772    24861313.596
                  24861310.155                          37.000          19.0004

 104926353.699 8  81760801.37647                  19966813.561    19966812.570
                  19966807.209                          48.000          44.0004

 131240765.584 6 102265537.53944                  24974287.520    24974287.071
                  24974284.629                          39.000          26.0004

 19  9 29 21 15  0.0000000  0  8G15G21G24G10G32G14G20G27
 120706109.758 8  94056707.00746                  22969603.046    22969602.858
                  22969597.550                          48.000          37.0004

 115241020.547 8  89798194.82247                  21929634.445    21929633.186
                  21929628.190                          52.000          42.0004

 108708308.488 8  84707780.67048                  20686495.207    20686495.197
                  20686491.660                          53.000          49.0004

 111136504.987 8  86599873.88847                  21148565.219    21148565.018
                  21148561.542                          50.000          47.0004

 119501439.040 7  93118012.18846                  22740359.370    22740359.479
                  22740356.598                          45.000          38.0004

 130561624.461 6 101736331.82643                  24845049.107    24845048.614
                  24845044.731                          37.000          21.0004

 104918691.851 8  81754831.11447                  19965355.537    19965354.576
                  19965349.133                          49.000          45.0004

 131299709.947 6 102311468.19344                  24985504.531    24985503.699
                  24985501.698                          38.000          26.0004

 19  9 29 21 15 30.0000000  0  8G15G21G24G10G32G14G20G27
 120795111.030 8  94126058.64046                  22986539.518    22986539.334
                  22986533.780                          48.000          37.0004

 115304338.458 8  89847533.43947                  21941683.271    21941682.327
                  21941677.307                          51.000          42.0004

 108725444.897 9  84721133.72548                  20689756.178    20689756.059
                  20689752.467                          54.000          49.0004

 111078323.221 8  86554537.46447                  21137493.482    21137493.314
                  21137489.875                          52.000          47.0004

 119427037.406 7  93060036.92346                  22726201.376    22726201.337
                  22726198.231                          46.000          38.0004

 130476274.228 6 101669825.26043                  24828807.478    24828806.832
                  24828803.031                          38.000          20.0004

 104911460.710 7  81749196.46447                  19963979.158    19963978.501
                  19963972.970                          47.000          44.0004

 131358974.289 6 102357648.19044                  24996781.807    24996781.271
                  24996779.489                          41.000          26.0004

 19  9 29 21 16  0.0000000  0  8G15G21G24G10G32G14G20G27
 120884199.804 7  94195478.45146                  23003492.856    23003492.461
                  23003486.644                          47.000          37.0004

 115368040.897 8  89897171.69447                  21953805.519    21953804.628
                  21953799.305                          50.000          42.0004

 108743197.891 8  84734967.23248                  20693134.442    20693134.344
                  20693130.729                          53.000          48.0004

 111020390.837 8  86509395.36448                  21126469.438    21126469.149
                  21126465.768                          50.000          48.0004

 119352842.967 8  93002223.10146                  22712082.560    22712082.668
                  22712079.599                          48.000          38.0004

 130391048.267 6 101603415.52943                  24812589.025    24812588.678
                  24812584.912                          37.000          21.0004

 104904661.282 7  81743898.20947                  19962685.374    19962684.722
                  19962679.184                          47.000          44.0004

 131418556.108 6 102404075.57944                  25008120.102    25008119.272
                  25008117.598                          40.000          26.0004

 19  9 29 21 16 30.0000000  0  8G15G21G24G10G32G14G20G27
 120973372.822 8  94264963.91346                  23020461.648    23020461.477
                  23020456.219                          48.000          37.0004

 115432123.638 8  89947106.27646                  21966000.014    21965999.119
                  21965993.984                          48.000          41.0004

 108761564.046 9  84749278.52848                  20696629.281    20696629.136
                  20696625.682                          54.000          49.0004

 110962707.052 8  86464446.97647                  21115492.639    21115492.410
                  21115489.007                          53.000          47.0004

 119278853.581 7  92944569.07046                  22698002.741    22698003.100
                  22697999.967                          47.000          38.0004

 130305944.735 6 101537101.19343                  24796394.500    24796394.036
                  24796390.039                          38.000          21.0004

 104898292.247 8  81738935.32647                  19961473.767    19961472.704
                  19961467.136                          48.000          45.0004

 131478450.090 6 102450746.20044                  25019517.292    25019516.705
                  25019515.099                          39.000          25.0004

 19  9 29 21 17  0.0000000  0  9G15G21G24G10G32G12G14G20G27
 121062627.447 8  94334512.96046                  23037446.215    23037446.082
                  23037441.043                          48.000          37.0004

 115496584.148 8  89997335.23046                  21978266.592    21978265.574
                  21978260.398                          48.000          41.0004

 108780541.373 8  84764066.06048                  20700240.566    20700240.302
                  20700236.989                          53.000          49.0004

 110905272.966 8  86419693.15548                  21104563.192    21104563.152
                  21104559.540                          53.000          48.0004

 119205069.068 7  92887074.68346                  22683961.981    22683962.151
                  22683959.268                          47.000          39.0004

 131896241.467 6                                  25099019.314
                                                        37.000

 130220963.390 6 101470882.05343                  24780222.814    24780222.688
                  24780218.846                          39.000          21.0004

 104892354.298 8  81734308.35847                  19960343.848    19960342.731
                  19960337.109                          49.000          45.0004

 131538652.878 6 102497657.42444                  25030973.181    25030972.827
                  25030970.888                          37.000          24.0004

 19  9 29 21 17 30.0000000  0  9G15G21G24G10G32G12G14G20G27
 121151966.093 8  94404127.48546                  23054446.862    23054446.590
                  23054441.863                          48.000          37.0004

 115561423.424 8  90047859.32546                  21990605.019    21990603.956
                  21990598.751                          49.000          41.0004

 108800132.274 9  84779331.70448                  20703968.833    20703968.237
                  20703965.035                          54.000          48.0004

 110848093.295 8  86375137.57847                  21093682.044    21093682.026
                  21093678.453                          53.000          47.0004

 119131492.779 8  92829742.54846                  22669961.014    22669960.984
                  22669958.001                          48.000          38.0004

 131806439.133 6 102706307.15042                  25081930.249    25081930.243
                  25081926.805                          36.000          15.0004

 130136107.803 6 101404760.92843                  24764075.534    24764075.082
                  24764071.428                          38.000          21.0004

 104886851.007 8  81730020.08447                  19959296.303    19959295.465
                  19959289.865                          48.000          44.0004

 131599164.655 6 102544809.42744                  25042488.302    25042488.581
                  25042486.347                          37.000          24.0004

 19  9 29 21 18  0.0000000  0 10G15G21G24G10G32G12G14G20G04G27
 121241383.713 8  94473803.53346                  23071462.350    23071462.493
                  23071457.251                          49.000          37.0004

 115626636.131 8  90098674.41346                  22003014.749    22003013.495
                  22003008.500                          50.000          41.0004

 108820331.867 8  84795071.65148                  20707812.646    20707812.001
                  20707808.839                          53.000          49.0004

 110791165.867 8  86330778.56247                  21082849.159    21082849.027
                  21082845.757                          53.000          47.0004

 119058121.224 8  92772569.94646                  22655998.875    22655998.808
                  22655995.578                          48.000          38.0004

 131716663.619 6 102636352.26242                  25064847.183    25064846.147
                  25064842.620                          38.000          16.0004

 130051374.668 6 101338735.18343                  24747951.256    24747951.303
                  24747947.057                          39.000          22.0004

 104881779.616 7  81726068.35547                  19958331.261    19958330.362
                  19958324.820                          47.000          44.0004

 135780060.101 5 105802635.06941                  25838086.779
                  25838085.032                          35.000           7.0004

 131659978.691 6 102592196.95443                  25054061.375    25054060.739
                  25054058.304                          37.000          23.0004

 19  9 29 21 18 30.0000000  0 10G15G21G24G10G32G12G14G20G04G27
 121330883.850 7  94543543.87446                  23088493.555    23088493.345
                  23088488.307                          46.000          36.0004

 115692224.818 8  90149782.45946                  22015495.885    22015494.682
                  22015489.745                          50.000          41.0004

 108841144.020 8  84811288.92148                  20711773.036    20711772.268
                  20711769.382                          53.000          48.0004

 110734497.309 8  86286621.25847                  21072065.604    21072065.491
                  21072062.206                          52.000          47.0004

 118984959.643 7  92715560.95346                  22642076.794    22642076.731
                  22642073.345                          47.000          38.0004

 131626923.512 6 102566425.02942                  25047769.002    25047768.809
                  25047766.327                          37.000          15.0004

 129966769.354 6 101272809.07243                  24731851.730    24731850.988
                  24731846.799                          39.000          21.0004

 104877146.486 8  81722458.12947                  19957449.619    19957448.571
                  19957443.091                          49.000          44.0004

 135855772.976 5 105861631.48142                  25852493.040    25852490.971
                  25852493.043                          33.000          12.0004

 131721097.112 6 102639821.65843                  25065691.788    25065690.939
                  25065689.025                          36.000          23.0004

 19  9 29 21 19  0.0000000  0 10G15G21G24G10G32G12G14G20G04G27
 121420462.146 7  94613345.13646                  23105539.890    23105539.143
                  23105534.069                          47.000          36.0004

 115758184.480 8  90201179.58046                  22028047.449    22028046.725
                  22028041.321                          50.000          41.0004

 108862564.359 9  84827980.10148                  20715849.181    20715848.401
                  20715845.638                          54.000          48.0004

 110678086.035 8  86242664.43448                  21061330.805    21061330.688
                  21061327.436                          52.000          48.0004

 118912005.096 7  92658713.29246                  22628193.968    22628193.654
                  22628190.392                          45.000          38.0004

 131537218.788 6 102496525.34742                  25030698.867    25030698.772
                  25030696.041                          36.000          16.0004

 129882288.978 6 101206980.30243                  24715774.736    24715774.913
                  24715770.034                          40.000          22.0004

 104872949.045 8  81719187.39947                  19956650.879    19956649.852
                  19956644.377                          48.000          44.0004

 135931582.629 5 105920707.88841                  25866920.434    25866919.453
                  25866921.215                          33.000          11.0004

 131782513.800 5 102687678.78343                  25077378.273    25077378.076
                  25077375.972                          34.000          22.0004

 19  9 29 21 19 30.0000000  0 10G15G21G24G10G32G12G14G20G04G27
 121510119.073 8  94683207.67346                  23122600.830    23122601.006
                  23122595.438                          48.000          36.0004

 115824514.799 8  90252865.53046                  22040669.831    22040668.765
                  22040663.665                          48.000          41.0004

 108884593.023 8  84845145.30248                  20720040.927    20720040.408
                  20720037.530                          53.000          48.0004

 110621934.938 9  86198910.34748                  21050645.483    21050645.523
                  21050642.217                          54.000          48.0004

 118839259.388 7  92602028.35946                  22614350.391    22614350.783
                  22614347.389                          46.000          38.0004

 131447554.288 6 102426657.01542                  25013636.744    25013636.200
                  25013633.371                          38.000          16.0004

 129797935.610 6 101141250.50543                  24699723.634    24699723.079
                  24699717.947                          40.000          22.0004

 104869189.735 7  81716258.06747                  19955935.731    19955934.524
                  19955929.071                          47.000          44.0004

 136007487.328 6 105979854.32541                  25881364.245    25881363.827
                  25881361.576                          36.000          11.0004

 131844227.378 6 102735767.25043                  25089122.019    25089121.732
                  25089119.924                          37.000          20.0004

 19  9 29 21 20  0.0000000  0 10G15G21G24G10G32G12G14G20G04G27
 121599851.888 8  94753129.32445                  23139676.454    23139676.042
                  23139670.935                          48.000          35.0004

 115891212.294 8  90304837.58646                  22053361.790    22053360.718
                  22053355.685                          49.000          41.0004

 108907227.376 8  84862782.46748                  20724348.272    20724347.711
                  20724344.677                          53.000          49.0004

 110566044.766 8  86155359.57548                  21040010.280    21040010.037
                  21040006.558                          52.000          48.0004

 118766721.354 8  92545505.24846                  22600547.036    22600547.152
                  22600543.709                          49.000          38.0004

 131357931.459 6 102356821.16342                  24996580.914    24996580.653
                  24996578.377                          36.000          17.0004

 129713708.041 6 101075618.72743                  24683695.043    24683694.820
                  24683689.900                          38.000          21.0004

 104865868.051 8  81713669.74347                  19955303.426    19955302.493
                  19955296.930                          48.000          44.0004

 136083482.444 6 106039071.25143                  25895826.235    25895824.842
                  25895821.935                          36.000          18.0004

 131906233.473 5 102784083.63443                  25100921.289    25100921.296
                  25100919.540                          35.000          22.0004

 19  9 29 21 20 30.0000000  0 10G15G21G24G10G32G12G14G20G04G27
 121689659.650 8  94823109.38846                  23156766.537    23156766.346
                  23156761.183                          48.000          36.0004

 115958275.131 8  90357094.33346                  22066123.281    22066122.275
                  22066117.548                          48.000          40.0004

 108930466.693 8  84880891.03448                  20728770.410    20728770.122
                  20728767.009                          53.000          48.0004

 110510417.184 8  86112013.42048                  21029424.522    21029424.366
                  21029420.845                          53.000          48.0004

 118694391.492 8  92489144.36146                  22586783.360    22586783.351
                  22586779.905                          48.000          38.0004

 131268353.926 6 102287020.60742                  24979535.218    24979534.199
                  24979531.790                          37.000          17.0004

 129629607.151 6 101010085.64143                  24667690.598    24667690.473
                  24667686.245                          37.000          21.0004

 104862984.924 8  81711423.15447                  19954754.621    19954754.033
                  19954748.335                          48.000          44.0004

 136159565.672 5 106098356.84542                  25910303.446    25910303.327
                  25910300.622                          35.000          16.0004

 131968529.391 6 102832625.86343                  25112775.673    25112775.984
                  25112773.993                          36.000          21.0004

 19  9 29 21 21  0.0000000  0 10G15G21G24G10G32G12G14G20G04G27
 121779540.448 7  94893146.35546                  23173870.328    23173870.068
                  23173865.295                          47.000          36.0004

 116025700.336 8  90409633.43046                  22078954.248    22078952.717
                  22078948.115                          49.000          40.0004

 108954308.554 9  84899469.11348                  20733307.420    20733307.129
                  20733304.049                          54.000          49.0004

 110455052.975 8  86068872.49048                  21018889.280    21018889.083
                  21018885.274                          52.000          48.0004

 118622269.268 7  92432945.26146                  22573058.924    22573058.893
                  22573055.454                          47.000          39.0004

 131178823.731 6 102217256.95143                  24962497.426    24962498.022
                  24962494.645                          40.000          19.0004

 129545632.093 6 100944650.62543                  24651710.529    24651710.559
                  24651706.323                          39.000          21.0004

 104860540.731 8  81709518.59147                  19954289.873    19954288.951
                  19954283.254                          49.000          45.0004

 136235732.884 6 106157707.87442                  25924798.708    25924797.385
                  25924795.107                          36.000          15.0004

 132031111.448 5 102881391.05443                  25124683.915    25124684.478
                  25124683.110                          35.000          20.0004

 19  9 29 21 21 30.0000000  0 10G15G21G24G10G32G12G14G20G04G27
 121869496.028 7  94963241.60146                  23190988.281    23190987.970
                  23190983.262                          47.000          36.0004

 116093489.351 8  90462456.01846                  22091853.848    22091853.020
                  22091847.777                          50.000          40.0004

 108978755.082 8  84918518.37148                  20737959.207    20737959.213
                  20737956.040                          53.000          48.0004

 110399957.190 8  86025940.71748                  21008404.790    21008404.601
                  21008400.954                          52.000          48.0004

 118550358.297 8  92376910.77446                  22559374.877    22559374.663
                  22559371.092                          49.000          39.0004

 131089347.818 6 102147535.58843                  24945471.658    24945471.274
                  24945467.088                          41.000          20.0004

 129461787.031 6 100879316.88243                  24635755.841    24635755.484
                  24635751.030                          37.000          21.0004

 104858539.980 8  81707959.56447                  19953909.006    19953908.063
                  19953902.460                          48.000          44.0004

 136311984.887 5 106217125.01342                  25939308.736    25939307.260
                  25939304.325                          32.000          12.0004

 132093980.047 6 102930379.52043                  25136648.772    25136648.052
                  25136646.417                          37.000          20.0004

 19  9 29 21 22  0.0000000  0 10G15G21G24G10G32G12G14G20G04G27
 121959523.589 7  95033392.91545                  23208120.136    23208119.761
                  23208114.906                          47.000          35.0004

 116161637.994 8  90515558.84846                  22104822.131    22104821.446
                  22104815.979                          49.000          40.0004

 109003802.945 9  84938036.18948                  20742725.729    20742725.688
                  20742722.499                          54.000          48.0004

 110345129.372 8  85983217.75148                  20997971.016    20997970.893
                  20997967.609                          52.000          48.0004

 118478656.702 8  92321039.43146                  22545730.404    22545730.321
                  22545726.693                          50.000          39.0004

 130999926.944 6 102077857.11443                  24928455.488    24928455.163
                  24928451.704                          40.000          20.0004

 129378070.099 6 100814082.99143                  24619825.497    24619824.876
                  24619819.458                          39.000          21.0004

 104856980.669 8  81706744.51947                  19953612.426    19953611.430
                  19953605.577                          48.000          45.0004

 136388316.420 6 106276604.02543                  25953834.361    25953833.407
                  25953830.831                          39.000          23.0004

 132157130.048 6 102979587.27843                  25148665.986    25148665.397
                  25148663.486                          37.000          21.0004

 19  9 29 21 22 30.0000000  0 10G15G21G24G10G32G12G14G20G04G27
 122049620.684 7  95103598.42945                  23225265.028    23225264.555
                  23225259.740                          46.000          35.0004

 116230143.603 8  90568939.83046                  22117858.449    22117857.425
                  22117852.100                          49.000          40.0004

 109029449.505 9  84958020.52748                  20747605.981    20747605.914
                  20747602.963                          54.000          49.0004

 110290569.979 8  85940703.94647                  20987588.808    20987588.777
                  20987585.206                          53.000          47.0004

 118407163.534 8  92265330.49746                  22532125.625    22532125.597
                  22532122.051                          49.000          40.0004

 130910563.132 6 102008223.08843                  24911449.454    24911449.785
                  24911446.593                          41.000          22.0004

 129294480.270 6 100748948.13143                  24603918.319    24603917.786
                  24603913.263                          38.000          21.0004

 104855862.995 8  81705873.60347                  19953399.641    19953398.807
                  19953392.939                          48.000          44.0004

 136464722.628 5 106336141.30143                  25968372.732    25968372.865
                  25968370.599                          33.000          21.0004

 132220557.333 6 103029011.12443                  25160735.285    25160734.796
                  25160733.434                          36.000          21.0004

 19  9 29 21 23  0.0000000  0 10G15G21G24G10G32G12G14G20G04G27
 122139784.744 8  95173856.12345                  23242422.630    23242422.616
                  23242417.195                          48.000          35.0004

 116299002.270 8  90622595.91446                  22130961.732    22130960.656
                  22130955.417                          49.000          40.0004

 109055692.608 8  84978469.70148                  20752600.108    20752599.801
                  20752596.965                          53.000          48.0004

 110236279.417 8  85898399.62048                  20977257.780    20977257.659
                  20977253.962                          52.000          48.0004

 118335877.810 8  92209783.21346                  22518560.352    22518560.176
                  22518556.874                          49.000          40.0004

 130821258.528 6 101938635.20443                  24894455.787    24894455.100
                  24894452.009                          39.000          22.0004

 129211016.933 6 100683911.84943                  24588036.181    24588035.141
                  24588030.729                          38.000          21.0004

 104855186.408 8  81705346.39447                  19953270.860    19953269.915
                  19953264.308                          49.000          45.0004

 136541200.781 6 106395734.65042                  25982927.064    25982925.852
                  25982924.385                          36.000          12.0004

 132284257.756 6 103078647.78643                  25172857.847    25172857.177
                  25172855.162                          39.000          20.0004

 19  9 29 21 23 30.0000000  0 10G15G21G24G10G32G12G14G20G04G27
 122230010.931 7  95244162.23345                  23259592.332    23259592.023
                  23259586.375                          46.000          35.0004

 116368208.174 8  90676522.57246                  22144131.057    22144130.085
                  22144125.171                          49.000          40.0004

 109082526.746 8  84999379.42648                  20757706.284    20757706.117
                  20757703.309                          53.000          48.0004

 110182255.596 8  85856303.15247                  20966977.472    20966977.218
                  20966973.544                          52.000          47.0004

 118264795.983 7  92154394.81346                  22505033.732    22505033.763
                  22505030.511                          47.000          39.0004

 130732012.278 6 101869092.80143                  24877472.105    24877471.904
                  24877469.193                          39.000          23.0004

 129127676.445 6 100618971.27943                  24572176.740    24572175.982
                  24572171.356                          38.000          21.0004

 104854947.971 7  81705160.59947                  19953225.568    19953224.636
                  19953218.993                          47.000          45.0004

 136617743.186 6 106455378.02443                  25997492.937    25997491.895
                  25997489.880                          37.000          18.0004

 132348224.536 7 103128492.03843                  25185030.411    25185029.782
                  25185027.203                          42.000          20.0004

 19  9 29 21 24  0.0000000  0 10G15G21G24G10G32G12G14G20G04G27
 122320303.781 8  95314520.28446                  23276774.025    23276774.274
                  23276769.422                          48.000          36.0004

 116437764.636 8  90730722.39146                  22157367.274    22157366.072
                  22157361.282                          49.000          39.0004

 109109956.568 8  85020753.31948                  20762926.020    20762925.917
                  20762923.040                          53.000          48.0004

 110128505.754 9  85814420.17248                  20956749.336    20956748.971
                  20956745.434                          54.000          48.0004

 118193923.840 8  92099169.80646                  22491547.092    22491547.290
                  22491543.927                          48.000          39.0004

 130642833.162 6 101799602.70143                  24860502.279    24860501.526
                  24860498.352                          39.000          22.0004

 129044465.075 6 100554131.31443                  24556342.614    24556341.429
                  24556336.904                          39.000          21.0004

 104855154.061 8  81705321.19347                  19953264.861    19953263.747
                  19953258.110                          48.000          44.0004

 136694352.545 6 106515073.55942                  26012071.001    26012069.853
                  26012068.302                          40.000          16.0004

 132412460.289 6 103178545.88543                  25197253.353    25197253.589
                  25197250.805                          41.000          21.0004

 19  9 29 21 24 30.0000000  0 10G15G21G24G10G32G12G14G20G04G27
 122410661.454 7  95384928.84545                  23293968.647    23293968.508
                  23293963.660                          47.000          35.0004

 116507668.801 7  90785193.15846                  22170669.676    22170668.490
                  22170663.624                          47.000          39.0004

 109137979.548 8  85042589.41048                  20768258.585    20768258.564
                  20768255.496                          53.000          48.0004

 110075030.785 8  85772751.37548                  20946573.195    20946572.883
                  20946569.555                          53.000          48.0004

 118123260.870 8  92044107.79246                  22478100.190    22478100.270
                  22478097.098                          48.000          39.0004

 130553723.865 6 101730167.00643                  24843544.818    24843544.954
                  24843541.468                          40.000          23.0004

 128961382.204 6 100489391.48443                  24540531.823    24540531.430
                  24540526.849                          38.000          21.0004

 104855804.874 8  81705828.32147                  19953388.442    19953387.487
                  19953382.057                          49.000          44.0004

 136771024.594 5 106574817.93942                  26026660.672    26026660.688
                  26026660.267                          32.000          15.0004

 132476961.211 6 103228806.32243                  25209527.553    25209527.535
                  25209525.250                          40.000          22.0004

 19  9 29 21 25  0.0000000  0 10G15G21G24G10G32G12G14G20G04G27
 122501082.843 8  95455387.05146                  23311175.195    23311175.868
                  23311170.958                          48.000          36.0004

 116577919.109 8  90839933.63146                  22184038.112    22184036.927
                  22184031.946                          48.000          40.0004

 109166594.115 9  85064886.48347                  20773703.692    20773703.481
                  20773700.606                          54.000          47.0004

 110021832.807 8  85731298.41648                  20936450.207    20936449.764
                  20936446.352                          53.000          48.0004

 118052807.736 8  91989209.28146                  22464693.354    22464693.616
                  22464690.412                          49.000          39.0004

 130464687.746 7 101660788.30944                  24826602.580    24826602.011
                  24826597.902                          42.000          24.0004

 128878428.538 6 100424752.30843                  24524745.806    24524745.583
                  24524740.929                          38.000          22.0004

 104856901.487 8  81706682.82747                  19953597.284    19953596.306
                  19953590.739                          49.000          44.0004

 136847758.222 4 106634610.33541                  26041264.546    26041261.897
                  26041260.701                          27.000           7.0004

 132541724.802 6 103279271.42143                  25221852.129    25221851.675
                  25221849.559                          39.000          22.0004

 19  9 29 21 25 30.0000000  0 10G15G21G24G10G32G12G14G20G04G27
 122591566.417 7  95525893.71946                  23328393.943    23328393.958
                  23328388.607                          47.000          36.0004

 116648512.951 8  90894941.80446                  22197471.365    22197470.561
                  22197465.304                          49.000          40.0004

 109195798.560 9  85087643.19648                  20779261.256    20779260.687
                  20779257.975                          54.000          48.0004

 109968912.776 8  85690062.03848                  20926379.709    20926379.298
                  20926375.901                          53.000          48.0004

 117982563.983 8  91934473.92146                  22451326.470    22451326.670
                  22451323.370                          49.000          39.0004

 130375727.274 7 101591468.55644                  24809673.620    24809673.497
                  24809668.949                          42.000          24.0004

 128795603.973 6 100360213.74443                  24508985.392    24508984.724
                  24508980.201                          39.000          22.0004

 104858444.105 8  81707884.86747                  19953890.643    19953889.843
                  19953884.243                          48.000          45.0004

 136924549.401 5 106694447.52841                  26055875.280    26055874.428
                  26055873.881                          32.000          10.0004

 132606747.426 6 103329938.40443                  25234225.334    25234224.299
                  25234223.191                          39.000          22.0004

 19  9 29 21 26  0.0000000  0 10G15G21G24G10G32G12G14G20G04G27
 122682112.695 7  95596449.23046                  23345624.544    23345624.357
                  23345619.308                          47.000          36.0004

 116719449.884 8  90950217.31946                  22210970.027    22210969.289
                  22210964.260                          49.000          40.0004

 109225593.361 8  85110859.92948                  20784931.052    20784930.294
                  20784927.766                          53.000          48.0004

 109916273.989 8  85649044.81448                  20916362.658    20916362.405
                  20916359.078                          52.000          48.0004

 117912531.426 8  91879903.12546                  22437999.792    22437999.979
                  22437996.682                          49.000          39.0004

 130286847.541 7 101522211.69444                  24792760.157    24792760.416
                  24792755.743                          42.000          24.0004

 128712910.191 6 100295777.10143                  24493248.777    24493248.550
                  24493244.050                          39.000          23.0004

 104860434.939 8  81709436.16947                  19954269.505    19954268.674
                  19954263.036                          49.000          45.0004

 137001396.546 4 106754325.47941                  26070500.943    26070498.963
                  26070496.903                          29.000           8.0004

 132672027.658 6 103380806.10143                  25246647.666    25246647.203
                  25246644.873                          40.000          22.0004

 19  9 29 21 26 30.0000000  0 10G15G21G24G10G32G12G14G20G04G27
 122772718.888 8  95667051.45445                  23362865.854    23362866.372
                  23362860.707                          49.000          35.0004

 116790726.119 8  91005757.22246                  22224533.797    22224532.833
                  22224527.588                          49.000          40.0004

 109255975.147 9  85134534.05048                  20790712.560    20790711.972
                  20790709.116                          54.000          48.0004

 109863916.659 8  85608246.90948                  20906399.360    20906399.202
                  20906395.817                          53.000          48.0004

 117842708.769 8  91825495.89446                  22424713.378    22424713.194
                  22424709.900                          49.000          40.0004

 130198050.255 7 101453019.10044                  24775862.496    24775862.469
                  24775858.741                          44.000          25.0004

 128630346.235 6 100231441.61143                  24477537.322    24477536.985
                  24477532.565                          38.000          23.0004

 104862873.352 8  81711336.23547                  19954733.997    19954732.643
                  19954727.059                          49.000          44.0004

 137078295.425 6 106814256.58442                  26085133.297    26085130.823
                  26085129.929                          37.000          16.0004

 132737561.025 6 103431871.02643                  25259118.985    25259117.799
                  25259116.117                          38.000          23.0004

 19  9 29 21 27  0.0000000  0 10G15G21G24G10G32G12G14G20G04G27
 122863384.614 8  95737700.04245                  23380119.324    23380119.097
                  23380114.163                          48.000          35.0004

 116862339.571 8  91061559.89046                  22238161.546    22238160.558
                  22238155.208                          49.000          40.0004

 109286942.911 8  85158664.77848                  20796605.340    20796605.036
                  20796601.965                          53.000          48.0004

 109811843.059 9  85567670.08848                  20896490.099    20896489.856
                  20896486.481                          54.000          48.0004

 117773096.878 8  91771252.89246                  22411466.437    22411466.402
                  22411463.179                          48.000          40.0004

 130109339.112 7 101383893.63044                  24758981.168    24758981.212
                  24758977.694                          42.000          26.0004

 128547913.101 6 100167208.06943                  24461850.171    24461849.877
                  24461846.336                          39.000          23.0004

 104865760.824 8  81713586.21547                  19955283.169    19955282.182
                  19955276.491                          48.000          45.0004

 137155242.799 6 106874215.44642                  26099776.262    26099775.439
                  26099772.646                          39.000          15.0004

 132803345.123 6 103483131.32943                  25271636.658    25271636.350
                  25271634.127                          40.000          23.0004

 19  9 29 21 27 30.0000000  0  9G15G21G24G10G32G12G14G20G27
 122954108.488 7  95808393.96845                  23397383.469    23397383.739
                  23397377.977                          47.000          35.0004

 116934288.173 8  91117623.71946                  22251852.820    22251851.814
                  22251846.497                          49.000          40.0004

 109318495.307 8  85183251.06748                  20802609.640    20802609.308
                  20802606.193                          53.000          48.0004

 109760054.382 8  85527315.28748                  20886635.227    20886634.572
                  20886631.384                          53.000          48.0004

 117703695.470 8  91717173.89146                  22398259.904    22398259.641
                  22398256.327                          49.000          40.0004

 130020716.982 7 101314837.52144                  24742116.942    24742116.823
                  24742113.501                          43.000          26.0004

 128465610.440 6 100103076.18743                  24446188.814    24446188.121
                  24446184.587                          38.000          22.0004

 104869097.543 7  81716186.25547                  19955917.856    19955917.073
                  19955911.410                          47.000          45.0004

 132869376.460 6 103534584.30844                  25284202.458    25284202.081
                  25284199.549                          39.000          24.0004

 19  9 29 21 28  0.0000000  0  9G15G21G24G10G32G12G14G20G27
 123044887.619 7  95879130.93745                  23414657.983    23414657.645
                  23414652.800                          47.000          34.0004

 117006567.923 8  91173945.58546                  22265607.392    22265606.325
                  22265600.996                          49.000          40.0004

 109350628.190 8  85208289.68748                  20808724.311    20808724.105
                  20808720.994                          52.000          48.0004

 109708550.695 8  85487182.55547                  20876834.050    20876833.920
                  20876830.526                          52.000          47.0004

 117634503.128 8  91663257.80446                  22385093.054    22385092.779
                  22385089.360                          49.000          40.0004

 129932185.320 7 101245851.91544                  24725269.355    24725269.593
                  24725265.981                          43.000          26.0004

 128383437.077 6 100039045.06043                  24430552.272    24430550.807
                  24430547.279                          37.000          22.0004

 104872882.613 7  81719135.66447                  19956638.141    19956637.271
                  19956631.686                          47.000          44.0004

 132935650.403 6 103586226.29144                  25296814.443    25296813.511
                  25296811.215                          40.000          25.0004

 19  9 29 21 28 30.0000000  0  9G15G21G24G10G32G12G14G20G27
 123135723.151 7  95949911.84745                  23431943.395    23431943.263
                  23431938.417                          46.000          34.0004

 117079178.927 8  91230525.57246                  22279424.577    22279423.989
                  22279418.334                          49.000          40.0004

 109383343.031 9  85233781.77747                  20814949.698    20814949.787
                  20814946.479                          54.000          47.0004

 109657336.043 8  85447275.04448                  20867088.428    20867088.106
                  20867084.722                          53.000          48.0004

 117565522.403 8  91609506.61146                  22371965.840    22371966.103
                  22371962.949                          48.000          40.0004

 129843749.826 7 101176941.25344                  24708440.890    24708440.876
                  24708437.209                          44.000          26.0004

 128301395.397 6  99975116.54443                  24414939.471    24414939.179
                  24414935.222                          36.000          22.0004

 104877119.033 8  81722436.77647                  19957444.472    19957443.425
                  19957437.846                          48.000          45.0004

 133002166.278 6 103638056.80244                  25309470.973    25309470.780
                  25309468.517                          40.000          27.0004

 19  9 29 21 29  0.0000000  0  9G15G21G24G10G32G12G14G20G27
 123226612.376 8  96020734.60945                  23449239.246    23449238.987
                  23449233.531                          48.000          34.0004

 117152117.605 8  91287360.88946                  22293304.447    22293303.465
                  22293298.309                          48.000          40.0004

 109416635.816 8  85259724.21648                  20821284.964    20821285.067
                  20821281.980                          52.000          48.0004

 109606410.271 8  85407592.63747                  20857397.531    20857397.231
                  20857393.913                          53.000          47.0004

 117496751.660 8  91555919.03746                  22358879.432    22358879.411
                  22358876.189                          49.000          40.0004

 129755411.621 7 101108106.39544                  24691630.435    24691630.199
                  24691626.573                          42.000          26.0004

 128219484.081 6  99911289.63143                  24399351.854    24399351.919
                  24399348.155                          37.000          21.0004

 104881805.740 8  81726088.76047                  19958336.337    19958335.417
                  19958329.769                          49.000          44.0004

 133068919.307 6 103690072.11644                  25322173.593    25322173.458
                  25322171.994                          41.000          28.0004

 19  9 29 21 29 30.0000000  0  9G15G21G24G10G32G12G14G20G27
 123317557.501 7  96091600.92845                  23466545.709    23466545.542
                  23466540.584                          46.000          34.0004

 117225384.385 8  91344451.85846                  22307246.768    22307245.672
                  22307240.766                          49.000          40.0004

 109450509.131 8  85286119.01748                  20827730.968    20827730.686
                  20827727.938                          51.000          48.0004

 109555778.380 8  85368139.22648                  20847762.532    20847762.319
                  20847758.999                          52.000          48.0004

 117428194.428 8  91502497.84646                  22345833.589    22345833.667
                  22345830.062                          49.000          40.0004

 129667177.809 7 101039352.89944                  24674840.163    24674839.618
                  24674836.318                          42.000          26.0004

 128137706.963 6  99847567.28443                  24383790.129    24383790.437
                  24383786.011                          38.000          22.0004

 104886947.114 7  81730095.02847                  19959314.823    19959313.792
                  19959308.199                          47.000          44.0004

 133135909.668 7 103742272.35644                  25334921.691    25334921.615
                  25334919.305                          43.000          29.0004

 19  9 29 21 30  0.0000000  0  9G15G21G24G10G32G12G14G20G27
 123408559.227 7  96162511.33745                  23483862.727    23483862.195
                  23483857.138                          46.000          34.0004

 117298978.921 8  91401798.23346                  22321251.219    22321250.286
                  22321245.130                          49.000          39.0004

 109484962.035 8  85312965.44448                  20834287.029    20834286.645
                  20834284.050                          53.000          48.0004

 109505443.710 8  85328917.41648                  20838184.066    20838184.046
                  20838180.526                          53.000          48.0004

 117359852.504 8  91449244.41246                  22332828.464    22332828.556
                  22332824.907                          48.000          41.0004

 129579052.802 7 100970684.16744                  24658070.065    24658070.338
                  24658066.133                          43.000          26.0004

 128056065.549 6  99783950.67743                  24368254.612    24368254.709
                  24368250.179                          40.000          23.0004

 104892545.070 7  81734457.07647                  19960379.685    19960378.892
                  19960373.462                          46.000          44.0004

 133203135.951 7 103794656.46044                  25347715.068    25347714.375
                  25347712.653                          42.000          28.0004

 19  9 29 21 30 30.0000000  0  9G15G21G24G10G32G12G14G20G27
 123499616.877 7  96233465.33345                  23501189.928    23501189.991
                  23501184.826                          47.000          34.0004

 117372899.693 8  91459398.81646                  22335318.144    22335316.877
                  22335311.791                          48.000          39.0004

 109519993.518 8  85340262.70847                  20840953.501    20840952.819
                  20840950.329                          52.000          47.0004

 109455408.589 8  85289929.02148                  20828662.842    20828662.688
                  20828659.246                          52.000          48.0004

 117291726.745 8  91396159.43146                  22319864.510    22319864.584
                  22319861.017                          49.000          40.0004

 129491040.621 7 100902103.31444                  24641322.386    24641322.178
                  24641318.120                          42.000          25.0004

 127974561.080 6  99720440.77544                  24352744.984    24352744.543
                  24352740.526                          39.000          24.0004

 104898600.986 7  81739175.97347                  19961532.216    19961531.134
                  19961525.816                          47.000          44.0004

 133270595.833 6 103847222.57244                  25360552.085    25360551.549
                  25360549.288                          41.000          27.0004

 19  9 29 21 31  0.0000000  0  9G15G21G24G10G32G12G14G20G27
 123590725.314 7  96304458.88845                  23518527.416    23518527.416
                  23518522.208                          47.000          33.0004

 117447140.309 8  91517248.62346                  22349445.113    22349444.612
                  22349439.035                          49.000          39.0004

 109555598.055 8  85368006.50347                  20847728.571    20847728.236
                  20847725.641                          53.000          47.0004

 109405670.453 8  85251172.04248                  20819197.994    20819197.989
                  20819194.397                          53.000          48.0004

 117223813.110 8  91343239.74346                  22306940.998    22306941.122
                  22306937.524                          48.000          40.0004

 129403140.357 7 100833609.69244                  24624594.956    24624595.701
                  24624591.587                          43.000          25.0004

 127893189.364 6  99657034.32244                  24337261.214    24337260.378
                  24337256.263                          41.000          25.0004

 104905111.228 8  81744248.88947                  19962771.197    19962770.060
                  19962764.598                          48.000          44.0004

 133338282.067 6 103899965.07344                  25373431.634    25373431.899
                  25373429.943                          39.000          25.0004

 19  9 29 21 31 30.0000000  0  9G15G21G24G10G32G12G14G20G27
 123681886.289 7  96375493.38345                  23535874.499    23535874.855
                  23535869.697                          46.000          33.0004

 117521701.467 8  91575348.20946                  22363633.855    22363633.164
                  22363627.645                          48.000          39.0004

 109591776.961 8  85396197.86147                  20854613.295    20854613.032
                  20854610.117                          53.000          47.0004

 109356233.863 8  85212650.03548                  20809790.539    20809790.554
                  20809786.810                          53.000          48.0004

 117156114.590 8  91290487.67146                  22294058.622    22294058.560
                  22294054.911                          48.000          41.0004

 129315358.105 7 100765208.02944                  24607891.398    24607891.076
                  24607886.871                          43.000          25.0004

 127811953.796 6  99593733.94144                  24321802.194    24321801.324
                  24321797.248                          40.000          25.0004

 104912079.422 7  81749678.65447                  19964097.083    19964096.010
                  19964090.648                          47.000          44.0004

 133406194.419 6 103952883.74644                  25386355.239    25386354.929
                  25386353.564                          38.000          26.0004

 19  9 29 21 32  0.0000000  0  9G15G21G24G10G32G12G14G20G27
 123773101.905 7  96446570.46745                  23553232.932    23553232.641
                  23553227.490                          46.000          33.0004

 117596583.578 8  91633697.88646                  22377883.212    22377882.727
                  22377877.586                          49.000          39.0004

 109628531.464 8  85424837.74348                  20861607.062    20861607.353
                  20861604.163                          53.000          48.0004

 109307103.515 9  85174366.65448                  20800441.156    20800441.398
                  20800437.436                          54.000          48.0004

 117088634.304 8  91237905.65446                  22281217.526    22281217.403
                  22281213.937                          48.000          41.0004

 129227700.141 7 100696903.21444                  24591210.215    24591210.298
                  24591206.451                          42.000          25.0004

 127730857.663 6  99530542.21444                  24306369.456    24306369.196
                  24306365.162                          39.000          25.0004

 104919509.218 8  81755468.10447                  19965511.028    19965509.874
                  19965504.435                          49.000          44.0004

 133474332.901 6 104005978.64543                  25399321.816    25399321.328
                  25399319.728                          36.000          23.0004

 19  9 29 21 32 30.0000000  0  9G15G21G24G10G32G12G14G20G27
 123864365.994 7  96517685.32645                  23570599.916    23570599.796
                  23570594.612                          45.000          33.0004

 117671779.483 7  91692292.07946                  22392192.796    22392191.960
                  22392186.805                          47.000          39.0004

 109665854.240 9  85453920.43448                  20868709.750    20868709.719
                  20868706.374                          54.000          48.0004

 109258276.150 9  85136319.36748                  20791149.988    20791149.902
                  20791145.869                          54.000          49.0004

 117021367.671 8  91185490.11346                  22268416.676    22268416.844
                  22268413.212                          49.000          41.0004

 129140164.703 7 100628693.87444                  24574552.061    24574552.177
                  24574548.526                          43.000          25.0004

 127649896.034 6  99467455.29744                  24290963.081    24290962.701
                  24290958.520                          40.000          24.0004

 104927396.206 7  81761613.80947                  19967011.941    19967010.715
                  19967005.319                          47.000          44.0004

 133542689.492 5 104059243.43843                  25412330.809    25412328.738
                  25412327.640                          35.000          21.0004

 19  9 29 21 33  0.0000000  0  8G15G21G24G10G32G12G14G20
 123955676.225 8  96588836.13345                  23587975.868    23587975.713
                  23587970.834                          48.000          34.0004

 117747285.122 8  91751127.61946                  22406561.136    22406560.406
                  22406555.155                          48.000          38.0004

 109703742.195 8  85483443.51948                  20875919.521    20875919.538
                  20875916.205                          52.000          48.0004

 109209751.924 8  85098508.28648                  20781915.835    20781915.854
                  20781912.236                          52.000          49.0004

 116954313.235 8  91133239.93146                  22255656.931    22255656.523
                  22255653.471                          50.000          41.0004

 129052753.722 7 100560581.52544                  24557918.760    24557918.405
                  24557914.910                          42.000          24.0004

 127569067.855 6  99404472.35744                  24275582.148    24275581.303
                  24275577.125                          40.000          24.0004

 104935739.488 7  81768115.07147                  19968599.728    19968598.270
                  19968593.004                          46.000          44.0004

 19  9 29 21 33 30.0000000  0  8G15G21G24G10G32G12G14G20
 124047037.791 8  96660026.93445                  23605361.319    23605360.967
                  23605355.473                          48.000          34.0004

 117823104.777 8  91810207.85646                  22420988.938    22420988.555
                  22420983.448                          48.000          38.0004

 109742199.900 8  85513410.56647                  20883237.913    20883237.641
                  20883234.485                          53.000          47.0004

 109161538.590 9  85060939.46548                  20772741.209    20772741.059
                  20772737.542                          54.000          48.0004

 116887477.205 8  91081159.93946                  22242938.493    22242938.196
                  22242935.048                          49.000          41.0004

 128965476.467 7 100492573.38644                  24541309.802    24541310.694
                  24541306.286                          43.000          25.0004

 127488379.224 6  99341598.14944                  24260227.583    24260227.242
                  24260222.530                          40.000          24.0004

 104944545.717 7  81774977.06847                  19970275.400    19970274.070
                  19970268.842                          47.000          45.0004

 19  9 29 21 34  0.0000000  0  8G15G21G24G10G32G12G14G20
 124138444.701 7  96731253.06945                  23622755.338    23622754.917
                  23622750.139                          46.000          33.0004

 117899231.331 7  91869527.23146                  22435475.355    22435474.921
                  22435469.808                          46.000          38.0004

 109781221.126 8  85543816.71947                  20890663.370    20890663.007
                  20890660.031                          53.000          47.0004

 109113633.422 8  85023610.76848                  20763625.139    20763624.910
                  20763621.493                          52.000          49.0004

 116820855.328 8  91029246.82046                  22230260.770    22230260.272
                  22230257.084                          48.000          40.0004

 128878331.532 6 100424668.35044                  24524726.953    24524727.218
                  24524723.199                          41.000          25.0004

 127407826.326 6  99278829.71244                  24244899.318    24244898.658
                  24244894.223                          41.000          24.0004

 104953811.163 8  81782196.89647                  19972038.580    19972037.433
                  19972032.087                          48.000          44.0004

 19  9 29 21 34 30.0000000  0  8G15G21G24G10G32G12G14G20
 124229897.791 7  96802515.18945                  23640158.371    23640158.225
                  23640152.783                          47.000          33.0004

 117975664.368 7  91929085.41246                  22450020.065    22450019.349
                  22450014.413                          46.000          38.0004

 109820805.221 8  85574661.47648                  20898196.021    20898195.492
                  20898192.547                          53.000          48.0004

 109066039.641 8  84986524.70848                  20754568.491    20754568.102
                  20754564.560                          53.000          48.0004

 116754449.296 8  90977501.89246                  22217623.441    22217623.613
                  22217620.551                          50.000          40.0004

 128791323.748 7 100356870.19844                  24508170.086    24508170.011
                  24508166.406                          43.000          25.0004

 127327410.686 6  99216168.24143                  24229596.082    24229595.672
                  24229591.102                          39.000          23.0004

 104963537.820 8  81789776.11147                  19973889.442    19973888.313
                  19973882.889                          49.000          45.0004

 19  9 29 21 35  0.0000000  0  8G15G21G24G10G32G12G14G20
 124321394.439 7  96873811.25945                  23657569.357    23657569.493
                  23657563.969                          45.000          33.0004

 118052399.344 8  91988878.87546                  22464622.309    22464621.566
                  22464616.459                          48.000          37.0004

 109860948.488 8  85605941.95047                  20905835.165    20905834.417
                  20905831.814                          52.000          47.0004

 109018757.255 8  84949681.29948                  20745570.795    20745570.638
                  20745567.074                          53.000          48.0004

 116688257.569 8  90925923.96146                  22205027.795    22205027.901
                  22205024.598                          49.000          41.0004

 128704454.718 7 100289180.15844                  24491639.386    24491639.493
                  24491635.164                          42.000          26.0004

 127247130.964 6  99153612.66944                  24214319.355    24214319.017
                  24214314.596                          39.000          24.0004

 104973724.344 8  81797713.65947                  19975827.664    19975826.653
                  19975821.253                          48.000          45.0004

 19  9 29 21 35 30.0000000  0  8G15G21G24G10G32G12G14G20
 124412934.077 7  96945140.82445                  23674989.009    23674989.466
                  23674983.579                          47.000          34.0004

 118129434.957 7  92048906.61146                  22479282.087    22479281.123
                  22479275.694                          47.000          37.0004

 109901650.665 8  85637657.93348                  20913580.303    20913579.924
                  20913577.116                          51.000          48.0004

 108971788.515 8  84913082.29148                  20736632.892    20736632.744
                  20736629.250                          53.000          48.0004

 116622280.890 8  90874513.60446                  22192472.807    22192472.961
                  22192469.544                          50.000          41.0004

 128617728.447 7 100221601.36544                  24475135.719    24475135.441
                  24475131.634                          43.000          26.0004

 127166988.060 6  99091163.71944                  24199068.831    24199067.976
                  24199063.714                          40.000          24.0004

 104984372.473 7  81806010.90947                  19977854.123    19977852.900
                  19977847.545                          45.000          45.0004

 19  9 29 21 36  0.0000000  0  8G15G21G24G10G32G12G14G20
 124504516.162 7  97016503.47945                  23692416.564    23692416.665
                  23692411.361                          47.000          34.0004

 118206769.012 7  92109166.89846                  22493998.157    22493997.005
                  22493991.917                          47.000          37.0004

 109942909.101 8  85669807.37047                  20921431.510    20921431.131
                  20921428.277                          53.000          47.0004

 108925135.311 8  84876729.15148                  20727755.006    20727754.908
                  20727751.443                          53.000          48.0004

 116556519.547 8  90823271.02946                  22179959.134    22179959.170
                  22179955.605                          49.000          41.0004

 128531148.649 7 100154136.69444                  24458659.975    24458659.843
                  24458655.684                          43.000          26.0004

 127086982.414 6  99028821.71344                  24183843.948    24183843.529
                  24183839.158                          39.000          24.0004

 104995482.191 7  81814667.82947                  19979968.150    19979966.949
                  19979961.742                          47.000          44.0004

 19  9 29 21 36 30.0000000  0  8G15G21G24G10G32G12G14G20
 124596141.232 7  97087899.60945                  23709852.504    23709852.001
                  23709846.432                          46.000          33.0004

 118284400.467 7  92169658.92546                  22508770.871    22508769.848
                  22508764.853                          47.000          37.0004

 109984723.315 8  85702389.87947                  20929388.740    20929388.035
                  20929385.247                          53.000          47.0004

 108878801.092 9  84840624.57248                  20718938.231    20718937.908
                  20718934.345                          54.000          48.0004

 116490975.479 8  90772197.76047                  22167486.388    22167486.589
                  22167482.799                          51.000          42.0004

 128444719.655 7 100086789.53144                  24442213.183    24442213.319
                  24442209.145                          45.000          27.0004

 127007115.765 6  98966588.02244                  24168645.990    24168645.262
                  24168640.862                          41.000          24.0004

 105007055.885 7  81823686.29347                  19982170.413    19982169.495
                  19982164.090                          46.000          45.0004

 19  9 29 21 37  0.0000000  0  8G15G21G24G10G32G12G14G20
 124687802.135 7  97159323.68245                  23727295.044    23727294.685
                  23727289.746                          47.000          33.0004

 118362320.939 7  92230376.15446                  22523598.556    22523597.317
                  22523592.768                          46.000          37.0004

 110027086.071 8  85735399.82347                  20937449.901    20937449.410
                  20937446.528                          52.000          47.0004

 108832781.318 8  84804765.01448                  20710180.675    20710180.757
                  20710177.001                          53.000          49.0004

 116425642.588 8  90721289.05047                  22155053.837    22155054.097
                  22155050.593                          50.000          42.0004

 128358438.926 7 100019557.90344                  24425794.451    24425794.339
                  24425790.444                          43.000          28.0004

 126927382.226 6  98904458.04244                  24153473.092    24153472.641
                  24153467.723                          40.000          25.0004

 105019088.162 8  81833062.09447                  19984460.439    19984459.329
                  19984453.687                          48.000          44.0004

 19  9 29 21 37 30.0000000  0  8G15G21G24G10G32G12G14G20
 124779505.847 7  97230781.08945                  23744745.232    23744744.963
                  23744740.231                          45.000          33.0004

 118440536.102 7  92291323.01146                  22538482.538    22538481.384
                  22538476.498                          46.000          37.0004

 110070002.942 8  85768841.54147                  20945616.825    20945616.424
                  20945613.373                          53.000          47.0004

 108787085.560 9  84769157.93548                  20701485.043    20701485.076
                  20701481.445                          54.000          48.0004

 116360528.863 8  90670551.11347                  22142663.136    22142663.396
                  22142659.742                          49.000          42.0004

 128272317.687 7  99952450.54144                  24409405.768    24409406.046
                  24409401.566                          44.000          28.0004

 126847789.859 6  98842438.07644                  24138327.268    24138326.880
                  24138321.875                          41.000          25.0004

 105031587.275 8  81842801.66547                  19986838.744    19986837.673
                  19986832.205                          48.000          44.0004

