     2.11           OBSERVATION DATA    G (GPS)             RINEX VERSION / TYPE
teqc  2018Jun8      root                20191128 20:47:16UTCPGM / RUN BY / DATE
Linux 2.4.21-27.ELsmp|Opteron|gcc|Linux 64|=+               COMMENT
teqc  2019Feb25     CORS-ADM Account    20191031 19:44:31UTCCOMMENT
teqc  2019Feb25     NOAA/NOS/NGS/CORS   20190930 03:27:13UTCCOMMENT
Spider V7.2.2.7822                      2019 09 29 02:09    COMMENT
BIT 2 OF LLI FLAGS DATA COLLECTED UNDER A/S CONDITION       COMMENT
SNR is mapped to RINEX snr flag value [1-9]                 COMMENT
Lx:    >= 25dBHz -> 1; 26-27dBHz -> 2; 28-31dBHz -> 3       COMMENT
       32-35dBHz -> 4; 36-38dBHz -> 5; 39-41dBHz -> 6       COMMENT
       42-44dBHz -> 7; 45-48dBHz -> 8; >= 49dBHz -> 9       COMMENT
US2010                                                      COMMENT
teqc.e edited: all SBAS satellites excluded                 COMMENT
teqc.e edited: all QZSS satellites excluded                 COMMENT
Forced Modulo Decimation to 30 seconds                      COMMENT
NJTR                                                        MARKER NAME
SmartNet  NA        SMRTNT                                  OBSERVER / AGENCY
355965              LEICA GRX1200GGPRO  4.30/6.525          REC # / TYPE / VERS
15072033            LEIAR10         NONE                    ANT # / TYPE
  1278261.2780 -4703708.0040  4099884.5550                  APPROX POSITION XYZ
        0.0000        0.0000        0.0000                  ANTENNA: DELTA H/E/N
     1     1                                                WAVELENGTH FACT L1/2
     7    C1    L1    S1    P2    L2    S2    C2            # / TYPES OF OBSERV
    30.0000                                                 INTERVAL
teqc.w windowed: start @ 2019 Sep 29 20:00:00.000           COMMENT
teqc.w windowed:  end  @ 2019 Sep 30 08:00:00.000           COMMENT
teqc.w edited: all GLONASS satellites excluded              COMMENT
teqc.w edited: all SBAS satellites excluded                 COMMENT
teqc.w edited: all Galileo satellites excluded              COMMENT
teqc.w edited: all Beidou satellites excluded               COMMENT
teqc.w edited: all QZSS satellites excluded                 COMMENT
  2019     9    29    20     0    0.0000000     GPS         TIME OF FIRST OBS
    18                                                      LEAP SECONDS
                                                            END OF HEADER
 19  9 29 20  0  0.0000000  0 10G05G10G13G15G20G21G24G27G29G32
  25172240.000   132280996.067 6        39.200    25172235.020   103076094.49944
        32.650    25172240.320
  23332125.820   122611163.132 8        46.000    23332124.460    95541184.52247
        43.050    23332124.860
  23217390.220   122008225.111 7        42.050    23217386.320    95071366.90344
        35.750
  20698884.040   108773424.750 9        50.000    20698879.720    84758516.50647
        44.100    20698880.480
  21047935.400   110607684.798 8        47.750    21047930.780    86187820.65247
        43.650
  21096708.940   110863982.132 8        48.800    21096704.340    86387490.56948
        45.900
  21338201.920   112133055.039 8        46.200    21338200.880    87376437.58547
        44.000    21338201.640
  24391983.900   128180747.514 6        41.750    24391983.120    99881090.11745
        36.750    24391983.920
  25306100.060   132984408.506 7        43.500    25306099.380   103624183.66244
        33.900    25306099.900
  25300672.780   132955935.956 6        40.900    25300673.180   103602012.52945
        38.000    25300673.920
 19  9 29 20  0 30.0000000  0 10G05G10G13G15G20G21G24G27G29G32
  25189074.780   132369440.132 8        45.350    25189068.540   103145011.76844
        33.050    25189071.460
  23316799.200   122530621.400 8        45.350    23316797.880    95478424.79747
        44.650    23316798.260
  23235873.560   122105355.561 6        41.850    23235869.720    95147052.91345
        36.150
  20709695.140   108830237.395 9        49.800    20709690.800    84802786.10047
        44.000    20709691.540
  21036499.160   110547587.193 8        47.750    21036494.560    86140991.36247
        44.600
  21095079.260   110855417.941 8        48.300    21095074.600    86380817.18148
        46.550
  21325014.280   112063753.513 8        46.250    21325013.220    87322436.42747
        44.400    21325013.980
  24389851.840   128169543.353 6        39.900    24389851.000    99872359.62645
        36.050    24389851.820
  25325299.860   133085303.371 6        41.150    25325299.240   103702802.83544
        35.750    25325299.760
  25282347.920   132859638.380 5        38.950    25282348.380   103526975.52245
        37.200    25282349.080
 19  9 29 20  1  0.0000000  0 10G05G10G13G15G20G21G24G27G29G32
  25205921.360   132457950.631 7        43.350    25205914.220   103213980.88044
        35.150    25205915.140
  23301483.400   122450136.514 8        45.350    23301482.120    95415709.36547
        42.800    23301482.480
  23254381.360   122202614.661 7        42.450    23254377.580    95222839.18245
        36.650
  20720571.080   108887391.022 9        49.750    20720566.740    84847321.39647
        44.600    20720567.500
  21025105.700   110487714.362 8        48.200    21025101.120    86094337.23247
        44.450
  21093541.700   110847338.084 8        48.250    21093537.040    86374521.19948
        46.400
  21311919.780   111994941.485 8        46.300    21311918.740    87268816.68147
        44.550    21311919.480
  24387826.800   128158901.756 6        40.000    24387825.940    99864067.46145
        36.900    24387826.800
  25344474.480   133186065.844 6        40.300    25344473.920   103781318.86345
        36.500    25344474.420
  25264043.700   132763449.449 6        40.900    25264044.220   103452023.18045
        37.300    25264044.900
 19  9 29 20  1 30.0000000  0  9G10G13G15G20G21G24G27G29G32
  23286180.020   122369716.718 8        45.250    23286178.800    95353044.62946
        41.550    23286179.160
  23272914.680   122300008.042 7        43.200    23272910.980    95298730.09545
        36.750
  20731512.980   108944891.231 9        49.800    20731508.660    84892126.74747
        44.900    20731509.440
  21013756.780   110428075.490 8        48.200    21013752.260    86047865.38347
        44.800
  21092097.880   110839750.770 8        48.000    21092093.200    86368609.00648
        46.250
  21298920.220   111926628.265 8        46.550    21298919.200    87215585.60747
        44.950    21298919.920
  24385910.240   128148830.242 7        42.200    24385909.300    99856219.53945
        36.800    24385910.200
  25363624.740   133286700.953 7        42.200    25363624.240   103859735.75344
        35.050    25363624.720
  25245761.740   132667377.503 6        40.700    25245762.320   103377162.02844
        33.800    25245762.980
 19  9 29 20  2  0.0000000  0 10G05G10G13G15G20G21G24G27G29G32
  25239639.560   132635185.368 7        43.750    25239635.560   103352093.50844
        35.600    25239638.340
  23270884.800   122289339.981 8        45.350    23270883.680    95290413.43046
        39.800    23270884.020
  23291468.860   122397510.965 7        43.650    23291465.220    95374706.38745
        37.000
  20742516.100   109002713.267 9        50.100    20742511.820    84937182.88148
        45.550    20742512.600
  21002448.240   110368648.845 8        48.200    21002443.760    86001558.92948
        45.600
  21090743.620   110832634.219 8        47.850    21090738.940    86363063.64648
        46.550
  21286011.780   111858793.997 8        46.400    21286010.780    87162727.76047
        44.900    21286011.460
  24384097.820   128139306.044 7        42.500    24384096.780    99848798.12444
        32.700    24384097.700
  25382746.160   133387183.584 6        41.600    25382745.780   103938033.61344
        32.850    25382746.240
  25227497.940   132571401.056 6        41.200    25227498.560   103302375.30744
        34.550    25227499.220
 19  9 29 20  2 30.0000000  0 10G05G10G13G15G20G21G24G27G29G32
  25256518.320   132723864.310 8        45.450    25256510.440   103421193.79044
        35.150    25256513.440
  23255596.900   122209001.700 8        45.800    23255595.780    95227812.13546
        39.150    23255596.120
  23310042.500   122495115.921 7        43.750    23310038.880    95450762.15946
        39.000
  20753579.120   109060849.837 9        50.250    20753574.860    84982484.09648
        45.550    20753575.660
  20991179.380   110309430.594 8        48.700    20991174.940    85955414.84848
        45.050
  21089478.040   110825983.672 8        48.000    21089473.360    86357881.39848
        47.150
  21273194.040   111791436.458 8        46.350    21273193.040    87110241.40947
        44.750    21273193.720
  24382388.540   128130323.636 6        41.350    24382387.380    99841798.85944
        34.800    24382388.340
  25401837.020   133487505.788 6        41.950    25401836.700   104016206.53543
        28.500    25401837.160
  25209251.480   132475515.669 6        41.700    25209252.100   103227659.51545
        36.350    25209252.780
 19  9 29 20  3  0.0000000  0 10G05G10G13G15G20G21G24G27G29G32
  25273408.360   132812607.691 6        41.550    25273398.800   103490344.32545
        36.000    25273401.180
  23240320.240   122128722.431 8        46.100    23240319.060    95165256.85446
        41.700    23240319.380
  23328638.880   122592840.408 7        43.600    23328635.260    95526911.08845
        36.750
  20764705.420   109119319.006 9        49.900    20764701.220    85028044.48448
        45.350    20764702.000
  20979954.260   110250442.111 8        48.350    20979949.820    85909449.80548
        45.000
  21088305.040   110819819.687 8        48.600    21088300.400    86353078.28848
        46.700
  21260471.040   111724576.923 8        46.700    21260470.060    87058143.10547
        44.200    21260470.740
  24380786.140   128121902.699 6        40.900    24380784.860    99835237.05944
        35.950    24380785.860
  25420900.620   133587684.938 7        43.550    25420900.300   104094268.01444
        35.150    25420900.780
  25191026.320   132379742.083 6        40.200    25191026.900   103153030.83944
        33.750    25191027.600
 19  9 29 20  3 30.0000000  0 10G05G10G13G15G20G21G24G27G29G32
  25290301.420                          37.150    25290305.040
        36.800    25290305.340
  23225057.780   122048517.804 8        46.150    23225056.580    95102759.77547
        42.900    23225056.900
  23347260.500   122690697.532 7        43.750    23347256.900    95603163.36745
        36.300
  20775897.460   109178133.503 9        49.350    20775893.260    85073873.94547
        44.900    20775894.040
  20968775.880   110191699.260 8        47.950    20968771.440    85863676.17947
        44.750
  21087227.640   110814158.048 8        48.350    21087223.020    86348666.61548
        47.250
  21247846.320   111658233.621 8        46.750    21247845.340    87006447.05047
        44.950    21247846.020
  24379293.320   128114057.887 6        40.200    24379291.960    99829124.21144
        32.700    24379292.960
  25439939.280   133687733.081 6        41.750    25439938.920   104172227.43041
        25.650    25439939.440
  25172825.480   132284096.120 6        40.500    25172825.960   103078501.58544
        34.750    25172826.700
 19  9 29 20  4  0.0000000  0 10G05G10G13G15G20G21G24G27G29G32
  25307212.720   132990284.553 7        43.150    25307211.740   103628807.85645
        36.200    25307212.960
  23209800.980   121968342.936 8        45.850    23209799.740    95040285.89447
        43.650    23209800.080
  23365898.340   122788639.929 7        43.550    23365894.740    95679482.09244
        34.600
  20787146.220   109237246.135 9        49.350    20787142.060    85119935.71847
        43.900    20787142.840
  20957635.860   110133158.080 8        48.000    20957631.420    85818059.67948
        45.100
  21086237.240   110808953.645 8        47.950    21086232.680    86344611.24048
        47.400
  21235311.480   111592362.711 8        47.300    21235310.500    86955119.09547
        44.600    21235311.180
  24377901.440   128106743.527 7        42.350    24377900.000    99823424.71944
        35.100    24377901.000
  25458944.200   133787603.077 6        40.150    25458943.820   104250047.96544
        32.050    25458944.360
  25154640.380   132188533.184 6        39.550    25154640.760   103004037.07445
        37.650    25154641.580
 19  9 29 20  4 30.0000000  0 10G05G10G13G15G20G21G24G27G29G32
  25324134.680   133079194.419 7        44.950    25324129.260   103698088.06344
        32.800    25324131.320
  23194554.180   121888220.669 8        45.400    23194552.940    94977853.03647
        42.750    23194553.280
  23384556.160   122886687.351 7        43.000    23384552.560    95755882.65645
        37.550
  20798455.480   109296676.887 9        49.400    20798451.360    85166245.37747
        44.600    20798452.160
  20946538.640   110074841.877 8        48.350    20946534.220    85772618.50548
        45.000
  21085338.260   110804229.462 8        48.350    21085333.740    86340930.05948
        46.800
  21222871.360   111526989.563 8        46.750    21222870.380    86904179.01047
        44.400    21222871.060
  24376614.620   128099981.282 6        40.950    24376613.140    99818155.43144
        34.850    24376614.140
  25477918.640   133887313.497 6        40.750    25477918.200   104327744.20344
        32.300    25477918.780
  25136475.440   132093076.156 6        40.550    25136475.700   102929655.03845
        37.250    25136476.600
 19  9 29 20  5  0.0000000  0 10G05G10G13G15G20G21G24G27G29G32
  25341067.700   133168169.976 6        39.600    25341060.400   103767419.56344
        34.450    25341062.560
  23179319.740   121808163.278 8        45.900    23179318.480    94915470.71946
        41.400    23179318.840
  23403235.720   122984849.119 7        42.050    23403232.100    95832372.32145
        36.050
  20809827.000   109356434.757 9        49.850    20809822.920    85212809.94447
        44.500    20809823.720
  20935486.660   110016763.475 9        49.100    20935482.260    85727362.63147
        44.800
  21084532.980   110799997.856 8        48.750    21084528.520    86337632.70948
        47.050
  21210528.460   111462127.301 8        46.850    21210527.440    86853637.03747
        44.600    21210528.140
  24375435.000   128093782.557 6        41.300    24375433.500    99813325.28144
        35.250    24375434.480
  25496864.480   133986873.444 6        40.150    25496862.600   104405389.13845
        36.350    25496864.620
  25118333.020   131997737.721 6        41.200    25118333.160   102855365.44244
        34.400    25118334.140
 19  9 29 20  5 30.0000000  0 10G05G10G13G15G20G21G24G27G29G32
  25358010.420   133257207.694 6        40.150    25358004.320   103836799.61245
        38.400    25358005.840
  23164097.220   121728168.374 8        46.500    23164095.960    94853137.07346
        39.450    23164096.340
  23421936.120   123083120.556 6        41.950    23421932.520    95908947.45245
        36.350
  20821259.840   109416514.823 9        50.300    20821255.800    85259625.56847
        44.800    20821256.580
  20924479.740   109958921.552 9        49.400    20924475.320    85682290.99948
        45.100
  21083820.880   110796255.669 8        48.650    21083816.480    86334716.72148
        46.650
  21198282.760   111397775.792 8        46.750    21198281.740    86803493.02047
        44.950    21198282.420
  24374361.980   128088143.836 6        40.750    24374360.440    99808931.46244
        35.150    24374361.420
  25515780.600   134086277.735 6        39.250    25515779.100   104482846.88344
        32.450    25515780.760
  25100212.780   131902515.582 6        40.200    25100212.880   102781166.53744
        34.550    25100213.900
 19  9 29 20  6  0.0000000  0 10G05G10G13G15G20G21G24G27G29G32
  25374961.660   133346291.208 7        43.350    25374957.160   103906215.23645
        36.800    25374958.080
  23148883.700   121648220.574 8        46.600    23148882.400    94790840.03945
        38.100    23148882.800
  23440653.980   123181483.466 7        42.150    23440650.360    95985593.82044
        35.850
  20832750.560   109476898.983 9        50.850    20832746.520    85306678.15448
        45.100    20832747.300
  20913514.920   109901300.802 9        49.450    20913510.500    85637391.70547
        44.950
  21083199.040   110792987.828 8        48.700    21083194.680    86332170.35048
        46.200
  21186131.500   111333920.642 8        47.700    21186130.480    86753735.78147
        44.150    21186131.180
  24373392.380   128083048.685 6        41.150    24373390.800    99804961.22945
        36.500    24373391.780
  25534663.480   134185507.056 5        36.700    25534662.340   104560168.18644
        32.300    25534663.720
  25082111.720   131807394.395 6        40.950    25082111.840   102707046.26945
        37.650    25082112.840
 19  9 29 20  6 30.0000000  0 10G05G10G13G15G20G21G24G27G29G32
  25391923.320   133435427.169 7        43.100    25391919.480   103975671.74444
        34.050    25391920.200
  23133680.620   121568327.742 8        46.000    23133679.200    94728585.86546
        40.000    23133679.640
  23459390.160   123279942.959 7        42.100    23459386.540    96062315.50344
        35.550
  20844300.260   109537592.843 9        50.750    20844296.200    85353972.07747
        44.900    20844296.980
  20902593.880   109843909.998 8        48.900    20902589.400    85592671.59847
        44.800
  21082668.980   110790202.265 8        48.700    21082664.680    86329999.76748
        46.400
  21174076.600   111270571.662 8        47.900    21174075.580    86704372.96448
        45.350    21174076.240
  24372527.480   128078503.889 6        41.750    24372525.900    99801419.84344
        34.950    24372526.880
  25553514.000   134284566.561 6        41.950    25553513.180   104637357.18042
        26.800    25553514.320
  25064031.420   131712382.206 6        41.800    25064031.600   102633010.90745
        37.500    25064032.560
 19  9 29 20  7  0.0000000  0 10G05G10G13G15G20G21G24G27G29G32
  25408895.780   133524618.740 6        40.700    25408891.900   104045171.54245
        37.200    25408892.780
  23118488.720   121488493.869 7        44.850    23118487.240    94666377.67646
        41.950    23118487.660
  23478145.000   123378500.090 7        43.050    23478141.320    96139113.23345
        36.250
  20855909.080   109598597.149 9        50.550    20855904.960    85401507.88647
        44.400    20855905.740
  20891717.440   109786753.710 8        48.400    20891712.920    85548134.24147
        44.900
  21082231.360   110787902.509 8        48.750    21082227.100    86328207.73948
        46.400
  21162119.100   111207734.444 8        47.550    21162118.080    86655408.91548
        45.250    21162118.720
  24371767.880   128074512.303 7        42.700    24371766.300    99798309.53745
        37.100    24371767.280
  25572332.540   134383457.453 7        43.150    25572332.180   104714414.66344
        32.050    25572332.960
  25045972.680   131617483.281 7        43.250    25045972.900   102559063.76245
        37.650    25045973.800
 19  9 29 20  7 30.0000000  0 10G05G10G13G15G20G21G24G27G29G32
  25425878.820   133613866.925 6        40.900    25425875.020   104114715.53944
        35.750    25425876.080
  23103308.420   121408721.274 7        44.150    23103306.960    94604217.27747
        43.800    23103307.380
  23496918.320   123477154.405 7        42.050    23496914.600    96215986.70145
        36.300
  20867576.900   109659911.726 9        50.150    20867572.780    85449285.45747
        43.850    20867573.540
  20880886.100   109729834.744 8        48.650    20880881.600    85503781.82947
        44.300
  21081886.540   110786090.373 8        48.950    21081882.280    86326795.67548
        45.950
  21150259.720   111145413.079 8        47.150    21150258.700    86606846.85748
        45.250    21150259.320
  24371113.780   128071075.118 6        41.450    24371112.240    99795631.22045
        36.300    24371113.200
  25591118.480   134482178.207 4        32.950    25591118.420   104791339.89241
        25.600    25591118.940
  25027935.920   131522699.880 7        43.750    25027936.160   102485206.63845
        37.150    25027937.040
 19  9 29 20  8  0.0000000  0 10G05G10G13G15G20G21G24G27G29G32
  25442871.880   133703167.905 7        43.600    25442868.460   104184300.67444
        35.100    25442869.520
  23088139.300   121329007.633 7        44.950    23088137.940    94542102.83747
        44.600    23088138.320
  23515709.220   123575900.981 6        41.500    23515705.480    96292932.05744
        35.250
  20879302.740   109721531.239 9        50.200    20879298.600    85497300.65047
        43.250    20879299.360
  20870099.600   109673151.349 8        48.850    20870095.100    85459612.95947
        44.600
  21081634.040   110784763.442 8        48.650    21081629.780    86325761.70148
        46.200
  21138498.360   111083606.705 8        47.200    21138497.340    86558686.07248
        45.100    21138497.940
  24370564.520   128068188.748 6        41.900    24370563.000    99793382.10845
        37.850    24370563.940
  25609871.180   134580778.656 6        41.650    25609870.840   104868133.20943
        31.150    25609871.400
  25009920.760   131428029.883 7        44.050    25009921.060   102411437.87345
        36.750    25009921.920
 19  9 29 20  8 30.0000000  0 10G05G10G13G15G20G21G24G27G29G32
  25459874.460   133792517.705 7        43.750    25459871.400   104253923.76745
        36.400    25459872.360
  23072980.760   121249349.462 8        46.600    23072979.540    94480031.58247
        43.850    23072979.900
  23534516.520   123674733.605 6        40.100    23534512.740    96369944.44245
        37.000
  20891085.400   109783449.472 9        50.600    20891081.220    85545548.63047
        42.700    20891081.980
  20859357.400   109616700.736 9        49.100    20859352.880    85415625.48547
        44.200
  21081473.200   110783918.107 8        48.450    21081468.900    86325103.00048
        45.900
  21126834.540   111022312.980 8        47.100    21126833.500    86510924.75748
        45.000    21126834.100
  24370119.140   128065848.447 7        42.600    24370117.680    99791558.50545
        36.200    24370118.620
  25628589.500   134679142.018 6        41.950    25628588.400   104944779.74044
        32.200    25628589.580
  24991926.580   131333469.847 7        42.550    24991926.900   102337754.75744
        33.900    24991927.740
 19  9 29 20  9  0.0000000  0 10G05G10G13G15G20G21G24G27G29G32
  25476887.960   133881924.408 6        41.250    25476885.100   104323591.21844
        32.050    25476886.020
  23057834.640   121169756.427 8        47.200    23057833.520    94418011.07447
        42.650    23057833.880
  23553341.460   123773659.051 6        40.400    23553337.700    96447029.14644
        34.650
  20902926.240   109845673.440 9        50.600    20902922.000    85594034.84847
        43.550    20902922.780
  20848661.480   109560493.278 9        49.650    20848656.920    85371827.48347
        44.600
  21081405.740   110783563.649 8        48.550    21081401.460    86324826.79548
        46.500
  21115270.380   110961543.127 8        47.900    21115269.360    86463571.65648
        45.100    21115269.960
  24369779.320   128064062.639 7        42.600    24369777.900    99790166.95045
        37.600    24369778.820
  25647274.400   134777329.363 5        37.200    25647272.560   105021289.13643
        29.600    25647273.940
  24973955.120   131239029.476 4        33.000    24973955.440   102264164.92143
        30.950    24973956.280
 19  9 29 20  9 30.0000000  0 10G05G10G13G15G20G21G24G27G29G32
  25493911.660   133971384.614 7        42.000    25493908.860   104393300.36644
        35.600    25493909.800
  23042700.580   121090226.223 8        46.650    23042699.500    94356039.49146
        39.950    23042699.860
  23572183.040   123872672.241 6        40.700    23572179.340    96524182.24645
        36.850
  20914824.260   109908197.863 9        50.350    20914819.960    85642755.18147
        43.750    20914820.740
  20838011.540   109504527.303 9        49.650    20838006.920    85328217.64647
        44.950
  21081431.220   110783697.521 8        48.100    21081426.960    86324931.11148
        46.300
  21103805.760   110901296.292 8        47.950    21103804.740    86416626.10348
        45.200    21103805.340
  24369544.300   128062827.745 7        42.050    24369542.920    99789204.71945
        37.700    24369543.820
  25665924.720   134875336.006 5        36.600    25665922.720   105097657.72344
        35.250    25665924.200
  24956005.940   131144706.566 4        32.700    24956006.260   102190666.84644
        33.000    24956007.080
 19  9 29 20 10  0.0000000  0  9G05G10G13G15G20G21G24G27G32
  25510945.300   134060897.340 6        41.750    25510942.500   104463050.47544
        35.050    25510943.540
  23027578.480   121010759.064 8        45.750    23027577.420    94294117.00346
        39.550    23027577.760
  23591040.920   123971771.050 6        40.850    23591037.260    96601402.04944
        35.350
  20926779.100   109971020.716 9        49.900    20926774.720    85691708.05647
        44.000    20926775.520
  20827407.700   109448803.522 9        49.150    20827403.000    85284796.52247
        44.550
  21081549.580   110784319.649 8        47.750    21081545.360    86325415.88248
        46.250
  21092441.080   110841574.543 8        47.550    21092440.000    86370089.69947
        44.800    21092440.620
  24369413.960   128062142.709 7        42.400    24369412.620    99788670.90545
        36.600    24369413.500
  24938079.320   131050501.813 5        36.800    24938079.620   102117260.56744
        35.200    24938080.400
 19  9 29 20 10 30.0000000  0 10G05G10G13G15G20G21G24G27G29G32
  25527989.340   134150464.396 7        42.750    25527986.560   104532842.87344
        35.500    25527987.660
  23012468.920   120931357.888 8        45.250    23012467.820    94232245.96746
        40.750    23012468.160
  23609915.080   124070955.499 6        41.650    23609911.460    96678688.59344
        35.950
  20938790.700   110034141.846 9        49.200    20938786.280    85740893.34347
        43.900    20938787.080
  20816850.560   109393325.145 8        48.700    20816845.800    85241566.62947
        44.900
  21081761.340   110785432.579 8        47.850    21081757.180    86326283.09448
        45.950
  21081176.980   110782381.450 8        47.600    21081175.860    86323965.25147
        44.800    21081176.500
  24369388.500   128062009.016 7        42.750    24369387.200    99788566.72645
        37.100    24369388.060
  25703119.400   135070798.548 5        36.200    25703119.340   105249967.80943
        28.300    25703119.960
  24920175.640   130956417.718 5        38.500    24920175.940   102043948.39845
        37.950    24920176.660
 19  9 29 20 11  0.0000000  0 10G05G10G13G15G20G21G24G27G29G32
  25545042.460   134240078.997 7        43.100    25545039.720   104602672.32844
        35.850    25545040.840
  22997370.760   120852016.727 8        45.850    22997369.660    94170421.73047
        43.600    22997369.980
  23628803.800   124170216.524 6        41.750    23628800.220    96756034.81444
        35.100
  20950857.300   110097552.314 8        48.400    20950852.920    85790304.07147
        44.500    20950853.720
  20806339.120   109338087.068 8        48.250    20806334.320    85198523.98647
        44.800
  21082065.280   110787030.094 8        47.750    21082061.180    86327527.89848
        46.050
  21070012.800   110723713.364 8        47.550    21070011.620    86278249.89048
        45.550    21070012.300
  24369466.620   128062419.405 7        42.600    24369465.280    99788886.50645
        37.200    24369466.140
  25721663.440   135168261.394 6        40.550    25721661.640   105325916.16644
        33.750    25721664.820
  24902293.820   130862448.490 7        42.550    24902294.140   101970725.76244
        35.800    24902294.820
 19  9 29 20 11 30.0000000  0 10G05G10G13G15G20G21G24G27G29G32
  25562105.120   134329743.594 6        40.650    25562102.420   104672540.76744
        34.550    25562103.540
  22982284.780   120772739.537 8        46.750    22982283.720    94108647.33647
        44.550    22982284.000
  23647707.420   124269555.820 7        42.650    23647703.840    96833442.03343
        31.950
  20962979.200   110161253.500 9        49.200    20962974.920    85839941.32447
        43.600    20962975.700
  20795874.240   109283093.892 8        48.700    20795869.440    85155672.17647
        44.800
  21082462.060   110789115.413 8        48.300    21082458.000    86329152.81248
        45.750
  21058949.360   110665574.663 8        48.100    21058948.140    86232947.03048
        45.450    21058948.840
  24369648.720   128063376.260 7        43.050    24369647.320    99789632.09745
        36.350    24369648.220
  25740170.380   135265516.076 6        39.800    25740169.180   105401698.76044
        32.150    25740171.560
  24884434.700   130768598.220 8        45.650    24884434.980   101897595.69245
        36.100    24884435.660
 19  9 29 20 12  0.0000000  0 10G05G10G13G15G20G21G24G27G29G32
  25579177.000   134419457.097 7        42.300    25579174.460   104742447.32444
        33.400    25579175.540
  22967211.020   120693526.557 8        46.700    22967210.040    94046922.97847
        44.900    22967210.300
  23666625.440   124368970.647 7        42.850    23666621.820    96910908.10744
        34.800
  20975155.840   110225242.566 9        49.800    20975151.680    85889802.91847
        43.250    20975152.440
  20785456.140   109228346.473 8        48.400    20785451.340    85113011.85447
        44.750
  21082951.680   110791688.609 8        48.400    21082947.640    86331157.90048
        45.750
  21047987.100   110607967.637 8        47.800    21047985.860    86188058.47248
        45.800    21047986.540
  24369934.620   128064878.478 6        41.650    24369933.160    99790802.64245
        36.500    24369934.060
  25758640.920   135362572.308 7        42.550    25758641.300   105477348.24344
        33.600    25758642.000
  24866598.240   130674867.074 7        44.900    24866598.500   101824558.52044
        33.850    24866599.180
 19  9 29 20 12 30.0000000  0  9G05G10G13G15G20G21G24G27G32
  25596258.940   134509223.282 6        41.200    25596256.520   104812394.89243
        28.900    25596257.580
  22952150.360   120614382.459 8        46.650    22952149.460    93985252.28447
        44.550    22952149.700
  23685558.180   124468462.883 7        42.900    23685554.540    96988434.50444
        34.650
  20987387.680   110289521.613 9        50.400    20987383.620    85939890.48347
        43.800    20987384.360
  20775085.780   109173849.979 8        48.650    20775081.000    85070547.05947
        44.750
  21083534.900   110794753.567 8        48.400    21083530.840    86333546.18348
        45.850
  21037127.060   110550897.658 8        47.500    21037125.820    86143588.37048
        45.750    21037126.480
  24370324.860   128066929.258 7        42.100    24370323.340    99792400.67745
        37.750    24370324.260
  24848785.300   130581259.732 7        43.750    24848785.520   101751617.88744
        32.750    24848786.160
 19  9 29 20 13  0.0000000  0  9G05G10G13G15G20G21G24G27G32
  25613350.700   134599040.593 7        43.200    25613348.260   104882382.27444
        33.400    25613349.360
  22937102.820   120535307.237 8        46.300    22937102.000    93923635.25647
        42.700    22937102.200
  23704505.180   124568029.984 7        42.750    23704501.500    97066019.23444
        32.950
  20999674.260   110354088.124 9        50.700    20999670.240    85990202.06447
        44.000    20999670.960
  20764763.240   109119604.783 8        48.900    20764758.500    85028278.07247
        44.650
  21084211.700   110798310.167 8        48.850    21084207.620    86336317.55748
        46.000
  21026369.540   110494366.554 8        47.600    21026368.300    86099538.17948
        45.750    21026368.960
  24370819.200   128069527.100 7        43.600    24370817.620    99794424.99045
        37.450    24370818.560
  24830995.940   130487776.266 7        43.800    24830996.120   101678773.73744
        34.700    24830996.740
 19  9 29 20 13 30.0000000  0  9G05G10G13G15G20G21G24G27G32
  25630452.260   134688909.490 6        41.500    25630449.800   104952409.89844
        34.500    25630450.900
  22922068.680   120456302.464 8        45.800    22922067.900    93862073.11546
        41.200    22922068.100
  23723466.200   124667670.765 7        42.200    23723462.460    97143661.38643
        30.600
  21012015.220   110418940.325 9        50.550    21012011.180    86040736.25347
        43.900    21012011.900
  20754488.980   109065613.175 8        48.950    20754484.220    84986206.68248
        45.000
  21084982.240   110802359.293 8        48.800    21084978.140    86339472.71048
        46.000
  21015715.020   110438376.836 8        47.350    21015713.800    86055909.86548
        45.600    21015714.460
  24371417.680   128072672.018 7        43.050    24371416.020    99796875.58645
        37.000    24371417.000
  24813230.480   130394418.173 7        42.800    24813230.620   101606027.20145
        36.650    24813231.220
 19  9 29 20 14  0.0000000  0  9G05G10G13G15G20G21G24G27G32
  25647564.160   134778833.294 7        43.300    25647561.760   105022480.39045
        36.350    25647562.840
  22907048.840   120377372.835 8        45.200    22907048.040    93800569.51046
        41.500    22907048.260
  23742441.640   124767387.370 7        42.300    23742437.880    97221362.60643
        31.900
  21024410.940   110484080.161 9        50.100    21024406.860    86091494.57447
        43.650    21024407.580
  20744263.980   109011880.487 9        49.250    20744259.220    84944337.06847
        44.850
  21085847.360   110806905.345 9        49.050    21085843.220    86343015.08448
        45.650
  21005164.680   110382934.504 8        47.350    21005163.460    86012708.06248
        45.300    21005164.120
  24372120.840   128076367.089 7        43.250    24372119.120    99799754.88245
        37.550    24372120.100
  24795489.680   130301189.957 6        39.650    24795489.760   101533381.90045
        38.150    24795490.380
 19  9 29 20 14 30.0000000  0  9G05G10G13G15G20G21G24G27G32
  25664684.160   134868799.417 7        42.300    25664681.840   105092583.77944
        35.950    25664682.920
  22892041.100   120298506.954 8        45.850    22892040.280    93739115.58246
        41.650    22892040.520
  23761428.720   124867165.193 7        42.600    23761424.900    97299111.56243
        31.850
  21036858.780   110549493.823 9        49.750    21036854.640    86142466.26347
        43.350    21036855.360
  20734086.240   108958396.110 9        49.300    20734081.460    84902660.93447
        44.950
  21086804.740   110811936.064 9        49.300    21086800.500    86346935.12148
        46.050
  20994716.460   110328028.871 8        47.600    20994715.200    85969924.48148
        45.050    20994715.900
  24372926.260   128080599.337 7        43.200    24372924.460    99803052.72144
        34.950    24372925.460
  24777771.400   130208080.212 6        39.300    24777771.420   101460829.01745
        37.700    24777772.060
 19  9 29 20 15  0.0000000  0  9G05G10G13G15G20G21G24G27G32
  25681813.680   134958815.529 6        40.650    25681811.440   105162726.12644
        33.900    25681812.500
  22877047.160   120219713.517 8        46.550    22877046.320    93677718.14047
        43.650    22877046.580
  23780428.680   124967010.520 7        42.050    23780424.820    97376913.07044
        34.250
  21049359.740   110615186.863 8        48.800    21049355.580    86193655.63147
        44.000    21049356.320
  20723957.420   108905168.739 9        49.000    20723952.620    84861185.07448
        45.000
  21087855.920   110817459.705 9        49.050    21087851.620    86351239.24948
        46.350
  20984372.320   110273670.109 8        47.100    20984371.040    85927567.01248
        45.700    20984371.740
  24373835.200   128085375.822 7        42.750    24373833.280    99806774.70345
        37.750    24373834.340
  24760077.380   130115097.745 7        43.250    24760077.360   101388375.23945
        38.700    24760078.000
 19  9 29 20 15 30.0000000  0  9G05G10G13G15G20G21G24G27G32
  25698952.460   135048879.958 6        41.350    25698950.260   105232906.08845
        37.200    25698951.320
  22862066.920   120140992.106 8        47.350    22862066.100    93616376.80347
        44.700    22862066.380
  23799440.900   125066920.245 7        42.500    23799437.000    97454764.76344
        34.300
  21061913.240   110681156.088 8        48.850    21061909.100    86245060.19747
        43.950    21061909.880
  20713877.580   108852198.754 8        48.650    20713872.740    84819909.77647
        44.850
  21089000.660   110823474.987 9        49.000    21088996.280    86355926.47948
        46.300
  20974132.440   110219859.326 8        47.000    20974131.140    85885636.56048
        45.450    20974131.860
  24374847.300   128090694.357 7        43.000    24374845.320    99810919.02445
        37.600    24374846.400
  24742407.420   130022242.025 7        42.850    24742407.320   101316020.16044
        35.350    24742407.960
 19  9 29 20 16  0.0000000  0  9G05G10G13G15G20G21G24G27G32
  25716100.380   135138992.781 7        43.000    25716098.260   105303123.80244
        35.350    25716099.300
  22847100.760   120062344.412 8        47.400    22847099.920    93555092.91447
        44.000    22847100.220
  23818465.180   125166893.317 7        42.550    23818461.240    97532665.83144
        32.500
  21074519.080   110747400.442 9        49.100    21074514.980    86296679.15047
        44.500    21074515.780
  20703847.120   108799488.394 8        48.650    20703842.280    84778836.78448
        45.200
  21090239.180   110829983.091 9        49.000    21090234.740    86360997.72948
        46.100
  20963997.260   110166598.753 8        46.800    20963995.960    85844134.83048
        45.700    20963996.680
  24375962.560   128096555.054 7        42.750    24375960.560    99815485.81346
        39.550    24375961.660
  24724761.900   129929514.665 7        44.250    24724761.760   101243765.14944
        34.100    24724762.420
 19  9 29 20 16 30.0000000  0  9G05G10G13G15G20G21G24G27G32
  25733257.360   135229153.230 7        44.300    25733255.320   105373378.63644
        32.600    25733256.360
  22832148.700   119983770.765 8        46.600    22832147.840    93493866.75747
        42.900    22832148.120
  23837501.040   125266927.187 7        42.750    23837497.100    97610614.26044
        32.100
  21087176.800   110813917.575 9        49.200    21087172.760    86348510.68647
        44.150    21087173.560
  20693866.180   108747038.402 8        48.750    20693861.340    84737966.69248
        45.000
  21091571.420   110836983.880 9        49.250    21091566.920    86366452.90248
        45.750
  20953967.080   110113890.143 8        47.350    20953965.780    85803063.22447
        44.950    20953966.520
  24377180.680   128102956.425 7        42.900    24377178.700    99820473.90545
        37.400    24377179.800
  24707140.880   129836915.893 7        44.850    24707140.720   101171610.39544
        35.050    24707141.420
 19  9 29 20 17  0.0000000  0  9G05G10G13G15G20G21G24G27G32
  25750423.160   135319359.558 7        43.250    25750421.200   105443669.16144
        34.700    25750422.200
  22817210.520   119905270.209 8        45.800    22817209.640    93432697.53446
        41.200    22817209.940
  23856547.780   125367018.297 7        42.100    23856543.820    97688607.31144
        34.900
  21099885.680   110880703.387 8        48.950    21099881.680    86400551.55847
        44.550    21099882.520
  20683934.780   108694848.708 8        48.650    20683929.960    84697299.39647
        44.700
  21092997.080   110844475.501 9        49.150    21092992.520    86372290.51448
        45.700
  20944041.940   110061733.451 8        47.200    20944040.680    85762421.65448
        45.800    20944041.400
  24378501.200   128109895.786 6        41.900    24378499.200    99825881.21046
        39.350    24378500.320
  24689544.140   129744444.599 7        44.800    24689543.940   101099554.91344
        34.850    24689544.680
 19  9 29 20 17 30.0000000  0  9G05G10G13G15G20G21G24G27G32
  25767598.480   135409616.271 6        41.250    25767596.600   105513999.03744
        35.000    25767597.540
  22802287.420   119826848.797 8        47.150    22802286.500    93371589.96046
        40.800    22802286.800
  23875606.100   125467170.195 7        42.050    23875602.100    97766647.73244
        32.500
  21112646.340   110947761.253 9        49.250    21112642.400    86452804.41847
        44.300    21112643.240
  20674054.120   108642925.611 8        48.950    20674049.300    84656839.85247
        44.750
  21094517.160   110852463.357 9        49.400    21094512.540    86378514.81048
        45.450
  20934223.160   110010135.740 8        47.550    20934221.920    85722215.67648
        45.550    20934222.660
  24379924.880   128117377.436 6        41.600    24379922.920    99831711.08745
        38.500    24379924.040
  24671972.800   129652106.774 7        44.100    24671972.540   101027603.38145
        38.300    24671973.300
 19  9 29 20 18  0.0000000  0  9G05G10G13G15G20G21G24G27G32
  25784782.920   135499921.113 5        38.500    25784781.120   105584366.43843
        29.050    25784781.980
  22787379.240   119748505.599 8        48.100    22787378.260    93310543.31246
        40.800    22787378.560
  23894675.260   125567378.976 7        42.250    23894671.200    97844732.46644
        33.800
  21125458.020   111015087.185 9        49.650    21125454.140    86505266.17947
        44.500    21125454.980
  20664224.140   108591268.796 8        48.950    20664219.300    84616587.78847
        44.950
  21096131.360   110860945.820 8        48.900    21096126.680    86385124.51948
        45.750
  20924510.760   109959096.973 8        47.550    20924509.540    85682445.22648
        46.050    20924510.280
  24381451.220   128125398.490 7        42.650    24381449.300    99837961.26546
        39.550    24381450.420
  24654426.620   129559901.278 7        44.150    24654426.280   100955754.98245
        36.700    24654427.040
 19  9 29 20 18 30.0000000  0  9G05G10G13G15G20G21G24G27G32
  25801974.840   135590270.822 4        34.000    25801974.880   105654772.69643
        29.550    25801975.280
  22772485.740   119670239.407 8        48.250    22772484.620    93249556.64946
        41.750    22772484.940
  23913754.480   125667640.754 6        41.800    23913750.400    97922858.51344
        32.550
  21138319.940   111082677.065 9        49.500    21138316.100    86557933.61647
        44.200    21138316.920
  20654444.740   108539877.610 8        48.950    20654439.860    84576542.71447
        44.650
  21097839.280   110869920.858 9        49.000    21097834.520    86392118.05948
        45.350
  20914904.800   109908617.404 8        47.950    20914903.580    85643110.51448
        45.900    20914904.340
  24383079.640   128133955.977 7        42.950    24383077.820    99844629.43246
        40.100    24383078.900
  24636905.380   129467826.800 7        42.800    24636904.940   100884008.67244
        35.700    24636905.700
 19  9 29 20 19  0.0000000  0  9G05G10G13G15G20G21G24G27G32
  25819176.740   135680666.093 8        45.800    25819176.340   105725210.47744
        35.600    25819176.900
  22757607.120   119592051.506 8        47.000    22757605.880    93188631.03447
        43.300    22757606.200
  23932843.580   125767954.349 6        41.700    23932839.460    98001024.91443
        31.550
  21151231.860   111150529.671 9        49.300    21151228.060    86610805.76847
        43.950    21151228.860
  20644716.180   108488753.716 8        48.700    20644711.280    84536705.91848
        45.300
  21099641.040   110879389.024 9        49.000    21099636.200    86399495.84948
        45.250
  20905405.500   109858698.285 8        47.200    20905404.300    85604212.52048
        46.700    20905405.040
  24384810.040   128143049.293 7        42.650    24384808.300    99851715.13546
        40.850    24384809.360
  24619409.300   129375884.455 7        42.300    24619408.780   100812365.44244
        35.550    24619409.580
 19  9 29 20 19 30.0000000  0  9G05G10G13G15G20G21G24G27G32
  25836387.400   135771107.287 5        38.650    25836386.780   105795684.15744
        32.150    25836387.300
  22742743.640   119513943.275 8        46.800    22742742.320    93127767.53947
        43.700    22742742.620
  23951942.240   125868318.301 7        42.150    23951938.080    98079230.59044
        35.850
  21164193.480   111218643.357 9        49.100    21164189.700    86663881.35347
        43.700    21164190.500
  20635038.860   108437899.078 8        48.800    20635033.920    84497078.93748
        45.600
  21101536.700   110889350.690 8        48.850    21101531.800    86407258.19048
        45.950
  20896013.420   109809342.724 8        47.650    20896012.220    85565753.67848
        45.950    20896012.960
  24386642.320   128152677.905 7        42.950    24386640.660    99859217.94846
        41.250    24386641.680
  24601938.600   129284075.486 7        43.100    24601938.000   100740826.07244
        35.450    24601938.840
 19  9 29 20 20  0.0000000  0  8G10G13G15G20G21G24G27G32
  22727895.560   119435916.272 8        46.400    22727894.220    93066967.35347
        44.600    22727894.540
  23971050.260   125968731.374 7        42.200    23971046.080    98157474.51144
        35.300
  21177204.520   111287016.826 9        49.100    21177200.740    86717159.37147
        43.400    21177201.540
  20625413.200   108387315.945 8        48.800    20625408.240    84457663.52848
        45.700
  21103526.440   110899806.784 8        48.550    21103521.480    86415405.80048
        45.750
  20886729.000   109760552.786 8        48.350    20886727.800    85527735.57348
        45.850    20886728.520
  24388576.380   128162841.448 7        42.550    24388574.800    99867137.59246
        39.550    24388575.800
  24584493.520   129192401.276 6        40.350    24584492.840   100669391.67245
        38.400    24584493.720
 19  9 29 20 20 30.0000000  0  9G05G10G13G15G20G21G24G27G32
  25870832.500   135952155.463 4        33.700    25870830.720   105936731.7434
        20.650
  22713063.200   119357971.865 8        46.850    22713061.900    93006231.50047
        43.950    22713062.200
  23990167.380   126069192.271 6        41.750    23990163.180    98235755.71145
        37.350
  21190264.800   111355649.118 9        49.150    21190261.000    86770639.07147
        43.000    21190261.800
  20615839.500   108337005.923 9        49.050    20615834.560    84418460.92948
        45.800
  21105610.320   110910757.592 8        48.900    21105605.300    86423938.89947
        44.700
  20877552.720   109712330.922 8        48.200    20877551.480    85490160.10148
        45.750    20877552.200
  24390612.100   128173539.182 6        41.700    24390610.600    99875473.48245
        38.850    24390611.580
  24567074.260   129100862.912 6        40.550    24567073.520   100598063.14045
        37.300    24567074.420
 19  9 29 20 21  0.0000000  0  9G05G10G13G15G20G21G24G27G32
  25888071.440   136042735.038 5        38.600    25888068.600   106007309.17442
        27.700    25888070.920
  22698246.860   119280111.725 8        46.800    22698245.600    92945561.28447
        42.900    22698245.880
  24009293.420   126169700.030 6        41.500    24009289.200    98314073.42644
        33.700
  21203374.000   111424538.411 9        49.250    21203370.160    86824319.02947
        43.400    21203370.980
  20606318.200   108286971.219 9        49.200    20606313.260    84379472.86348
        45.400
  21107788.460   110922203.863 8        48.800    21107783.400    86432858.06947
        44.850
  20868484.940   109664679.433 8        47.550    20868483.660    85453029.09748
        46.150    20868484.400
  24392749.420   128184770.874 7        42.850    24392748.000    99884225.46945
        38.850    24392748.940
  24549681.180   129009461.994 5        38.500    24549680.380   100526841.66945
        38.250    24549681.320
 19  9 29 20 21 30.0000000  0  9G05G10G13G15G20G21G24G27G32
  25905316.860                          37.950
                  25905315.960
  22683444.820   119202326.693 8        47.500    22683443.560    92884949.57047
        42.050    22683443.840
  24028426.040   126270242.419 6        40.750    24028421.840    98392418.10244
        35.900
  21216529.780   111493672.438 9        49.600    21216525.920    86878189.68347
        43.750    21216526.760
  20596847.680   108237203.287 9        49.100    20596842.740    84340692.66548
        45.550
  21110058.960   110934135.350 8        48.600    21110053.860    86442155.32048
        45.200
  20859524.080   109617589.711 8        47.850    20859522.740    85416335.83048
        46.350    20859523.480
  24394986.180   128196525.180 7        43.700    24394984.840    99893384.68045
        38.650    24394985.740
  24532312.380   128918188.870 6        39.750    24532311.560   100455719.85745
        36.750    24532312.520
 19  9 29 20 22  0.0000000  0  8G10G13G15G20G21G24G27G32
  22668659.600   119124629.903 8        47.700    22668658.320    92824406.60346
        41.600    22668658.600
  24047567.300   126370830.385 6        39.750    24047563.120    98470798.32344
        34.250
  21229734.160   111563061.884 9        49.950    21229730.320    86932259.37347
        44.250    21229731.140
  20587430.520   108187715.757 9        49.200    20587425.560    84302130.96548
        45.400
  21112424.140   110946564.550 8        48.450    21112419.020    86451840.40048
        45.350
  20850672.780   109571075.942 8        47.650    20850671.440    85380091.36348
        46.050    20850672.180
  24397324.560   128208813.350 7        43.400    24397323.260    99902959.89245
        38.650    24397324.140
  24514970.420   128827056.686 7        42.050    24514969.620   100384707.91345
        36.850    24514970.580
 19  9 29 20 22 30.0000000  0  8G10G13G15G20G21G24G27G32
  22653891.860   119047024.927 8        47.750    22653890.560    92763935.19946
        41.750    22653890.840
  24066717.360   126471464.918 6        39.750    24066713.240    98549214.84745
        36.650
  21242987.280   111632707.384 9        49.950    21242983.460    86986528.59447
        43.900    21242984.240
  20578067.420   108138512.260 9        49.350    20578062.440    84263790.58048
        45.300
  21114884.540   110959494.191 8        48.450    21114879.440    86461915.43747
        44.950
  20841931.820   109525141.979 8        47.050    20841930.480    85344298.68148
        45.550    20841931.220
  24399764.820   128221636.843 7        43.150    24399763.540    99912952.21646
        39.400    24399764.420
  24497655.920   128736068.731 7        42.600    24497655.100   100313808.31744
        35.250    24497656.080
 19  9 29 20 23  0.0000000  0  8G10G13G15G20G21G24G27G32
  22639140.100   118969503.920 8        46.750    22639138.760    92703529.25147
        42.950    22639139.040
  24085874.240   126572135.089 6        40.300    24085870.220    98627659.09044
        35.600
  21256287.080   111702598.102 9        49.550    21256283.260    87040988.89247
        44.500    21256284.020
  20568757.100   108089586.062 9        49.200    20568752.100    84225666.28648
        45.650
  21117438.440   110972915.208 8        48.650    21117433.360    86472373.36848
        45.100
  20833299.880   109479780.978 8        47.500    20833298.560    85308952.46748
        45.200    20833299.300
  24402305.060   128234985.652 7        43.000    24402303.780    99923353.87146
        39.800    24402304.640
  24480367.340   128645216.906 7        43.500    24480366.500   100243014.77545
        36.750    24480367.480
 19  9 29 20 23 30.0000000  0  8G10G13G15G20G21G24G27G32
  22624404.660   118892068.779 8        47.200    22624403.300    92643190.21847
        43.800    22624403.580
  24105037.740   126672840.166 6        40.300    24105033.800    98706130.55644
        33.000
  21269633.400   111772733.217 9        49.350    21269629.580    87095639.60647
        43.850    21269630.340
  20559499.920   108040939.206 9        49.200    20559494.940    84187759.64448
        45.250
  21120086.020   110986828.355 9        49.000    21120080.940    86483214.76547
        44.850
  20824777.400   109434995.248 8        48.100    20824776.080    85274054.50847
        44.900    20824776.840
  24404945.160   128248859.421 7        42.750    24404943.880    99934164.62345
        38.950    24404944.720
  24463104.960   128554502.871 7        44.150    24463104.080   100172328.52045
        36.200    24463105.060
 19  9 29 20 24  0.0000000  0  8G10G13G15G20G21G24G27G32
  22609686.220   118814722.962 8        47.650    22609684.880    92582920.79247
        44.550    22609685.140
  24124208.100   126773581.043 6        40.200    24124204.240    98784629.89245
        36.850
  21283026.320   111843113.373 9        49.300    21283022.540    87150481.25847
        44.200    21283023.300
  20550296.680   107992575.690 8        48.800    20550291.680    84150073.78648
        45.900
  21122827.720   111001236.136 9        49.000    21122822.640    86494441.58948
        45.750
  20816365.180   109390788.878 8        47.700    20816363.840    85239608.00448
        45.400    20816364.620
  24407685.400   128263259.498 7        43.300    24407684.140    99945385.46646
        39.550    24407684.980
  24445869.440   128463929.743 8        45.100    24445868.580   100101752.10045
        36.000    24445869.540
 19  9 29 20 24 30.0000000  0  8G10G13G15G20G21G24G27G32
  22594984.580   118737465.394 8        47.750    22594983.260    92522720.12248
        45.050    22594983.520
  24143384.480   126874353.795 6        39.350    24143380.720    98863154.10845
        36.950
  21296465.060   111913734.460 8        48.900    21296461.320    87205510.67048
        45.100    21296462.060
  20541147.240   107944495.098 8        48.100    20541142.260    84112608.40648
        46.100
  21125663.140   111016136.279 9        49.050    21125658.040    86506052.09648
        46.100
  20808063.240   109347162.118 8        46.900    20808061.900    85205613.14948
        45.950    20808062.680
  24410525.160   128278182.490 7        42.350    24410523.940    99957013.77446
        39.850    24410524.760
  24428660.480   128373496.093 7        44.700    24428659.620   100031284.36145
        36.050    24428660.540
 19  9 29 20 25  0.0000000  0  8G10G13G15G20G21G24G27G32
  22580300.700   118660301.128 8        47.850    22580299.380    92462592.14747
        43.900    22580299.660
  24162567.440   126975160.785 6        40.400    24162563.760    98941704.94645
        37.050
  21309950.060   111984598.619 8        48.800    21309946.340    87260729.47647
        44.600    21309947.100
  20532052.580   107896702.521 8        48.450    20532047.660    84075367.44548
        46.000
  21128593.040   111031532.824 9        49.150    21128587.940    86518049.38848
        46.150
  20799872.560   109304120.062 8        47.600    20799871.240    85172073.90048
        45.700    20799872.040
  24413464.940   128293631.236 7        42.550    24413463.780    99969051.75946
        39.650    24413464.580
  24411478.940   128283206.685 8        45.100    24411478.080    99960929.05444
        34.650    24411478.980
 19  9 29 20 25 30.0000000  0  8G10G13G15G20G21G24G27G32
  22565633.900   118583226.508 8        47.700    22565632.540    92402534.01047
        42.100    22565632.820
  24181755.740   127075995.975 6        40.900    24181752.080    99020277.81744
        35.200
  21323480.060   112055699.346 9        49.200    21323476.360    87316132.63047
        44.500    21323477.140
  20523012.200   107849195.016 8        48.850    20523007.300    84038348.60848
        46.350
  21131616.440   111047420.793 8        48.950    21131611.380    86530429.61748
        46.050
  20791792.540   109261659.406 8        48.100    20791791.240    85138987.68648
        46.050    20791792.020
  24416503.620   128309599.799 7        42.550    24416502.520    99981494.83845
        38.400    24416503.260
  24394324.100   128193057.553 7        44.800    24394323.220    99890683.05545
        36.750    24394324.080
 19  9 29 20 26  0.0000000  0  8G10G13G15G20G21G24G27G32
  22550985.440   118506248.315 8        46.800    22550984.040    92342551.01747
        43.150    22550984.320
  24200950.160   127176863.330 6        40.950    24200946.580    99098875.73845
        36.950
  21337055.860   112127040.725 9        49.450    21337052.180    87371723.31347
        44.250    21337052.960
  20514027.420   107801979.776 8        48.800    20514022.580    84001557.51648
        46.750
  21134734.540   111063806.317 9        49.100    21134729.480    86543197.54548
        46.650
  20783824.580   109219787.418 8        48.350    20783823.260    85106360.17048
        46.050    20783824.040
  24419642.080   128326092.686 7        42.550    24419641.000    99994346.45345
        38.500    24419641.760
  24377197.180   128103055.173 8        45.000    24377196.260    99820551.36945
        37.300    24377197.120
 19  9 29 20 26 30.0000000  0  8G10G13G15G20G21G24G27G32
  22536354.500   118429362.464 8        45.300    22536353.080    92282639.99747
        43.250    22536353.360
  24220149.440   127277756.098 6        41.100    24220145.920    99177493.45744
        34.000
  21350676.040   112198615.390 9        49.650    21350672.360    87427495.77347
        43.600    21350673.160
  20505097.580   107755053.252 8        48.750    20505092.760    83964991.40448
        46.000
  21137946.300   111080683.993 9        49.150    21137941.240    86556348.97748
        45.950
  20775968.060   109178501.079 8        47.900    20775966.720    85074189.01248
        45.300    20775967.500
  24422879.140   128343103.524 7        42.700    24422878.040   100007601.63845
        36.850    24422878.820
  24360097.340   128013195.167 7        43.350    24360096.420    99750530.60645
        38.050    24360097.260
 19  9 29 20 27  0.0000000  0  8G10G13G15G20G21G24G27G32
  22521741.440   118352570.728 8        47.150    22521740.040    92222802.31147
        42.800    22521740.340
  24239353.380   127378673.308 6        40.800    24239349.900    99256130.23345
        36.650
  21364340.480   112270422.549 9        49.800    21364336.800    87483449.39147
        43.600    21364337.620
  20496223.060   107708417.430 8        48.700    20496218.280    83928651.80648
        46.200
  21141251.680   111098053.740 8        48.950    21141246.640    86569883.83148
        46.250
  20768223.360   109137802.333 8        48.050    20768221.980    85042475.70948
        45.550    20768222.760
  24426214.600   128360631.535 7        42.700    24426213.460   100021259.82845
        36.850    24426214.240
  24343024.840   127923478.782 7        43.500    24343023.900    99680621.80445
        36.500    24343024.720
 19  9 29 20 27 30.0000000  0  8G10G13G15G20G21G24G27G32
  22507146.740   118275875.280 8        48.300    22507145.360    92163039.62647
        43.900    22507145.640
  24258561.920   127479614.518 6        41.350    24258558.440    99334785.68044
        32.150
  21378049.040   112342461.350 9        49.750    21378045.340    87539583.50447
        42.600    21378046.160
  20487404.360   107662074.927 9        49.150    20487399.600    83892540.77548
        45.850
  21144650.980   111115916.975 9        49.050    21144645.940    86583803.22848
        45.450
  20760590.960   109097693.766 8        48.350    20760589.540    85011222.29848
        45.350    20760590.320
  24429648.460   128378676.628 7        42.850    24429647.300   100035320.93345
        38.650    24429648.080
  24325980.020   127833907.945 7        42.050    24325979.040    99610826.41645
        36.750    24325979.880
 19  9 29 20 28  0.0000000  0  8G10G13G15G20G21G24G27G32
  22492570.980   118199279.147 8        48.900    22492569.600    92103354.34047
        44.800    22492569.860
  24277775.040   127580579.974 6        41.250    24277771.560    99413460.05444
        32.050
  21391801.640   112414731.654 9        49.600    21391797.920    87595898.02047
        42.850    21391798.720
  20478642.140   107616029.150 9        49.150    20478637.400    83856660.96048
        46.550
  21148144.460   111134275.284 8        48.800    21148139.440    86598108.39648
        45.100
  20753071.400   109058178.293 8        48.100    20753069.960    84980431.04948
        46.250    20753070.740
  24433180.780   128397239.289 7        42.600    24433179.600   100049785.36945
        37.850    24433180.380
  24308963.380   127744485.192 6        41.850    24308962.340    99541146.43545
        37.600    24308963.220
 19  9 29 20 28 30.0000000  0  8G10G13G15G20G21G24G27G32
  22478014.040   118122781.887 8        48.100    22478012.660    92043746.09648
        45.050    22478012.920
  24296992.240   127681566.608 6        41.400    24296988.720    99492150.89644
        35.700
  21405597.800   112487230.840 9        49.450    21405594.040    87652390.88647
        43.250    21405594.820
  20469936.480   107570280.464 8        48.800    20469931.700    83821012.63348
        45.950
  21151731.800   111153126.756 8        48.800    21151726.760    86612797.84547
        44.800
  20745664.800   109019256.221 8        47.800    20745663.340    84950102.16248
        45.950    20745664.120
  24436811.120   128416316.736 6        41.450    24436809.920   100064650.89644
        35.950    24436810.700
  24291974.740   127655209.767 6        39.850    24291973.660    99471581.21245
        38.700    24291974.580
 19  9 29 20 29  0.0000000  0  8G10G13G15G20G21G24G27G32
  22463476.260   118046385.275 8        47.350    22463474.880    91984216.30747
        44.050    22463475.140
  24316213.300   127782573.605 6        41.150    24316209.740    99570857.64643
        31.950
  21419437.180   112559957.126 9        49.650    21419433.340    87709060.71747
        42.650    21419434.140
  20461287.680   107524830.677 8        48.650    20461282.880    83785597.22448
        45.600
  21155413.120   111172472.339 8        48.450    21155408.100    86627872.32147
        44.800
  20738371.420   108980929.321 8        47.650    20738369.960    84920237.05648
        46.200    20738370.740
  24440539.260   128435908.215 6        41.900    24440538.020   100079916.98145
        37.750    24440538.780
  24275014.400   127566082.965 5        38.950    24275013.240    99402131.83245
        38.600    24275014.200
 19  9 29 20 29 30.0000000  0  8G10G13G15G20G21G24G27G32
  22448957.480   117970088.828 8        46.950    22448956.140    91924764.58047
        43.300    22448956.400
  24335437.600   127883597.776 6        40.950    24335434.020    99649577.77544
        34.800
  21433319.100   112632907.034 9        49.800    21433315.200    87765904.80847
        42.650    21433316.000
  20452695.740   107479679.751 8        48.700    20452690.900    83750414.70148
        45.650
  21159188.060   111192309.888 8        48.200    21159183.040    86643330.14747
        44.250
  20731191.280   108943197.602 8        48.050    20731189.880    84890835.72648
        46.250    20731190.620
  24444364.620   128456010.699 6        40.750    24444363.340   100095581.24644
        35.950    24444364.120
  24258082.240   127477104.027 7        43.200    24258081.040    99332797.62345
        37.500    24258082.040
 19  9 29 20 30  0.0000000  0  8G10G13G15G20G21G24G27G32
  22434458.340   117893895.509 8        47.550    22434457.020    91865393.16846
        41.950    22434457.280
  24354665.260   127984639.528 6        41.000    24354661.700    99728311.57844
        35.150
  21447243.620   112706080.755 9        49.450    21447239.660    87822923.29147
        43.300    21447240.480
  20444161.320   107434831.160 8        48.550    20444156.460    83715467.76248
        46.100
  21163056.940   111212641.081 8        48.050    21163051.900    86659172.61947
        44.500
  20724125.080   108906064.588 8        48.650    20724123.720    84861900.92748
        46.350    20724124.440
  24448287.260   128476624.593 6        40.200    24448285.940   100111644.04545
        37.700    24448286.740
  24241178.620   127388275.314 5        38.950    24241177.340    99263580.50945
        37.350    24241178.380
 19  9 29 20 30 30.0000000  0  8G10G13G15G20G21G24G27G32
  22419978.360   117817802.940 8        47.900    22419977.000    91806100.24947
        43.050    22419977.280
  24373895.240   128085693.739 6        40.950    24373891.700    99807055.11744
        32.850
  21461209.760   112779473.221 9        49.400    21461205.780    87880112.22047
        43.050    21461206.600
  20435684.060   107390282.956 8        48.950    20435679.180    83680754.89348
        46.000
  21167018.960   111233461.881 8        48.400    21167013.900    86675396.60747
        44.050
  20717172.340   108869527.717 8        47.900    20717171.000    84833430.65248
        46.000    20717171.700
  24452306.240   128497744.932 6        41.600    24452304.920   100128101.48745
        37.100    24452305.720
  24224303.040   127299594.042 6        41.250    24224301.720    99194478.33845
        36.550    24224302.820
 19  9 29 20 31  0.0000000  0  8G10G13G15G20G21G24G27G32
  22405517.760   117741811.927 8        48.450    22405516.360    91746886.47947
        44.050    22405516.660
  24393127.240   128186758.431 6        41.550    24393123.760    99885806.79344
        34.350
  21475217.080   112853082.163 9        49.650    21475213.120    87937469.81747
        43.200    21475213.940
  20427264.160   107346036.138 8        48.750    20427259.280    83646276.84948
        46.550
  21171074.060   111254771.799 8        48.300    21171068.980    86692001.73947
        44.850
  20710333.160   108833587.620 8        48.000    20710331.840    84805425.39848
        46.200    20710332.520
  24456421.300   128519369.921 7        42.500    24456419.940   100144952.15645
        36.450    24456420.760
  24207455.600   127211060.531 6        41.300    24207454.280    99125491.24645
        38.850    24207455.420
 19  9 29 20 31 30.0000000  0  8G10G13G15G20G21G24G27G32
  22391077.380   117665927.058 8        48.350    22391075.940    91687755.43047
        44.900    22391076.260
  24412361.680   128287835.928 6        41.550    24412358.220    99964568.45844
        33.500
  21489265.940   112926909.369 9        50.200    21489262.000    87994997.50547
        42.800    21489262.800
  20418902.580   107302095.720 8        48.800    20418897.700    83612037.56748
        46.350
  21175222.820   111276573.825 8        48.900    21175217.720    86708990.31847
        44.550
  20703608.580   108798249.729 8        48.350    20703607.280    84777889.39448
        45.800    20703607.940
  24460632.840   128541501.540 7        42.800    24460631.420   100162197.53145
        36.400    24460632.260
  24190637.040   127122678.882 6        41.250    24190635.740    99056622.48646
        39.550    24190636.900
 19  9 29 20 32  0.0000000  0  8G10G13G15G20G21G24G27G32
  22376657.480   117590149.903 8        48.300    22376656.000    91628708.31347
        44.300    22376656.340
  24431598.220   128388924.554 6        41.050    24431594.780   100043338.79244
        34.750
  21503356.060   113000953.483 9        50.300    21503352.120    88052694.22647
        42.700    21503352.920
  20410599.660   107258463.723 8        48.850    20410594.800    83578038.61448
        46.300
  21179465.280   111298868.215 9        49.200    21179460.160    86726362.55947
        44.650
  20696998.820   108763515.364 8        48.350    20696997.540    84750823.67548
        45.500    20696998.200
  24464940.540   128564138.606 6        40.300    24464939.000   100179836.81545
        36.100    24464939.900
  24173847.600   127034450.219 7        44.200    24173846.340    98987872.96045
        38.550    24173847.480
 19  9 29 20 32 30.0000000  0  8G10G13G15G20G21G24G27G32
  22362258.640   117514483.373 8        47.700    22362257.160    91569747.39747
        44.600    22362257.480
  24450837.000   128490024.886 6        40.050    24450833.560   100122118.24045
        36.700
  21517487.460   113075214.449 9        50.050    21517483.520    88110559.91047
        42.600    21517484.320
  20402356.080   107215143.404 8        48.900    20402351.220    83544282.52448
        46.400
  21183801.720   111321656.322 9        49.150    21183796.560    86744119.51548
        45.100
  20690504.500   108729387.508 8        48.750    20690503.220    84724230.55148
        45.600    20690503.860
  24469344.480   128587281.435 6        41.050    24469342.860   100197870.18145
        37.850    24469343.780
  24157087.720   126946376.909 7        44.600    24157086.480    98919244.45444
        35.700    24157087.640
 19  9 29 20 33  0.0000000  0  8G10G13G15G20G21G24G27G32
  22347879.700   117438921.580 8        46.500    22347878.220    91510868.12747
        44.250    22347878.520
  24470076.380   128591128.487 6        39.700    24470072.960   100200900.23844
        35.100
  21531658.420   113149683.263 9        49.400    21531654.460    88168587.55847
        42.950    21531655.260
  20394170.760   107172129.278 8        48.700    20394165.900    83510765.03348
        46.550
  21188230.700   111344930.690 9        49.000    21188225.500    86762255.38248
        45.350
  20684124.460   108695860.106 8        48.600    20684123.160    84698105.31448
        45.600    20684123.800
  24473843.000   128610921.402 7        42.500    24473841.340   100216290.95245
        38.900    24473842.280
  24140356.240   126858452.596 7        43.350    24140355.040    98850732.05445
        38.850    24140356.180
 19  9 29 20 33 30.0000000  0  8G10G13G15G20G21G24G27G32
  22333521.720   117363470.288 8        46.950    22333520.300    91452074.96647
        44.600    22333520.580
  24489316.920   128692238.233 6        39.850    24489313.520   100279687.03544
        34.750
  21545869.520   113224362.989 9        49.150    21545865.580    88226779.55347
        42.900    21545866.360
  20386044.820   107129427.189 8        48.550    20386039.960    83477490.69048
        46.700
  21192753.020   111368695.466 8        48.750    21192747.800    86780773.37548
        46.300
  20677859.860   108662939.376 8        48.750    20677858.520    84672452.82148
        45.200    20677859.160
  24478436.740   128635061.555 7        42.750    24478435.040   100235101.44946
        39.550    24478436.020
  24123654.140   126770682.555 7        44.400    24123652.940    98782339.88345
        36.600    24123654.080
 19  9 29 20 34  0.0000000  0  8G10G13G15G20G21G24G27G32
  22319185.140   117288131.330 8        48.600    22319183.780    91393369.29947
        43.100    22319184.040
  24508558.500   128793353.450 6        39.900    24508555.140   100358478.07444
        34.000
  21560120.600   113299252.818 9        49.000    21560116.660    88285135.25247
        42.900    21560117.440
  20377978.720   107087039.623 8        48.700    20377973.860    83444461.42848
        46.850
  21197368.720   111392951.033 9        49.100    21197363.500    86799673.82148
        46.300
  20671711.060   108630627.180 8        48.950    20671709.680    84647274.50648
        45.550    20671710.320
  24483125.500   128659700.832 6        40.700    24483123.760   100254300.85546
        39.200    24483124.740
  24106981.600   126683067.918 7        44.750    24106980.400    98714068.81045
        38.050    24106981.540
 19  9 29 20 34 30.0000000  0  8G10G13G15G20G21G24G27G32
  22304870.100   117212905.308 9        49.450    22304868.700    91334751.59947
        42.750    22304868.960
  24527800.760   128894472.251 6        40.250    24527797.440   100437271.92344
        34.600
  21574411.120   113374349.957 9        49.150    21574407.220    88343652.48747
        42.950    21574407.980
  20369972.640   107044967.426 8        48.700    20369967.800    83411677.90048
        46.550
  21202077.620   111417696.178 9        49.000    21202072.420    86818955.73648
        46.200
  20665678.120   108598923.567 9        49.000    20665676.640    84622570.39648
        45.350    20665677.300
  24487908.720   128684836.949 6        40.850    24487906.960   100273887.46045
        38.300    24487907.960
  24090338.640   126595608.817 8        45.000    24090337.420    98645918.88345
        37.700    24090338.580
 19  9 29 20 35  0.0000000  0  8G10G13G15G20G21G24G27G32
  22290576.360   117137791.116 8        48.950    22290574.900    91276221.07647
        43.300    22290575.160
  24547043.060   128995591.115 6        39.700    24547039.780   100516065.80844
        34.100
  21588740.320   113449650.417 9        49.100    21588736.440    88402328.16947
        42.450    21588737.180
  20362026.360   107003209.511 8        48.700    20362021.540    83379139.27548
        46.450
  21206879.100   111442927.913 9        49.000    21206873.920    86838616.81348
        45.950
  20659760.860   108567828.072 8        48.650    20659759.340    84598340.15948
        45.800    20659759.980
  24492785.780   128710466.149 7        43.250    24492784.000   100293858.25745
        38.300    24492785.040
  24073724.920   126508303.521 7        44.600    24073723.680    98577888.85845
        37.150    24073724.840
 19  9 29 20 35 30.0000000  0  8G10G13G15G20G21G24G27G32
  22276304.260   117062790.443 8        47.650    22276302.720    91217779.02447
        44.300    22276302.980
  24566285.040   129096708.194 5        38.950    24566281.800   100594858.30144
        35.450
  21603108.020   113525153.132 9        49.050    21603104.120    88461161.44847
        42.100    21603104.880
  20354140.380   106961768.396 8        48.400    20354135.560    83346847.49748
        47.200
  21211773.280   111468646.900 8        48.400    21211768.160    86858657.56648
        46.600
  20653959.420   108537341.328 8        48.200    20653957.880    84574584.26848
        46.300    20653958.540
  24497756.480   128736587.227 7        42.700    24497754.660   100314212.32345
        38.650    24497755.720
  24057140.740   126421153.290 7        43.900    24057139.500    98509979.63045
        38.250    24057140.660
 19  9 29 20 36  0.0000000  0  8G10G13G15G20G21G24G27G32
  22262054.180   116987905.870 8        47.400    22262052.640    91159427.45147
        43.850    22262052.900
  24585526.780   129197824.084 5        38.350    24585523.580   100673649.88443
        31.850
  21617514.080   113600857.449 9        49.150    21617510.160    88520151.82947
        42.250    21617510.920
  20346315.140   106920646.584 8        48.800    20346310.340    83314804.53748
        46.750
  21216760.240   111494853.507 8        48.550    21216755.160    86879078.29148
        45.700
  20648274.360   108507466.083 8        48.400    20648272.800    84551304.86948
        45.850    20648273.460
  24502820.740   128763199.857 7        42.300    24502818.880   100334949.39645
        38.500    24502819.980
  24040586.380   126334159.975 7        44.400    24040585.140    98442192.69945
        38.350    24040586.360
 19  9 29 20 36 30.0000000  0  8G10G13G15G20G21G24G27G32
  22247826.960   116913141.519 8        47.250    22247825.420    91101169.55647
        44.250    22247825.680
  24604768.560   129298940.173 5        37.550    24604765.400   100752441.60744
        34.400
  21631958.840   113676765.002 9        49.200    21631954.900    88579300.55947
        42.350    21631955.660
  20338551.560   106879848.762 8        48.750    20338546.780    83283014.03248
        47.150
  21221840.460   111521550.283 8        48.250    21221835.420    86899880.95748
        45.950
  20642706.460   108478206.695 8        48.450    20642704.920    84528505.35248
        46.200    20642705.580
  24507978.780   128790305.256 6        41.650    24507976.900   100356070.45846
        39.050    24507977.980
  24024062.600   126247327.172 7        44.850    24024061.340    98374530.82645
        38.300    24024062.600
 19  9 29 20 37  0.0000000  0  8G10G13G15G20G21G24G27G32
  22233621.900   116838493.729 8        47.900    22233620.400    91043002.47247
        44.750    22233620.680
  24624009.120   129400050.083 5        37.350    24624006.000   100831228.55044
        35.800
  21646440.920   113752868.643 9        49.100    21646436.960    88638602.09247
        42.650    21646437.700
  20330848.960   106839371.302 8        48.750    20330844.180    83251473.15748
        46.900
  21227012.860   111548731.570 8        48.250    21227007.880    86921061.17048
        45.350
  20637254.920   108449558.609 8        48.300    20637253.360    84506182.17048
        46.750    20637254.020
  24513229.260   128817896.754 6        41.650    24513227.380   100377570.32746
        39.250    24513228.460
  24007568.520   126160650.520 8        45.700    24007567.300    98306990.62445
        38.250    24007568.540
 19  9 29 20 37 30.0000000  0  8G10G13G15G20G21G24G27G32
  22219440.180   116763968.472 8        48.800    22219438.700    90984930.87547
        44.000    22219438.960
  24643249.160   129501157.257 5        37.600    24643246.080   100910013.35344
        34.000
  21660960.940   113829171.672 9        49.100    21660956.960    88698058.99947
        42.550    21660957.700
  20323208.500   106799220.293 8        48.700    20323203.680    83220186.66848
        46.550
  21232278.220   111576401.450 8        48.600    21232273.260    86942622.12448
        45.250
  20631920.860   108421528.002 8        48.700    20631919.320    84484340.15848
        46.350    20631919.980
  24518572.840   128845977.425 6        41.450    24518571.000   100399451.37146
        40.000    24518572.040
  23991105.220   126074135.381 7        44.650    23991104.020    98239576.28646
        39.800    23991105.240
 19  9 29 20 38  0.0000000  0  8G10G13G15G20G21G24G27G32
  22205281.120   116689562.193 9        49.200    22205279.660    90926951.98047
        43.550    22205279.920
  24662487.500   129602255.431 5        37.400    24662484.420   100988791.13943
        29.100
  21675517.720   113905667.886 9        49.300    21675513.740    88757666.42247
        42.850    21675514.460
  20315629.580   106759392.812 8        48.600    20315624.740    83189152.27648
        46.550
  21237635.660   111604555.229 8        48.900    21237630.740    86964560.12948
        45.350
  20626703.520   108394110.617 8        48.600    20626701.980    84462975.96348
        45.850    20626702.620
  24524008.240   128874540.647 6        40.750    24524006.480   100421708.40546
        40.350    24524007.500
  23974671.820   125987777.544 7        44.300    23974670.660    98172284.52246
        39.050    23974671.840
 19  9 29 20 38 30.0000000  0  8G10G13G15G20G21G24G27G32
  22191144.820   116615275.420 9        49.050    22191143.320    90869066.19447
        43.150    22191143.580
  24681723.760   129703342.447 5        36.950    24681720.720   101067560.17945
        36.400
  21690110.720   113982354.403 9        49.200    21690106.760    88817422.13747
        43.250    21690107.460
  20308112.380   106719889.710 8        48.300    20308107.520    83158370.65448
        46.900
  21243084.880   111633191.068 9        49.300    21243079.960    86986873.76448
        45.300
  20621603.000   108367307.156 8        48.900    20621601.440    84442090.16448
        45.700    20621602.080
  24529534.980   128903583.888 6        41.600    24529533.260   100444339.50445
        38.750    24529534.260
  23958268.380   125901576.924 7        43.900    23958267.240    98105115.25346
        39.400    23958268.400
 19  9 29 20 39  0.0000000  0  8G10G13G15G20G21G24G27G32
  22177032.260   116541113.314 8        48.350    22177030.700    90811277.54047
        43.500    22177030.940
  24700958.340   129804420.863 5        36.700    24700955.300   101146322.57644
        33.400
  21704740.400   114059233.680 9        49.150    21704736.460    88877328.05347
        42.700    21704737.140
  20300657.940   106680716.442 8        48.200    20300653.040    83127846.05748
        46.300
  21248626.540   111662312.690 8        48.850    21248621.640    87009565.93348
        45.700
  20616620.160   108341122.158 8        48.850    20616618.540    84421686.29848
        45.750    20616619.200
  24535153.480   128933109.363 7        42.100    24535151.820   100467346.35146
        39.000    24535152.800
  23941895.680   125815537.999 8        45.200    23941894.580    98038072.00945
        38.700    23941895.700
 19  9 29 20 39 30.0000000  0  8G10G13G15G20G21G24G27G32
  22162943.380   116467075.695 8        47.900    22162941.760    90753585.91447
        43.350    22162942.020
  24720190.820   129905488.109 5        36.750    24720187.820   101225076.24844
        35.650
  21719406.180   114136302.806 9        49.250    21719402.260    88937381.90947
        42.550    21719402.940
  20293266.260   106641873.051 8        48.550    20293261.380    83097578.48348
        46.400
  21254260.240   111691917.918 9        49.350    21254255.340    87032634.94048
        45.800
  20611754.880   108315554.910 9        49.150    20611753.220    84401763.78248
        45.900    20611753.900
  24540863.160   128963113.810 7        42.950    24540861.560   100490726.39746
        39.200    24540862.520
  23925553.600   125729659.873 8        45.300    23925552.500    97971154.01745
        37.900    23925553.600
 19  9 29 20 40  0.0000000  0  8G10G13G15G20G21G24G27G32
  22148878.460   116393164.154 8        48.550    22148876.800    90695992.54247
        43.850    22148877.080
  24739420.960   130006543.012 5        37.050    24739417.980   101303820.27744
        35.100
  21734107.780   114213560.193 8        48.900    21734103.880    88997582.45747
        42.050    21734104.540
  20285937.680   106603361.279 8        48.550    20285932.800    83067569.31948
        46.950
  21259985.800   111722005.647 9        49.150    21259980.900    87056079.90748
        45.650
  20607007.480   108290606.994 9        49.100    20607005.760    84382323.86048
        46.100    20607006.440
  24546663.740   128993595.759 7        42.950    24546662.180   100514478.51945
        38.550    24546663.100
  23909242.280   125643943.495 8        45.850    23909241.200    97904362.09945
        36.800    23909242.280
 19  9 29 20 40 30.0000000  0  8G10G13G15G20G21G24G27G32
  22134838.080   116319381.491 9        49.150    22134836.400    90638499.58047
        44.800    22134836.700
  24758648.700   130107585.515 5        37.350    24758645.760   101382554.67243
        29.750
  21748845.160   114291005.674 8        48.600    21748841.300    89057929.57847
        42.350    21748841.940
  20278672.800   106565184.067 8        48.700    20278667.900    83037820.84848
        47.050
  21265803.500   111752577.602 8        48.900    21265798.600    87079902.18948
        46.150
  20602378.280   108266280.274 8        48.350    20602376.540    84363367.98848
        46.150    20602377.200
  24552555.080   129024554.671 6        41.650    24552553.520   100538602.34545
        37.200    24552554.420
  23892962.180   125558390.958 8        45.950    23892961.080    97837697.83445
        37.050    23892962.140
 19  9 29 20 41  0.0000000  0  8G10G13G15G20G21G24G27G32
  22120822.220   116245727.536 9        49.200    22120820.500    90581106.91747
        44.850    22120820.800
  24777873.540   130208612.817 5        37.950    24777870.640   101461277.23344
        32.150
  21763617.780   114368636.395 8        48.050    21763613.960    89118421.04547
        42.600    21763614.560
  20271471.580   106527341.445 8        48.100    20271466.660    83008333.10148
        47.050
  21271712.820   111783631.191 8        48.450    21271707.960    87104099.77048
        46.600
  20597867.140   108242574.149 8        48.400    20597865.380    84344895.70548
        46.050    20597866.060
  24558536.460   129055987.216 6        40.400    24558534.920   100563095.28845
        37.650    24558535.800
  23876713.040   125473001.264 8        45.350    23876711.920    97771160.45545
        38.450    23876712.960
 19  9 29 20 41 30.0000000  0  8G10G13G15G20G21G24G27G32
  22106831.200   116172204.028 9        49.100    22106829.400    90523815.88447
        44.150    22106829.740
  24797095.380   130309624.371 5        37.800    24797092.500   101539987.53144
        32.350
  21778425.320   114446450.690 8        48.650    21778421.540    89179055.54647
        43.050    21778422.140
  20264334.420   106489835.484 8        48.350    20264329.500    82979107.68748
        46.900
  21277713.760   111815166.243 8        48.300    21277708.960    87128672.51848
        46.650
  20593474.360   108219489.992 8        48.800    20593472.580    84326908.07748
        45.650    20593473.240
  24564607.740   129087892.134 7        42.250    24564606.220   100587956.27445
        37.750    24564607.080
  23860495.100   125387775.519 8        45.950    23860493.920    97704750.79845
        36.950    23860494.980
 19  9 29 20 42  0.0000000  0  8G10G13G15G20G21G24G27G32
  22092864.580   116098808.886 8        48.700    22092862.720    90466624.87747
        43.300    22092863.080
  24816313.420   130410615.721 5        38.750    24816310.540   101618682.05143
        31.050
  21793266.900   114524443.898 9        49.000    21793263.180    89239829.46047
        43.300    21793263.760
  20257260.960   106452664.175 8        48.700    20257256.020    82950143.03248
        46.750
  21283805.560   111847178.726 8        48.350    21283800.820    87153617.27548
        46.050
  20589199.360   108197024.687 8        48.300    20589197.560    84309402.64748
        46.300    20589198.240
  24570767.940   129120264.091 7        42.050    24570766.440   100613181.15845
        37.050    24570767.280
  23844307.800   125302710.830 8        45.000    23844306.580    97638466.69345
        37.000    23844307.640
 19  9 29 20 42 30.0000000  0  8G10G13G15G20G21G24G27G32
  22078923.200   116025546.432 8        47.750    22078921.260    90409537.25447
        43.550    22078921.660
  24835527.840   130511587.854 6        39.350    24835524.920   101697361.58544
        34.300
  21808142.780   114602617.225 9        49.300    21808139.100    89300743.72947
        43.700    21808139.680
  20250252.020   106415832.023 8        48.850    20250247.080    82921442.66848
        46.850
  21289988.580   111879670.787 8        48.750    21289983.920    87178935.74348
        45.350
  20585042.900   108175182.334 8        48.000    20585041.100    84292382.64048
        46.350    20585041.760
  24577017.160   129153104.095 7        42.050    24577015.680   100638770.79444
        35.500    24577016.500
  23828151.840   125217810.801 8        45.200    23828150.560    97572310.88145
        37.600    23828151.660
 19  9 29 20 43  0.0000000  0  8G10G13G15G20G21G24G27G32
  22065007.720   115952420.372 8        47.350    22065005.740    90352555.95047
        43.950    22065006.160
  24854738.840   130612542.214 6        39.500    24854735.880   101776027.31044
        34.250
  21823053.120   114680971.530 9        49.350    21823049.480    89361799.01947
        43.950    21823050.040
  20243308.440   106379343.151 8        48.600    20243303.480    82893009.78748
        47.000
  21296263.200   111912644.306 8        48.750    21296258.580    87204629.39448
        45.000
  20581005.600   108153966.334 8        48.250    20581003.800    84275850.71648
        46.600    20581004.480
  24583355.580   129186412.672 6        41.850    24583354.060   100664725.52445
        36.400    24583354.880
  23812027.740   125133078.406 8        45.250    23812026.420    97506285.72645
        36.150    23812027.540
 19  9 29 20 43 30.0000000  0  8G10G13G15G20G21G24G27G32
  22051117.460   115879426.929 8        48.550    22051115.480    90295677.95647
        43.900    22051115.900
  24873945.280   130713472.459 6        39.850    24873942.280   101854674.21443
        31.500
  21837996.580   114759499.882 9        49.050    21837992.960    89422989.92247
        43.700    21837993.520
  20236429.460   106343193.848 8        48.600    20236424.480    82864841.50248
        47.000
  21302628.260   111946092.932 8        48.700    21302623.640    87230693.24547
        44.850
  20577086.600   108133372.058 8        48.400    20577084.840    84259803.24948
        46.300    20577085.500
  24589781.820   129220182.715 7        42.200    24589780.240   100691039.83345
        38.800    24589781.080
  23795934.660   125048509.034 7        44.500    23795933.300    97440387.55545
        36.900    23795934.480
 19  9 29 20 44  0.0000000  0  8G10G13G15G20G21G24G27G32
  22037253.380   115806570.872 8        48.750    22037251.380    90238907.01247
        44.700    22037251.820
  24893147.560   130814381.043 5        38.550    24893144.560   101933304.24644
        33.900
  21852973.560   114838204.296 9        49.050    21852969.940    89484318.01747
        42.950    21852970.500
  20229616.100   106307389.337 8        48.500    20229611.120    82836941.88248
        46.950
  21309084.280   111980019.638 9        49.350    21309079.620    87257129.63947
        44.200
  20573286.600   108113403.057 8        48.600    20573284.860    84244242.99948
        46.450    20573285.520
  24596296.160   129254415.663 6        40.150    24596294.540   100717714.86045
        38.550    24596295.380
  23779873.360   124964106.606 7        44.350    23779871.940    97374619.47245
        38.900    23779873.160
 19  9 29 20 44 30.0000000  0  8G10G13G15G20G21G24G27G32
  22023415.780   115733853.849 8        48.600    22023413.780    90182244.41248
        45.400    22023414.220
  24912345.420   130915266.489 5        38.650    24912342.400   102011916.27843
        31.700
  21867983.740   114917083.329 8        48.450    21867980.120    89545782.19547
        43.150    21867980.680
  20222868.640   106271931.122 8        48.000    20222863.640    82809312.10648
        47.500
  21315631.200   112014423.888 8        48.950    21315626.480    87283938.13747
        44.400
  20569605.880   108094060.762 8        48.700    20569604.160    84229171.08448
        46.500    20569604.800
  24602898.280   129289109.836 6        40.100    24602896.680   100744749.24346
        39.250    24602897.500
  23763844.000   124879872.034 7        44.400    23763842.580    97308982.19146
        39.200    23763843.800
 19  9 29 20 45  0.0000000  0  8G10G13G15G20G21G24G27G32
  22009604.940   115661277.319 8        48.900    22009602.920    90125691.29048
        45.700    22009603.360
  24931538.680   131016127.661 6        39.250    24931535.660   102090509.36043
        29.750
  21883026.900   114996135.621 8        48.850    21883023.240    89607381.38347
        42.850    21883023.820
  20216187.340   106236820.643 8        48.200    20216182.320    82781953.30848
        47.050
  21322268.800   112049304.625 8        48.850    21322264.000    87311117.92447
        44.600
  20566044.520   108075345.775 8        48.950    20566042.820    84214588.00248
        45.950    20566043.460
  24609587.700   129324263.212 6        39.000    24609586.160   100772141.50845
        38.100    24609586.960
  23747846.680   124795805.913 8        45.100    23747845.280    97243476.18845
        37.900    23747846.500
 19  9 29 20 45 30.0000000  0  8G10G13G15G20G21G24G27G32
  21995820.520   115588839.574 8        48.450    21995818.500    90069246.31148
        45.200    21995818.920
  24950726.500   131116960.444 6        39.050    24950723.480   102169080.35544
        34.750
  21898102.160   115075356.618 9        49.150    21898098.500    89669112.02447
        42.550    21898099.060
  20209571.920   106202056.410 8        48.400    20209566.920    82754864.30248
        46.900
  21328996.420   112084658.264 8        48.850    21328991.560    87338666.21147
        44.900
  20562602.000   108057255.237 8        48.300    20562600.300    84200491.49348
        46.000    20562600.920
  24616363.560   129359870.854 6        40.750    24616362.140   100799887.68646
        39.350    24616362.920
  23731880.960   124711905.730 7        44.850    23731879.580    97178099.45545
        37.950    23731880.780
 19  9 29 20 46  0.0000000  0  8G10G13G15G20G21G24G27G32
  21982062.620   115516541.329 8        47.550    21982060.600    90012910.04347
        44.500    21982061.020
  24969908.580   131217762.978 6        39.100    24969905.520   102247627.79144
        33.350
  21913209.060   115154743.898 9        49.200    21913205.400    89730972.24047
        42.500    21913205.940
  20203022.640   106167639.837 8        48.650    20203017.660    82728046.20148
        46.750
  21335813.680   112120483.055 8        48.950    21335808.800    87366581.61347
        44.950
  20559278.340   108039789.283 8        48.100    20559276.640    84186881.66948
        45.850    20559277.260
  24623225.340   129395930.022 7        42.700    24623224.040   100827985.71746
        40.950    24623224.800
  23715946.820   124628171.401 7        44.200    23715945.480    97112851.96046
        39.200    23715946.660
 19  9 29 20 46 30.0000000  0  8G10G13G15G20G21G24G27G32
  21968332.020   115444386.857 8        47.700    21968330.020    89956685.79347
        43.850    21968330.440
  24989085.280   131318537.164 6        39.400    24989082.220   102326153.10044
        35.000
  21928347.860   115234298.721 9        49.200    21928344.180    89792963.00747
        42.400    21928344.740
  20196540.280   106133574.816 8        48.300    20196535.280    82701502.03748
        47.600
  21342721.000   112156781.109 9        49.100    21342716.100    87394865.79148
        45.300
  20556074.200   108022951.542 8        48.950    20556072.480    84173761.36648
        46.100    20556073.120
  24630173.240   129432441.519 7        42.900    24630172.020   100856436.20646
        41.650    24630172.780
  23700044.860   124544606.271 7        44.500    23700043.620    97047736.32446
        39.300    23700044.740
 19  9 29 20 47  0.0000000  0  8G10G13G15G20G21G24G27G32
  21954628.960   115372377.248 8        48.350    21954627.000    89900574.44047
        44.350    21954627.420
  25008256.260   131419281.289 6        40.300    25008253.180   102404655.00744
        35.600
  21943518.260   115314019.672 9        49.000    21943514.600    89855083.21847
        42.350    21943515.140
  20190125.060   106099862.647 8        48.300    20190120.060    82675232.83148
        47.000
  21349718.180   112193551.404 9        49.550    21349713.280    87423517.95248
        45.200
  20552989.620   108006742.007 8        48.750    20552987.840    84161130.59048
        45.900    20552988.500
  24637206.780   129469402.956 6        41.500    24637205.620   100885237.32146
        41.350    24637206.360
  23684175.120   124461210.540 7        43.350    23684173.940    96982752.67046
        39.350    23684175.020
 19  9 29 20 47 30.0000000  0  8G10G13G15G20G21G24G27G32
  21940953.860   115300514.380 8        48.800    21940951.940    89844577.40747
        44.950    21940952.360
  25027421.320   131519994.356 6        40.250    25027418.240   102483132.71643
        29.700
  21958719.960   115393905.113 8        48.700    21958716.300    89917331.60447
        42.100    21958716.840
  20183777.320   106066505.156 8        48.200    20183772.340    82649239.98948
        47.000
  21356805.120   112230793.328 9        49.050    21356800.220    87452537.61548
        45.100
  20550024.700   107991161.363 8        48.550    20550022.920    84148989.84548
        46.500    20550023.600
  24644325.620   129506812.678 6        41.300    24644324.540   100914387.73346
        40.600    24644325.260
  23668337.780   124377985.198 7        43.650    23668336.720    96917901.82446
        39.100    23668337.740
 19  9 29 20 48  0.0000000  0  9G10G13G14G15G20G21G24G27G32
  21927306.980   115228799.558 9        49.150    21927305.060    89788695.73747
        44.600    21927305.460
  25046580.300   131620675.271 6        39.250    25046577.200   102561585.35644
        32.500
  25830937.660                          36.400

  21973952.760   115473953.881 8        48.750    21973949.100    89979707.24446
        41.900    21973949.640
  20177497.400   106033504.122 8        48.050    20177492.440    82623524.89948
        46.900
  21363981.720   112268506.398 9        49.050    21363976.820    87481924.41247
        44.750
  20547179.500   107976209.728 8        48.750    20547177.720    84137339.22748
        46.600    20547178.380
  24651529.380   129544668.601 6        41.850    24651528.360   100943885.83045
        38.750    24651529.080
  23652532.960   124294930.684 7        43.850    23652531.980    96853184.08246
        39.500    23652532.960
 19  9 29 20 48 30.0000000  0  9G10G13G14G15G20G21G24G27G32
  21913689.520   115157239.359 8        48.400    21913687.580    89732934.55148
        45.050    21913687.980
  25065733.940   131721328.166 6        40.250    25065730.820   102640016.18943
        31.650
  25814095.840                          40.000    25814095.680
        34.050
  21989217.280   115554169.328 8        48.850    21989213.600    90042212.77347
        42.100    21989214.160
  20171286.620   106000866.318 8        48.050    20171281.660    82598092.86348
        46.750
  21371248.600   112306693.897 8        48.650    21371243.660    87511680.90348
        45.250
  20544455.140   107961893.133 8        48.600    20544453.380    84126183.44448
        46.600    20544454.040
  24658818.640   129582973.689 6        40.950    24658817.640   100973733.92346
        39.100    24658818.340
  23636761.720   124212052.671 7        43.400    23636760.840    96788603.85346
        39.200    23636761.780
 19  9 29 20 49  0.0000000  0  8G10G13G15G20G21G24G27G32
  21900100.780   115085830.185 8        47.950    21900098.820    89677291.08048
        45.400    21900099.240
  25084881.060   131821946.711 5        38.550    25084877.900   102718420.24244
        34.050
  22004512.280   115634545.106 9        49.200    22004508.600    90104843.25146
        41.750    22004509.160
  20165144.240   105968588.069 8        48.350    20165139.280    82572941.00548
        47.000
  21378604.680   112345350.277 9        49.200    21378599.740    87541802.74747
        44.300
  20541850.720   107948206.858 8        48.100    20541848.940    84115518.83548
        46.650    20541849.620
  24666192.000   129621720.834 6        39.100    24666191.020   101003926.49345
        38.350    24666191.720
  23621023.220   124129346.694 8        45.450    23621022.420    96724157.68746
        40.000    23621023.320
 19  9 29 20 49 30.0000000  0  8G10G13G15G20G21G24G27G32
  21886537.560   115014555.096 8        48.400    21886535.600    89621752.08048
        45.550    21886536.040
  25104017.880   131922511.418 5        38.100    25104014.680   102796782.36644
        34.650
  22019833.960   115715060.893 8        48.950    22019830.240    90167582.81646
        41.850    22019830.800
  20159067.020   105936652.231 8        48.100    20159062.100    82548055.93648
        46.900
  21386046.300   112384456.023 8        48.900    21386041.340    87572274.73947
        44.100
  20539362.740   107935132.466 8        47.750    20539360.980    84105330.98948
        46.850    20539361.660
  24673645.580   129660889.541 5        37.950    24673644.640   101034447.55045
        37.550    24673645.320
  23605314.060   124046794.840 8        45.300    23605313.340    96659831.62646
        39.000    23605314.200
 19  9 29 20 50  0.0000000  0  9G10G13G14G15G20G21G24G27G32
  21873007.140   114943452.414 9        49.000    21873005.200    89566347.41648
        45.050    21873005.660
  25123151.320   132023058.434 5        38.100    25123148.080   102875130.72744
        32.300
  25763671.380   135389006.847 5        36.950    25763671.000   105497968.40744
        33.650
  22035189.020   115795752.292 8        48.950    22035185.300    90230459.22246
        41.950    22035185.860
  20153062.280   105905097.157 8        48.450    20153057.340    82523467.58148
        47.000
  21393580.240   112424047.082 8        48.900    21393575.240    87603124.92147
        44.100
  20536998.360   107922707.771 8        48.250    20536996.600    84095649.42048
        46.800    20536997.300
  24681185.840   129700514.416 5        37.900    24681185.000   101065324.10545
        37.400    24681185.680
  23589641.400   123964434.490 7        44.550    23589640.720    96595654.75746
        39.650    23589641.560
 19  9 29 20 50 30.0000000  0  9G10G13G14G15G20G21G24G27G32
  21859504.760   114872497.107 9        49.450    21859502.820    89511057.58247
        44.650    21859503.280
  25142276.020   132123559.527 5        37.600    25142272.800   102953443.26543
        31.650
  25746898.580   135300863.604 5        37.050    25746897.820   105429285.43044
        34.800
  22050572.220   115876591.456 9        49.100    22050568.500    90293450.76046
        41.300    22050569.060
  20147125.260   105873897.856 8        48.550    20147120.300    82499156.43048
        46.600
  21401201.280   112464095.830 8        48.750    21401196.240    87634331.71747
        43.250
  20534752.580   107910906.251 8        48.200    20534750.840    84086453.43748
        46.550    20534751.540
  24688807.540   129740566.903 6        41.150    24688806.820   101096533.78945
        38.000    24688807.480
  23574000.180   123882239.566 8        45.600    23573999.500    96531606.81746
        39.000    23574000.320
 19  9 29 20 51  0.0000000  0  9G10G13G14G15G20G21G24G27G32
  21846031.420   114801694.225 9        49.650    21846029.440    89455886.52447
        44.800    21846029.940
  25161392.480   132224017.454 5        38.950    25161389.260   103031722.18044
        35.500
  25730142.200   135212808.241 6        39.500    25730141.400   105360670.98245
        37.250
  22065983.920   115957580.473 9        49.000    22065980.200    90356559.07547
        42.000    22065980.780
  20141256.940   105843059.666 8        47.950    20141251.980    82475126.67548
        47.050
  21408909.920   112504605.002 8        48.800    21408904.840    87665897.29547
        44.200
  20532626.040   107899731.389 8        48.700    20532624.320    84077745.75748
        46.200    20532625.020
  24696510.860   129781048.289 6        41.150    24696510.220   101128077.71346
        40.000    24696510.860
  23558391.260   123800214.272 8        45.450    23558390.540    96467691.08545
        38.450    23558391.360
 19  9 29 20 51 30.0000000  0 10G08G10G13G14G15G20G21G24G27G32
  25532898.640   134176286.883 5        37.500    25532900.020   104552975.40843
        30.600    25532899.940
  21832587.960   114731048.229 9        49.400    21832585.920    89400837.70447
        44.400    21832586.420
  25180501.120   132324434.277 6        39.600    25180497.900   103109969.05743
        30.900
  25713403.300   135124844.801 3        31.150    25713402.360   105292128.16043
        30.200
  22081424.460   116038720.914 8        48.900    22081420.740    90419785.37246
        41.850    22081421.300
  20135458.180   105812586.992 8        47.800    20135453.200    82451381.74148
        47.100
  21416706.540   112545576.487 8        48.650    21416701.420    87697823.11847
        44.300
  20530619.460   107889186.903 8        48.550    20530617.760    84069529.28648
        46.000    20530618.460
  24704295.940   129821959.392 7        42.650    24704295.320   101159956.52146
        39.550    24704295.960
  23542815.300   123718362.052 7        44.650    23542814.500    96403910.18645
        38.850    23542815.320
 19  9 29 20 52  0.0000000  0 10G08G10G13G14G15G20G21G24G27G32
  25531231.740   134167526.043 4        35.500    25531231.860   104546148.78343
        29.350    25531232.460
  21819175.080   114660562.909 9        49.450    21819172.940    89345914.09247
        44.700    21819173.460
  25199602.140   132424810.775 6        39.800    25199598.920   103188184.47945
        36.250
  25696682.400   135036976.005 4        33.850    25696681.460   105223659.06544
        32.900
  22096893.880   116120013.230 8        48.550    22096890.180    90483130.02647
        42.100    22096890.740
  20129729.680   105782483.619 8        47.600    20129724.700    82427924.57748
        47.500
  21424591.360   112587011.622 8        48.800    21424586.260    87730110.22847
        44.900
  20528733.320   107879275.270 8        48.100    20528731.600    84061805.94448
        46.600    20528732.320
  24712162.860   129863300.348 7        43.700    24712162.260   101192170.24146
        40.050    24712162.920
  23527272.800   123636685.747 7        44.000    23527271.960    96340266.34746
        41.050    23527272.780
 19  9 29 20 52 30.0000000  0  9G10G13G14G15G20G21G24G27G32
  21805792.660   114590237.649 9        49.300    21805790.440    89291115.20748
        45.300    21805790.980
  25218694.920   132525144.129 6        39.400    25218691.700   103266366.33044
        35.600
  25679979.220   134949200.464 4        35.750    25679978.420   105155262.52943
        30.250
  22112391.560   116201454.141 8        48.550    22112387.880    90546590.46446
        41.650    22112388.440
  20124071.320   105752748.860 8        47.850    20124066.360    82404754.64948
        47.650
  21432563.780   112628906.851 8        48.850    21432558.700    87762755.83848
        45.700
  20526967.280   107869994.702 9        49.950    20526965.540    84054574.34748
        47.300    20526966.260
  24720110.760   129905066.724 7        43.850    24720110.140   101224715.48746
        39.650    24720110.780
  23511763.460   123555183.621 8        45.550    23511762.600    96276758.27246
        40.700    23511763.420
 19  9 29 20 53  0.0000000  0 10G10G12G13G14G15G20G21G24G27G32
  21792440.100   114520069.380 8        48.950    21792437.840    89236438.67747
        44.900    21792438.380
  25667001.420   134881001.081 6        41.400    25666997.600   105102061.91444
        34.350    25667000.560
  25237778.380   132625428.325 6        39.000    25237775.160   103344509.85144
        34.300
  25663292.260   134861516.50015        37.200    25663290.760   105086911.87954
        32.500
  22127916.420   116283037.749 8        48.650    22127912.740    90610162.09846
        40.950    22127913.300
  20118482.540   105723379.785 8        47.950    20118477.620    82381869.66448
        47.500
  21440622.760   112671257.024 8        48.900    21440617.720    87795755.95347
        44.950
  20525320.420   107861340.586 9        50.100    20525318.680    84047830.89248
        46.900    20525319.420
  24728138.380   129947251.831 7        43.300    24728137.740   101257586.97946
        40.550    24728138.400
  23496286.500   123473851.671 8        45.250    23496285.620    96213382.77846
        39.550    23496286.420
 19  9 29 20 53 30.0000000  0 11G08G10G12G13G14G15G20G21G24G27G32
  25526807.780   134144284.451 4        35.900    25526808.260   104528001.43844
        33.950    25526809.160
  21779121.180   114450078.010 9        49.200    21779118.900    89181899.97947
        44.400    21779119.440
  25650335.520   134793424.415 5        36.200    25650336.660   105033812.83244
        32.800    25650335.080
  25256855.880   132725681.096 6        39.150    25256852.640   103422628.86944
        32.500
  25646628.320                          40.000    25646626.440
        35.200
  22143471.600   116364780.772 8        48.400    22143467.920    90673857.94446
        40.700    22143468.480
  20112967.120   105694396.131 8        48.450    20112962.220    82359285.00348
        47.200
  21448771.560   112714079.134 8        48.700    21448766.560    87829123.81647
        44.700
  20523796.320   107853331.349 9        50.250    20523794.540    84041589.92748
        46.850    20523795.300
  24736248.780   129989871.764 7        42.600    24736248.100   101290797.28146
        40.050    24736248.760
  23480845.540   123392708.779 8        45.000    23480844.660    96150154.58945
        38.700    23480845.440
 19  9 29 20 54  0.0000000  0 11G08G10G12G13G14G15G20G21G24G27G32
  25525525.520   134137547.950 5        36.800    25525526.540   104522752.27643
        30.650    25525527.360
  21765832.420   114380245.146 9        49.550    21765830.140    89127484.78847
        44.950    21765830.660
  25633649.680   134705743.870 5        38.100    25633648.980   104965528.82744
        32.850    25633650.300
  25275923.340   132825881.275 5        38.350    25275920.060   103500706.95944
        32.750
  25629980.160   134686451.704 5        36.300    25629978.060   104950475.44943
        30.550
  22159053.100   116446661.973 8        47.950    22159049.420    90737661.47746
        41.550    22159049.980
  20107521.600   105665779.691 8        48.400    20107516.680    82336986.48848
        47.200
  21457006.140   112757352.007 8        48.850    21457001.160    87862842.92247
        43.800
  20522391.200   107845947.370 9        49.950    20522389.420    84035836.16848
        47.250    20522390.180
  24744437.660   130032904.240 6        41.850    24744436.920   101324329.08546
        39.900    24744437.580
  23465436.800   123311735.456 7        43.450    23465435.920    96087058.54046
        40.750    23465436.700
 19  9 29 20 54 30.0000000  0 11G08G10G12G13G14G15G20G21G24G27G32
  25524339.240   134131314.913 5        38.100    25524340.180   104517895.44244
        34.650    25524340.960
  21752575.000   114310576.868 9        49.550    21752572.700    89073197.83448
        45.000    21752573.240
  25616945.620   134617965.189 6        40.150    25616945.220   104897129.88044
        35.000    25616946.160
  25294981.640   132926033.147 6        39.250    25294978.340   103578747.35644
        35.350
  25613349.520   134599056.681 4        35.800    25613347.120   104882375.54844
        33.500
  22174661.460   116528684.409 8        47.750    22174657.800    90801575.04546
        41.600    22174658.340
  20102147.120   105637536.647 8        48.250    20102142.200    82314978.93248
        47.650
  21465327.160   112801079.228 8        48.550    21465322.220    87896916.05647
        44.000
  20521105.900   107839193.144 9        50.350    20521104.120    84030573.13948
        46.900    20521104.860
  24752705.520   130076351.688 6        41.950    24752704.760   101358184.20745
        37.550    24752705.400
  23450061.280   123230936.779 7        43.800    23450060.420    96024098.57746
        40.600    23450061.180
 19  9 29 20 55  0.0000000  0 11G08G10G12G13G14G15G20G21G24G27G32
  25523250.160   134125583.548 5        38.750    25523249.180   104513435.80845
        36.300    25523250.180
  21739349.540   114241076.449 9        49.650    21739347.220    89019041.67847
        44.950    21739347.720
  25600224.080   134530093.634 5        37.500    25600223.800   104828658.52344
        32.700    25600224.640
  25314030.660   133026136.278 6        40.600    25314027.340   103656749.78544
        32.550
  25596737.020   134511757.890 4        34.900    25596734.800   104814350.56544
        33.150
  22190296.800   116610848.554 8        47.750    22190293.160    90865599.03447
        42.100    22190293.700
  20096844.280   105609669.917 8        48.150    20096839.360    82293264.59848
        47.250
  21473734.760   112845261.457 8        48.350    21473729.840    87931343.75247
        43.600
  20519940.860   107833070.875 9        50.350    20519939.040    84025802.55248
        47.150    20519939.820
  24761052.260   130120213.509 6        40.850    24761051.460   101392362.18845
        37.650    24761052.100
  23434719.400   123150314.965 7        44.550    23434718.580    95961276.43646
        40.100    23434719.340
 19  9 29 20 55 30.0000000  0 11G08G10G12G13G14G15G20G21G24G27G32
  25522255.360   134120356.640 6        40.200    25522254.740   104509362.86445
        38.000    25522255.680
  21726155.680   114171742.095 9        49.350    21726153.340    88965014.91047
        44.800    21726153.820
  25583484.780   134442128.823 6        41.150    25583484.740   104760114.59945
        37.950    25583485.360
  25333069.620   133126186.499 5        37.900    25333066.300   103734710.99443
        29.600
  25580142.200   134424552.826 5        38.500    25580140.260   104746398.66145
        36.050
  22205958.260   116693149.930 8        47.700    22205954.660    90929729.95146
        41.300    22205955.180
  20091612.640   105582177.503 8        48.200    20091607.740    82271841.95648
        47.600
  21482228.040   112889894.113 8        48.850    21482223.140    87966122.44347
        43.800
  20518895.340   107827576.636 9        50.400    20518893.480    84021521.33348
        47.500    20518894.280
  24769476.780   130164484.051 6        40.750    24769475.920   101426858.66145
        38.850    24769476.560
  23419410.620   123069867.112 7        44.700    23419409.820    95898589.85746
        40.200    23419410.580
 19  9 29 20 56  0.0000000  0 10G08G10G13G14G15G20G21G24G27G32
  25521357.720   134115638.682 6        39.150    25521357.180   104505686.56244
        35.200    25521358.100
  21712995.200   114102583.219 8        48.850    21712992.820    88911124.89748
        45.350    21712993.300
  25352099.900   133226191.001 5        36.650    25352096.600   103812636.53844
        34.250
  25563566.700   134337449.693 5        36.550    25563565.140   104678526.18744
        35.350
  22221646.900   116775594.315 8        47.850    22221643.380    90993972.30546
        41.650    22221643.880
  20086454.100   105555069.155 8        48.100    20086449.200    82250718.57748
        47.350
  21490808.280   112934983.628 8        48.950    21490803.380    88001257.13547
        43.750
  20517970.820   107822718.251 9        50.400    20517968.940    84017735.58248
        48.050    20517969.740
  24777980.060   130209168.816 6        40.000    24777979.160   101461677.94145
        38.600    24777979.800
  23404136.580   122989601.608 7        44.850    23404135.780    95836045.35346
        39.650    23404136.520
 19  9 29 20 56 30.0000000  0 11G08G10G12G13G14G15G20G21G24G27G32
  25520556.080   134111425.983 6        39.450    25520555.720   104502403.94044
        33.950    25520556.560
  21699867.760   114033598.077 8        48.550    21699865.360    88857370.25448
        46.050    21699865.840
  25549958.380   134265928.508 6        39.250    25549960.780   104622830.69744
        34.100    25549959.800
  25371120.600   133326145.401 5        36.800    25371117.300   103890523.09044
        33.900
  25547010.200   134250446.173 4        34.650    25547008.860   104610731.32143
        29.600
  22237361.900   116858177.077 8        48.300    22237358.420    91058322.48246
        41.200    22237358.900
  20081368.220   105528342.628 8        47.750    20081363.340    82229892.71648
        47.550
  21499474.620   112980525.510 8        48.750    21499469.720    88036744.30347
        44.700
  20517166.740   107818492.674 9        50.100    20517164.840    84014442.93148
        48.350    20517165.660
  24786561.040   130254262.128 6        41.650    24786560.140   101496815.58145
        38.950    24786560.780
  23388896.700   122909515.543 7        44.550    23388895.880    95773640.65846
        41.750    23388896.620
 19  9 29 20 57  0.0000000  0 11G08G10G12G13G14G15G20G21G24G27G32
  25519849.920   134107715.163 6        40.600    25519849.580   104499512.37844
        34.500    25519850.460
  21686773.020   113964785.014 8        48.800    21686770.660    88803749.72248
        45.550    21686771.120
  25533171.980   134177716.006 6        40.900    25533174.280   104554093.78044
        32.600    25533173.680
  25390131.060   133426045.891 5        37.750    25390127.820   103968367.58844
        34.750
  25530472.160   134163539.237 6        39.700    25530470.880   104543011.69545
        36.600
  22253102.440   116940894.136 8        48.850    22253098.960    91122777.33846
        39.650    22253099.420
  20076354.700   105501996.455 8        48.200    20076349.820    82209363.24948
        46.950
  21508226.280   113026515.744 8        48.700    21508221.380    88072580.85347
        44.100
  20516482.520   107814897.060 9        49.950    20516480.640    84011641.15248
        47.500    20516481.440
  24795218.720   130299758.554 6        41.300    24795217.800   101532267.32945
        38.800    24795218.460
  23373690.460   122829606.236 8        46.300    23373689.640    95711373.73545
        38.850    23373690.340
 19  9 29 20 57 30.0000000  0 11G08G10G12G13G14G15G20G21G24G27G32
  25519239.340   134104506.688 6        41.000    25519238.960   104497012.29045
        36.900    25519239.880
  21673711.480   113896146.263 8        48.950    21673709.180    88750264.99348
        45.650    21673709.620
  25516370.680   134089424.174 6        41.950    25516372.540   104485295.08745
        36.350    25516372.140
  25409131.100   133525891.856 5        37.000    25409127.920   104046169.6184
        23.050
  25513952.660   134076729.887 4        35.150    25513951.380   104475368.19943
        30.950
  22268868.400   117023744.789 9        49.050    22268864.880    91187336.28846
        39.350    22268865.360
  20071413.980   105476032.799 8        48.200    20071409.080    82189131.84348
        46.900
  21517063.120   113072953.557 8        48.900    21517058.260    88108766.12347
        44.600
  20515918.100   107811931.092 9        50.550    20515916.260    84009330.01748
        47.100    20515917.040
  24803952.740   130345656.291 6        41.550    24803951.840   101568031.80645
        38.000    24803952.500
  23358518.040   122749874.699 8        46.350    23358517.220    95649245.31245
        38.850    23358517.880
 19  9 29 20 58  0.0000000  0 11G08G10G12G13G14G15G20G21G24G27G32
  25518723.860   134101797.970 6        41.400    25518723.540   104494901.63745
        36.600    25518724.400
  21660682.880   113827680.794 9        49.600    21660680.660    88696915.30848
        45.800    21660681.080
  25499554.480   134001053.361 7        42.200    25499555.760   104416434.89044
        33.800    25499555.500
  25428120.100   133625679.625 5        38.250    25428116.960   104123926.28444
        32.350
  25497451.580   133990016.599 5        38.200    25497450.420   104407799.36044
        33.750
  22284659.040   117106725.112 8        48.750    22284655.480    91251996.29746
        39.600    22284655.940
  20066545.800   105450450.453 8        47.650    20066540.880    82169197.57248
        47.200
  21525984.380   113119835.034 8        48.900    21525979.560    88145297.12847
        44.900
  20515473.200   107809593.087 9        50.800    20515471.320    84007508.22148
        47.100    20515472.100
  24812762.160   130391950.392 7        42.450    24812761.320   101604105.15046
        39.400    24812761.960
  23343379.080   122670318.877 8        45.200    23343378.240    95587253.78746
        41.200    23343378.860
 19  9 29 20 58 30.0000000  0 11G08G10G12G13G14G15G20G21G24G27G32
  25518304.620   134099595.088 6        40.750    25518304.340   104493185.08144
        35.600    25518305.200
  21647688.980   113759397.484 9        49.200    21647686.820    88643707.52548
        45.700    21647687.220
  25482725.120   133912613.193 6        41.950    25482725.800   104347520.66543
        31.400    25482725.660
  25447099.320   133725415.942 5        38.050    25447096.220   104201642.86643
        30.550
  25480970.160   133903406.962 4        34.950    25480969.100   104340311.38542
        27.950
  22300475.380   117189840.469 8        48.400    22300471.760    91316761.50146
        40.000    22300472.240
  20061751.860   105425258.189 8        47.700    20061746.940    82149567.23648
        47.000
  21534991.220   113167166.048 8        48.850    21534986.440    88182178.40947
        44.750
  20515149.040   107807889.457 9        50.500    20515147.140    84006180.72248
        47.150    20515147.900
  24821647.980   130438645.749 7        42.200    24821647.160   101640491.13245
        37.150    24821647.800
  23328275.000   122590946.441 7        44.950    23328274.140    95525405.17246
        41.500    23328274.720
 19  9 29 20 59  0.0000000  0 11G08G10G12G13G14G15G20G21G24G27G32
  25517980.900   134097894.135 6        40.250    25517980.640   104491859.69245
        37.650    25517981.500
  21634729.300   113691294.050 8        48.950    21634727.180    88590639.92348
        46.100    21634727.560
  25465882.400   133824103.285 6        41.050    25465882.520   104278552.10444
        32.450    25465882.580
  25466067.920   133825096.129 6        39.550    25466064.760   104279315.67643
        30.800
  25464507.860   133816897.990 5        36.650    25464506.880   104272901.87444
        35.500
  22316316.500   117273086.077 8        48.150    22316312.840    91381628.21146
        40.750    22316313.320
  20057031.640   105400453.405 8        47.750    20057026.720    82130238.84348
        47.350
  21544082.600   113214941.486 8        48.600    21544077.900    88219406.00847
        44.350
  20514944.860   107806816.437 9        50.450    20514942.960    84005344.60648
        47.200    20514943.720
  24830609.000   130485736.078 6        41.350    24830608.180   101677184.84346
        39.750    24830608.840
  23313205.160   122511753.926 7        44.750    23313204.300    95463696.77847
        42.250    23313204.840
 19  9 29 20 59 30.0000000  0 11G08G10G12G13G14G15G20G21G24G27G32
  25517752.900   134096696.163 6        40.650    25517752.680   104490926.20745
        38.500    25517753.520
  21621804.340   113623373.127 8        48.850    21621802.260    88537714.55548
        46.350    21621802.620
  25449026.980   133735527.029 5        36.050    25449026.680   104209531.77844
        35.750    25449026.940
  25485025.680   133924719.294 4        34.200    25485022.520   104356944.02044
        32.350
  25448065.020   133730490.924 5        38.450    25448064.140   104205571.69044
        33.000
  22332182.300   117356461.259 8        48.200    22332178.620    91446595.87146
        41.150    22332179.080
  20052385.640   105376038.662 8        47.800    20052380.720    82111214.37748
        46.600
  21553258.480   113263161.111 8        48.550    21553253.860    88256979.73247
        43.150
  20514860.900   107806375.251 9        50.650    20514858.980    84005000.86348
        47.100    20514859.720
  24839644.940   130533220.000 6        40.800    24839644.100   101714185.24545
        37.900    24839644.780
  23298169.840   122432742.867 8        45.450    23298168.980    95402129.79746
        41.600    23298169.500
                            4  1
RINEX FILE SPLICE; other post-header comments skipped       COMMENT
 19  9 29 21  0  0.0000000  0 11G08G10G12G13G14G15G20G21G24G27G32
  25517620.260   134095999.295 6        41.450    25517620.060   104490383.24145
        38.950    25517620.920
  21608914.240   113555635.470 8        48.400    21608912.240    88484931.98948
        46.500    21608912.580
  25432159.320   133646887.729 4        32.950    25432158.920   104140462.29044
        32.700    25432159.320
  25503972.240   134024284.423 4        35.450    25503969.020   104434527.33843
        30.300
  25431641.600   133644186.070 5        38.900    25431640.760   104138321.23744
        35.850
  22348072.400   117439964.119 8        47.850    22348068.700    91511663.01246
        40.800    22348069.180
  20047813.980   105352014.550 8        47.900    20047809.060    82092494.29248
        46.700
  21562518.500   113311822.847 8        48.750    21562513.880    88294897.97047
        42.750
  20514896.880   107806564.314 9        50.400    20514894.920    84005148.21248
        47.300    20514895.660
  24848755.100   130581094.280 6        40.950    24848754.240   101751489.87945
        38.500    24848754.920
  23283168.980   122353912.882 8        45.700    23283168.080    95340703.88646
        40.950    23283168.600
 19  9 29 21  0 30.0000000  0 11G08G10G12G13G14G15G20G21G24G27G32
  25517582.760   134095802.326 7        42.300    25517582.560   104490229.77245
        36.000    25517583.420
  21596059.160   113488081.823 9        49.100    21596057.240    88432292.79948
        46.200    21596057.560
  25415280.360   133558202.184 6        40.250    25415278.280   104071312.35943
        30.750    25415279.060
  25522907.560   134123789.891 4        33.600    25522904.360   104512063.98243
        31.850
  25415237.520   133557982.419 5        36.650    25415236.680   104071149.61644
        33.200
  22363986.340   117523592.357 8        47.800    22363982.660    91576827.85246
        41.750    22363983.140
  20043316.800   105328381.757 8        47.800    20043311.860    82074079.13648
        47.200
  21571862.220   113360924.432 8        48.900    21571857.560    88333158.94147
        42.750
  20515052.600   107807382.523 9        50.400    20515050.620    84005785.77748
        47.650    20515051.360
  24857938.880   130629355.422 6        41.150    24857938.020   101789095.97245
        36.700    24857938.700
  23268202.460   122275263.417 8        45.800    23268201.540    95279418.65246
        40.250    23268202.040
 19  9 29 21  1  0.0000000  0 11G08G10G12G13G14G15G20G21G24G27G32
  25517640.380   134096104.995 7        42.450    25517640.180   104490465.61645
        36.600    25517641.060
  21583239.400   113420713.682 9        49.300    21583237.520    88379798.16048
        46.100    21583237.840
  25398390.140   133469441.871 7        43.950    25398387.620   104002148.72044
        33.050    25398388.680
  25541829.820   134223234.093 4        33.850

  25398852.920   133471880.762 5        38.050    25398852.080   104004057.39944
        33.150
  22379923.900   117607344.724 8        47.650    22379920.240    91642089.41646
        41.550    22379920.740
  20038894.320   105305141.531 8        47.950    20038889.360    82055969.87148
        46.600
  21581289.340   113410464.206 8        48.650    21581284.600    88371761.35847
        42.800
  20515327.880   107808829.068 9        50.550    20515325.900    84006912.97248
        47.700    20515326.620
  24867195.780   130678001.025 7        42.250    24867194.940   101827001.67145
        37.650    24867195.600
  23253270.360   122196794.807 8        45.650    23253269.420    95218274.32446
        40.100    23253269.920
 19  9 29 21  1 30.0000000  0 11G08G10G12G13G14G15G20G21G24G27G32
  25517793.140   134096907.818 7        42.600    25517792.940   104491091.23145
        36.400    25517793.800
  21570455.460   113353533.761 9        49.300    21570453.600    88327450.18548
        46.150    21570453.920
  25381489.380   133380626.619 7        42.300    25381486.640   103932942.13744
        33.950    25381487.660
  25560741.900   134322617.889 4        35.750    25560740.100   104666948.96243
        30.000
  25382488.000   133385882.782 6        40.700    25382487.120   103937046.06844
        34.450
  22395884.980   117691220.810 8        47.500    22395881.360    91707447.38547
        42.300    22395881.880
  20034547.060   105282296.499 8        48.250    20034542.080    82038168.54848
        46.950
  21590799.820   113460442.050 8        48.850    21590795.020    88410705.12347
        43.550
  20515723.040   107810905.732 9        50.250    20515721.120    84008531.15648
        47.950    20515721.820
  24876525.660   130727029.741 6        41.800    24876524.820   101865205.86045
        36.600    24876525.480
  23238372.980   122118508.652 8        46.100    23238372.040    95157272.16246
        41.050    23238372.520
 19  9 29 21  2  0.0000000  0 10G08G10G12G14G15G20G21G24G27G32
  25518041.580   134098213.202 6        41.050    25518041.340   104492108.43545
        36.950    25518042.220
  21557708.240   113286546.836 9        49.200    21557706.420    88275252.59648
        46.450    21557706.740
  25364579.100   133291762.537 7        42.750    25364576.320   103863697.48344
        33.400    25364577.300
  25366143.460   133299992.044 6        39.550    25366142.560   103870118.34143
        31.800
  22411869.920   117775222.436 8        47.500    22411866.380    91772903.17946
        41.800    22411866.920
  20030275.820   105259851.053 8        47.950    20030270.840    82020678.59348
        47.550
  21600393.980   113510859.669 8        47.900    21600389.160    88449991.56147
        44.650
  20516238.540   107813614.708 9        50.450    20516236.660    84010642.04448
        47.600    20516237.340
  24885928.500   130776442.078 6        39.400    24885927.640   101903709.02645
        36.950    24885928.300
  23223510.960   122040408.375 8        45.600    23223510.020    95096414.87146
        40.850    23223510.500
 19  9 29 21  2 30.0000000  0 10G08G10G12G13G15G20G21G24G27G32
  25518383.440   134100009.797 6        39.600    25518383.180   104493508.41945
        36.800    25518384.080
  21544995.960   113219743.495 9        49.300    21544994.160    88223198.06548
        46.100    21544994.480
  25347657.900   133202841.512 6        41.600    25347655.100   103794408.53743
        28.300    25347656.060
  25598531.480   134521197.736 4        35.350    25598527.920   104821700.24843
        28.800
  22427876.460   117859337.484 8        48.250    22427872.960    91838447.36146
        40.300    22427873.520
  20026078.800   105237795.553 8        48.050    20026073.800    82003492.49648
        47.000
  21610069.440   113561704.534 8        47.700    21610064.680    88489610.90347
        44.550
  20516872.260   107816945.000 9        50.650    20516870.420    84013237.09148
        47.150    20516871.080
  24895401.760   130826224.608 5        38.750    24895400.900   101942500.64344
        35.850    24895401.560
  23208682.300   121962483.414 8        46.150    23208681.340    95035694.17746
        39.800    23208681.800
 19  9 29 21  3  0.0000000  0 11G08G10G12G13G14G15G20G21G24G27G32
  25518821.060   134102309.650 5        38.300    25518820.800   104495300.51745
        36.400    25518821.700
  21532321.380   113153138.178 9        49.050    21532319.600    88171297.83648
        47.000    21532319.920
  25330729.040   133113879.894 6        41.100    25330726.140   103725087.90244
        35.100    25330727.160
  25617408.580   134620394.440 4        34.350

  25333513.020   133128475.419 5        37.700    25333511.360   103736482.56244
        35.000
  22443906.740   117943577.182 8        47.950    22443903.260    91904088.67946
        41.400    22443903.820
  20021958.700   105216144.287 8        48.050    20021953.680    81986621.39048
        47.400
  21619828.300   113612987.970 8        47.850    21619823.640    88529572.02548
        45.250
  20517626.420   107820908.201 9        50.500    20517624.600    84016325.31248
        47.750    20517625.260
  24904947.480   130876387.642 5        38.550    24904946.660   101981588.66445
        38.850    24904947.320
  23193889.520   121884746.975 8        46.350    23193888.540    94975120.36846
        40.750    23193889.020
 19  9 29 21  3 30.0000000  0 10G08G10G12G14G15G20G21G24G27G32
  25519353.560   134105108.024 5        38.300    25519353.300   104497481.06845
        38.100    25519354.220
  21519683.960   113086728.198 8        48.900    21519682.200    88119549.81848
        46.750    21519682.520
  25313792.080   133024875.921 6        39.250    25313789.120   103655734.23445
        37.300    25313790.240
  25317228.100   133042898.314 5        38.950    25317226.340   103669799.16044
        33.800
  22459959.720   118027936.206 8        48.300    22459956.220    91969822.98246
        40.950    22459956.820
  20017915.020   105194894.558 8        47.800    20017909.980    81970063.16348
        47.150
  21629669.580   113664704.262 8        48.250    21629664.980    88569870.41747
        44.250
  20518500.320   107825500.629 9        50.400    20518498.500    84019903.84148
        47.350    20518499.160
  24914564.300   130926924.307 6        41.400    24914563.520   102020967.82446
        40.300    24914564.200
  23179131.860   121807195.054 8        45.900    23179130.820    94914690.35246
        40.800    23179131.300
 19  9 29 21  4  0.0000000  0 10G08G10G12G14G15G20G21G24G27G32
  25519980.440   134108402.409 5        38.750    25519980.200   104500048.13345
        36.700    25519981.120
  21507083.640   113020513.143 9        49.350    21507081.900    88067953.69248
        46.700    21507082.200
  25296847.200   132935830.987 6        40.400    25296844.420   103586348.58843
        30.700    25296845.560
  25300962.780   132957425.904 6        39.750    25300961.480   103603197.41444
        34.250
  22476034.720   118112410.812 8        48.300    22476031.180    92035647.35646
        40.800    22476031.780
  20013947.560   105174045.436 8        48.100    20013942.520    81953817.09848
        47.150
  21639592.580   113716850.128 8        47.900    21639588.040    88610503.55647
        43.350
  20519493.400   107830719.434 9        50.550    20519491.600    84023970.45748
        47.100    20519492.260
  24924251.360   130977829.959 7        42.950    24924250.600   102060634.50646
        40.550    24924251.280
  23164409.000   121729826.047 8        46.000    23164407.920    94854402.88446
        39.950    23164408.420
 19  9 29 21  4 30.0000000  0 10G08G10G12G14G15G20G21G24G27G32
  25520701.660   134112192.498 5        38.950    25520701.420   104503001.46844
        35.700    25520702.320
  21494520.860   112954495.386 9        49.800    21494519.160    88016511.30048
        46.200    21494519.440
  25279895.040   132846748.382 5        38.400    25279892.560   103516933.63944
        35.550    25279893.640
  25284717.800   132872059.697 6        39.750    25284716.640   103536678.34545
        36.250
  22492131.700   118197000.811 8        47.800    22492128.060    92101561.64546
        40.000    22492128.700
  20010056.720   105153598.920 8        47.850    20010051.660    81937884.76148
        47.000
  21649597.120   113769424.483 8        48.300    21649592.580    88651470.58347
        42.650
  20520605.720   107836564.801 9        50.300    20520603.900    84028525.30948
        47.050    20520604.560
  24934008.300   131029102.762 7        43.400    24934007.520   102100587.31546
        41.100    24934008.200
  23149721.160   121652641.047 8        45.100    23149720.020    94794258.76346
        39.350    23149720.540
 19  9 29 21  5  0.0000000  0 10G08G10G12G14G15G20G21G24G27G32
  25521516.800   134116476.245 5        38.000    25521516.540   104506339.51845
        36.650    25521517.440
  21481995.680   112888675.105 9        49.950    21481993.980    87965222.78648
        46.000    21481994.240
  25262936.100   132757629.773 5        37.650    25262933.880   103447490.61245
        36.850    25262934.900
  25268492.840   132786798.365 6        39.150    25268491.860   103470240.97544
        32.750
  22508250.100   118281703.354 8        47.200    22508246.360    92167563.61646
        40.900    22508247.060
  20006242.480   105133554.964 8        47.900    20006237.420    81922266.10448
        47.150
  21659682.640   113822424.343 8        48.650    21659678.060    88692769.17947
        42.250
  20521836.960   107843035.140 9        50.250    20521835.140    84033567.14848
        46.900    20521835.820
  24943834.340   131080738.698 7        43.250    24943833.560   102140823.09746
        40.000    24943834.220
  23135068.080   121575638.978 8        45.000    23135066.940    94734257.20046
        41.550    23135067.480
 19  9 29 21  5 30.0000000  0 10G08G10G12G14G15G20G21G24G27G32
  25522425.860   134121253.551 5        36.850    25522425.580   104510062.09244
        35.600    25522426.500
  21469508.440   112823054.171 9        49.400    21469506.720    87914089.60948
        45.900    21469506.960
  25245971.080   132668478.454 7        42.350    25245968.980   103378022.07844
        33.150    25245969.960
  25252288.060   132701643.045 5        37.900    25252287.140   103403886.26444
        33.600
  22524389.740   118366517.653 8        46.700    22524385.920    92233652.66646
        40.300    22524386.660
  20002505.160   105113915.383 8        47.700    20002500.140    81906962.55148
        47.250
  21669848.900   113875848.507 8        48.400    21669844.280    88734398.40347
        43.400
  20523186.920   107850129.464 9        49.750    20523185.100    84039095.21548
        47.050    20523185.800
  24953729.000   131132735.401 7        43.100    24953728.220   102181340.00246
        41.800    24953728.880
  23120449.940   121498820.415 8        45.800    23120448.820    94674398.61946
        40.300    23120449.360
 19  9 29 21  6  0.0000000  0 10G08G10G12G14G15G20G21G24G27G32
  25523429.120   134126525.770 6        39.050    25523428.820   104514170.30745
        37.300    25523429.760
  21457059.920   112757636.686 9        49.700    21457058.160    87863114.95848
        46.000    21457058.400
  25229000.960   132579299.955 7        44.750    25228998.860   103308532.43543
        31.350    25228999.760
  25236104.060   132616596.461 5        38.700    25236103.100   103337616.26643
        30.400
  22540550.840   118451444.701 8        46.750    22540546.980    92299829.55046
        40.500    22540547.760
  19998845.560   105094684.071 8        48.100    19998840.560    81891977.11748
        47.200
  21680096.120   113929697.936 8        48.250    21680091.460    88776358.98847
        44.800
  20524656.080   107857850.065 9        49.650    20524654.260    84045111.26648
        47.250    20524654.960
  24963692.300   131185092.780 8        45.050    24963691.560   102222137.93246
        39.150    24963692.200
  23105867.200   121422188.093 8        45.950    23105866.120    94614685.17846
        40.550    23105866.640
 19  9 29 21  6 30.0000000  0 10G08G10G12G14G15G20G21G24G27G32
  25524526.020   134132290.021 5        38.150    25524525.720   104518661.95344
        35.700    25524526.660
  21444649.980   112692421.919 9        49.700    21444648.160    87812298.27348
        46.100    21444648.420
  25212025.860   132490094.929 6        41.100    25212023.660   103239022.12542
        27.550    25212024.500
  25219940.520   132531657.018 5        38.550    25219939.400   103271429.78543
        31.950
  22556732.600   118536480.471 8        47.300    22556728.740    92366091.17346
        40.100    22556729.540
  19995263.360   105075859.530 8        47.950    19995258.380    81877308.65048
        47.100
  21690423.480   113983968.434 9        49.100    21690418.860    88818647.65547
        43.850
  20526243.740   107866193.490 9        49.750    20526241.960    84051612.63848
        47.050    20526242.660
  24973723.320   131237805.817 7        42.750    24973722.540   102263212.98345
        37.150    24973723.200
  23091319.560   121345740.029 8        45.450    23091318.500    94555115.31346
        40.550    23091319.000
 19  9 29 21  7  0.0000000  0 10G08G10G12G14G15G20G21G24G27G32
  25525716.780   134138547.594 5        37.350    25525716.440   104523537.99244
        35.100    25525717.400
  21432279.280   112627413.531 9        49.600    21432277.440    87761642.39848
        46.000    21432277.700
  25195046.740   132400868.757 6        40.650    25195044.340   103169495.33044
        35.650    25195045.200
  25203797.900   132446826.919 6        39.500    25203796.520   103205328.43844
        34.800
  22572935.240   118621626.019 8        47.600    22572931.380    92432438.35146
        41.450    22572932.200
  19991759.180   105057444.946 8        47.700    19991754.200    81862959.63148
        47.100
  21700831.120   114038660.697 8        48.550    21700826.540    88861264.96447
        44.800
  20527950.340   107875161.981 9        50.100    20527948.580    84058601.08948
        47.200    20527949.280
  24983821.860   131290873.843 6        39.600    24983821.020   102304564.69344
        34.350    24983821.700
  23076807.440   121269478.565 7        44.700    23076806.400    94495690.84346
        41.450    23076806.900
 19  9 29 21  7 30.0000000  0  9G08G10G12G14G15G20G21G24G32
  25527002.000   134145301.544 4        35.200    25527001.640   104528800.87644
        35.200    25527002.580
  21419948.960   112562617.288 9        49.850    21419947.120    87711151.84048
        46.400    21419947.380
  25178064.940   132311628.520 5        38.300    25178062.400   103099957.48544
        34.650    25178063.320
  25187676.940   132362110.734 6        41.050    25187675.340   103139315.92344
        35.150
  22589159.340   118706884.343 8        48.100    22589155.480    92498873.40846
        41.150    22589156.320
  19988334.140   105039446.323 8        47.900    19988329.160    81848934.73648
        47.150
  21711319.460   114093777.025 8        48.450    21711314.940    88904212.71947
        44.150
  20529776.440   107884758.393 9        50.300    20529774.700    84066078.82248
        46.900    20529775.400
  23062331.660   121193408.130 7        44.750    23062330.640    94436415.20047
        42.250    23062331.140
 19  9 29 21  8  0.0000000  0  9G08G10G12G14G15G20G21G24G32
  25528380.000   134152542.849 4        35.350    25528379.620   104534443.44744
        34.800    25528380.580
  21407657.700   112498026.323 9        49.900    21407655.820    87660821.23648
        46.400    21407656.100
  25161079.240   132222368.382 5        38.150    25161076.640   103030404.17243
        31.850    25161077.620
  25171576.240   132277500.685 6        39.050    25171574.420   103073386.06444
        35.200
  22605403.060   118792245.588 8        48.250    22605399.220    92565388.66046
        41.250    22605400.040
  19984986.840   105021856.161 8        47.650    19984981.840    81835228.12948
        47.150
  21721886.520   114149307.321 8        48.450    21721882.040    88947483.08247
        43.100
  20531720.240   107894973.320 9        50.250    20531718.480    84074038.53348
        47.000    20531719.200
  23047890.640   121117520.496 8        45.350    23047889.660    94377282.03046
        41.750    23047890.140
 19  9 29 21  8 30.0000000  0  9G08G10G12G14G15G20G21G24G32
  25529851.700   134160276.761 4        35.300    25529851.320   104540469.85443
        30.650    25529852.280
  21395407.000   112433648.465 9        50.000    21395405.120    87610656.68648
        46.650    21395405.380
  25144091.500   132133097.592 6        39.300    25144088.920   102960842.51544
        33.550    25144089.960
  25155496.960   132193003.341 6        40.200    25155494.960   103007544.05144
        35.250
  22621667.240   118877714.460 8        48.450    22621663.440    92631987.78346
        41.150    22621664.240
  19981718.700   105004681.998 8        47.600    19981713.680    81821845.67148
        46.950
  21732533.280   114205256.351 8        48.950    21732528.780    88991079.74547
        42.350
  20533782.900   107905812.687 9        50.000    20533781.120    84082484.79948
        47.200    20533781.860
  23033485.620   121041822.157 8        45.400    23033484.700    94318296.34846
        41.600    23033485.160
 19  9 29 21  9  0.0000000  0 10G08G10G12G14G15G20G21G24G27G32
  25531415.860   134168496.406 4        35.650    25531415.480   104546874.77444
        34.450    25531416.440
  21383196.080   112369479.537 9        49.750    21383194.160    87560654.91848
        46.300    21383194.440
  25127101.160   132043813.612 7        42.800    25127098.600   102891270.68944
        32.450    25127099.700
  25139438.020   132108613.005 6        39.750    25139435.900   102941785.40943
        31.350
  22637950.600   118963284.039 8        48.450    22637946.800    92698665.36546
        40.750    22637947.600
  19978528.800   104987919.026 8        47.750    19978523.780    81808783.61948
        47.000
  21743258.220   114261616.076 8        48.900    21743253.640    89034996.41846
        41.850
  20535963.080   107917269.747 9        50.200    20535961.320    84091412.39048
        47.000    20535962.060
  25024880.120   131506611.739 6        41.850    25024880.540   102472708.58045
        38.250    25024881.480
  23019115.620   120966307.573 8        46.200    23019114.760    94259453.86446
        40.900    23019115.200
 19  9 29 21  9 30.0000000  0 10G08G10G12G14G15G20G21G24G27G32
  25533072.480   134177201.932 5        37.350    25533072.040   104553658.28544
        34.200    25533073.040
  21371025.380   112305521.937 9        49.250    21371023.420    87510817.84548
        46.050    21371023.700
  25110109.160   131954520.477 7        42.650    25110106.600   102821691.72644
        35.200    25110107.700
  25123399.640   132024330.768 6        41.050    25123397.400   102876111.03643
        31.700
  22654253.000   119048953.532 8        48.350    22654249.180    92765420.81646
        39.250    22654249.980
  19975417.580   104971569.515 8        47.600    19975412.540    81796043.74248
        46.650
  21754061.220   114318385.893 8        48.750    21754056.560    89079232.62947
        43.100
  20538260.840   107929344.639 9        50.350    20538259.100    84100821.40348
        47.350    20538259.820
  25035308.940   131561408.842 7        44.150    25035308.300   102515407.63445
        38.800    25035309.220
  23004780.780   120890977.799 8        45.550    23004780.000    94200755.38246
        41.850    23004780.400
 19  9 29 21 10  0.0000000  0 10G08G10G12G14G15G20G21G24G27G32
  25534822.320   134186397.556 4        35.950    25534821.880   104560823.75344
        35.700    25534822.860
  21358896.180   112241782.669 9        49.150    21358894.220    87461150.90648
        46.350    21358894.500
  25093117.020   131865226.268 6        40.300    25093114.500   102752111.88045
        36.600    25093115.520
  25107382.940   131940162.585 6        40.000    25107380.580   102810525.53643
        29.900
  22670575.260   119134727.514 8        48.250    22670571.400    92832257.67946
        39.400    22670572.220
  19972386.260   104955640.013 8        47.250    19972381.220    81783631.14948
        46.500
  21764942.920   114375569.274 8        48.750    21764938.200    89123791.08947
        43.550
  20540677.000   107942041.587 9        50.500    20540675.300    84110715.13348
        47.200    20540675.980
  25045802.360   131616546.899 7        44.400    25045800.760   102558372.32746
        40.100    25045801.720
  22990482.160   120815838.435 8        45.050    22990481.480    94142205.27146
        41.200    22990481.800
 19  9 29 21 10 30.0000000  0 10G08G10G12G14G15G20G21G24G27G32
  25536665.060   134196081.378 4        35.600    25536664.620   104568369.61644
        34.300    25536665.600
  21346808.680   112178262.633 9        49.150    21346806.760    87411654.79248
        46.300    21346807.020
  25076125.120   131775933.176 5        38.850    25076122.680   102682532.87844
        34.500    25076123.600
  25091387.960   131856108.204 6        40.300    25091385.460   102745028.65845
        36.400
  22686917.000   119220603.803 8        47.950    22686913.100    92899174.26845
        38.950    22686913.900
  19969435.000   104940131.150 8        47.550    19969429.940    81771546.32748
        46.850
  21775902.880   114433163.942 8        48.450    21775898.140    89168670.03947
        44.300
  20543211.280   107955359.227 9        50.200    20543209.580    84121092.52748
        47.350    20543210.240
  25056359.600   131672022.401 7        43.850    25056357.460   102601599.97946
        40.550    25056358.400
  22976219.680   120740888.988 8        46.000    22976219.060    94083803.15046
        40.550    22976219.360
 19  9 29 21 11  0.0000000  0 10G08G10G12G14G15G20G21G24G27G32
  25538600.540   134206252.275 4        34.950    25538600.140   104576294.95944
        32.300    25538601.120
  21334763.100   112114962.943 9        49.400    21334761.240    87362330.38548
        46.400    21334761.480
  25059133.960   131686644.070 6        40.350    25059131.660   102612956.91445
        36.750    25059132.500
  25075414.520   131772167.523 6        41.300    25075411.940   102679620.44644
        33.100
  22703277.880   119306580.601 8        47.600    22703273.900    92966169.16345
        38.850    22703274.740
  19966563.820   104925043.118 8        47.700    19966558.760    81759789.42148
        46.950
  21786940.620   114491167.534 8        48.000    21786935.900    89213867.63747
        43.900
  20545863.320   107969295.820 9        49.650    20545861.620    84131952.22248
        47.350    20545862.280
  25066980.100   131727831.955 7        43.150    25066977.660   102645087.95146
        40.400    25066978.640
  22961993.320   120666129.204 8        45.950    22961992.740    94025548.80546
        40.050    22961993.000
 19  9 29 21 11 30.0000000  0 10G08G10G12G14G15G20G21G24G27G32
  25540628.200   134216907.974 4        35.200    25540627.800   104584598.18243
        31.400    25540628.760
  21322759.560   112051884.180 9        49.450    21322757.740    87313178.11448
        46.700    21322757.980
  25042143.780   131597360.796 7        43.500    25042141.600   102543385.60843
        31.400    25042142.420
  25059462.540   131688339.675 6        40.700    25059459.940   102614300.14044
        33.350
  22719657.440   119392655.512 8        47.250    22719653.400    93033240.50046
        39.300    22719654.240
  19963772.840   104910376.577 8        47.900    19963767.760    81748360.95348
        47.000
  21798055.640   114549577.161 8        47.350    21798050.960    89259381.60147
        42.850
  20548632.900   107983850.119 9        49.900    20548631.200    84143293.24048
        46.800    20548631.860
  25077663.280   131783971.859 6        39.600    25077660.720   102688833.28245
        38.150    25077661.740
  22947802.860   120591558.248 8        45.650    22947802.300    93967441.60846
        40.300    22947802.560
 19  9 29 21 12  0.0000000  0 10G08G10G12G14G15G20G21G24G27G32
  25542747.860   134228046.810 4        35.550    25542747.500   104593277.80144
        33.700    25542748.460
  21310798.300   111989027.500 9        49.750    21310796.520    87264198.89748
        46.750    21310796.740
  25025155.240   131508085.960 7        44.100    25025153.000   102473820.90944
        33.950    25025153.900
  25043532.060   131604624.561 6        40.300    25043529.480   102549067.61845
        36.900
  22736055.320   119478826.871 8        47.250    22736051.240    93100386.99546
        39.300    22736052.080
  19961062.180   104896131.981 8        48.050    19961057.060    81737261.27448
        46.750
  21809247.380   114608390.333 8        46.750    21809242.760    89305210.04147
        43.600
  20551519.620   107999020.084 9        50.150    20551517.920    84155114.00948
        47.150    20551518.600
  25088408.480   131840438.757 5        36.050    25088406.020   102732833.44045
        36.150    25088407.020
  22933648.280   120517175.812 8        46.050    22933647.700    93909481.32346
        40.800    22933647.980
 19  9 29 21 12 30.0000000  0 10G08G10G12G14G15G20G21G24G27G32
  25544959.160   134239667.133 4        35.350    25544958.820   104602332.54344
        34.150    25544959.760
  21298879.480   111926393.688 9        49.650    21298877.700    87215393.34648
        46.550    21298877.920
  25008168.760   131418821.747 7        42.000    25008166.420   102404264.44644
        33.500    25008167.440
  25027623.000   131521021.889 6        40.400    25027620.460   102483922.68344
        33.850
  22752471.120   119565092.540 8        47.550    22752467.020    93167606.98146
        39.900    22752467.900
  19958431.900   104882309.708 8        48.350    19958426.740    81726490.67648
        47.100
  21820515.380   114667604.449 8        47.650    21820510.820    89351350.90447
        42.200
  20554523.180   108014803.925 9        50.250    20554521.460    84167413.12248
        46.900    20554522.140
  25099214.220   131897251.056 5        36.650    25099212.760   102777081.54444
        33.400    25099213.500
  22919529.500   120442981.372 8        46.800    22919528.900    93851667.51946
        40.100    22919529.180
 19  9 29 21 13  0.0000000  0 10G08G10G12G14G15G20G21G24G27G32
  25547262.280   134251770.239 5        37.100    25547262.000   104611763.59043
        30.600    25547262.900
  21287003.820   111863986.802 9        49.100    21287002.060    87166764.61248
        46.200    21287002.260
  24991185.380   131329573.737 6        41.250    24991182.900   102334720.64744
        33.850    24991184.020
  25011735.780   131437534.360 7        42.100    25011733.280   102418867.53944
        33.050
  22768905.080   119651453.651 8        47.400    22768901.000    93234901.32846
        40.200    22768901.880
  19955882.640   104868913.131 8        48.100    19955877.440    81716051.78748
        47.250
  21831859.820   114727220.275 8        47.750    21831855.320    89397804.78647
        42.800
  20557643.760   108031202.784 9        50.350    20557642.020    84180191.46448
        47.200    20557642.720
  25110082.380   131954364.266 6        39.050    25110080.840   102821585.25044
        32.850    25110081.300
  22905446.980   120368977.453 8        46.600    22905446.300    93794002.16646
        40.600    22905446.620
 19  9 29 21 13 30.0000000  0  9G08G10G14G15G20G21G24G27G32
  25549656.940   134264354.215 5        38.850    25549656.680   104621569.22444
        32.600    25549657.560
  21275171.500   111801807.691 8        48.950    21275169.740    87118313.37948
        46.550    21275169.940
  24995870.260   131354161.244 5        36.200    24995867.800   102353901.62843
        28.450
  22785356.820   119737908.263 8        46.900    22785352.740    93302268.55246
        40.250    22785353.620
  19953414.440   104855942.497 8        48.100    19953409.200    81705944.79948
        46.900
  21843280.180   114787234.903 8        48.300    21843275.700    89444569.43747
        43.550
  20560881.180   108048215.601 9        50.300    20560879.420    84193448.22748
        47.600    20560880.120
  25121011.600   132011796.814 6        40.950    25121009.400   102866337.98343
        30.800    25121009.920
  22891400.620   120295163.501 8        46.500    22891399.860    93736484.85546
        40.350    22891400.220
 19  9 29 21 14  0.0000000  0 10G08G10G12G14G15G20G21G24G27G32
  25552143.040   134277418.782 5        37.950    25552142.780   104631749.46844
        33.050    25552143.640
  21263383.000   111739858.863 9        49.100    21263381.240    87070041.56948
        46.350    21263381.440
  24957227.560   131151111.595 6        41.850    24957230.960   102195685.62144
        33.650    24957228.240
  24980026.840   131270903.983 4        35.450    24980024.420   102289025.91044
        32.100
  22801826.320   119824456.067 8        47.250    22801822.240    93369708.39146
        39.700    22801823.120
  19951027.740   104843400.191 8        48.150    19951022.460    81696171.57848
        47.050
  21854776.300   114847647.466 8        48.200    21854771.860    89491644.13747
        43.050
  20564235.300   108065841.481 9        50.250    20564233.500    84207182.68348
        47.000    20564234.200
  25132001.280   132069546.569 7        43.950    25131999.060   102911337.82544
        33.400    25131999.360
  22877390.620   120221540.596 8        46.800    22877389.740    93679116.39046
        39.850    22877390.160
 19  9 29 21 14 30.0000000  0 10G08G10G12G14G15G20G21G24G27G32
  25554719.100   134290956.158 5        36.650    25554718.880   104642298.11144
        34.350    25554719.720
  21251637.380   111678135.442 9        49.300    21251635.640    87021945.40748
        46.150    21251635.840
  24940256.280   131061923.653 7        44.550    24940258.020   102126188.62244
        34.550    24940256.420
  24964204.300   131187756.155 5        37.650    24964201.880   102224235.43445
        36.550
  22818312.020   119911089.076 8        47.100    22818307.960    93437214.61746
        40.400    22818308.840
  19948721.520   104831280.776 8        48.050    19948716.220    81686727.88248
        47.400
  21866346.520   114908449.429 8        48.350    21866342.120    89539022.27747
        43.100
  20567704.740   108084073.496 9        49.900    20567702.940    84221389.45448
        47.300    20567703.640
  25143049.460   132127604.238 7        44.350    25143047.360   102956577.56945
        36.550    25143047.520
  22863415.800   120148102.400 8        46.800    22863414.800    93621891.85746
        40.850    22863415.260
 19  9 29 21 15  0.0000000  0 10G08G10G12G14G15G20G21G24G27G32
  25557386.060   134304971.033 5        37.100    25557385.860   104653218.73244
        34.400    25557386.720
  21239936.020   111616644.659 9        49.550    21239934.300    86974030.53248
        46.350    21239934.500
  24923290.620   130972763.251 7        43.500    24923290.660   102056713.17143
        31.500    24923289.580
  24948403.760   131104723.941 5        37.650    24948401.300   102159535.06744
        32.550
  22834814.820   119997811.904 8        47.100    22834810.820    93504790.83546
        39.800    22834811.660
  19946497.000   104819590.658 8        48.100    19946491.660    81677618.70748
        46.800
  21877991.600   114969644.685 8        48.650    21877987.220    89586706.86947
        42.550
  20571290.240   108102915.431 9        50.100    20571288.420    84236071.49648
        47.200    20571289.120
  25154156.620   132185972.555 7        44.700    25154154.520   103002059.38146
        39.700    25154154.760
  22849477.200   120074854.621 8        47.000    22849476.100    93564815.71246
        40.250    22849476.580
 19  9 29 21 15 30.0000000  0 10G08G10G12G14G15G20G21G24G27G32
  25560143.840   134319463.276 5        36.700    25560143.660   104664511.43744
        33.550    25560144.500
  21228279.460   111555389.317 9        49.900    21228277.760    86926299.12148
        46.500    21228277.960
  24906330.980   130883634.601 7        44.500    24906329.200   101987262.43643
        31.950    24906328.800
  24932625.440   131021808.670 5        36.800    24932622.940   102094925.85544
        33.900
  22851334.640   120084624.157 8        47.050    22851330.680    93572436.71246
        41.050    22851331.520
  19944354.640   104808332.435 8        48.200    19944349.320    81668846.07248
        47.200
  21889711.380   115031232.245 8        48.250    21889706.980    89634697.15547
        42.950
  20574991.840   108122367.675 9        50.050    20574990.040    84251229.10348
        47.600    20574990.740
  25165322.560   132244649.772 7        44.650    25165320.560   103047781.86246
        41.650    25165320.840
  22835575.100   120001798.655 8        47.300    22835573.900    93507889.04146
        39.750    22835574.400
 19  9 29 21 16  0.0000000  0  9G10G12G14G15G20G21G24G27G32
  21216668.100   111494371.308 9        50.050    21216666.400    86878752.63148
        46.900    21216666.600
  24889377.720   130794541.016 7        42.750    24889374.460   101917839.08244
        33.350    24889374.680
  24916869.400   130939010.741 4        34.650    24916866.880   102030408.12743
        30.850
  22867871.340   120171525.047 8        47.300    22867867.440    93640151.67246
        39.850    22867868.220
  19942294.640   104797507.086 8        47.700    19942289.340    81660410.74648
        47.100
  21901505.480   115093210.412 8        48.600    21901501.020    89682991.82646
        41.550
  20578809.400   108142429.240 9        50.350    20578807.620    84266861.50448
        47.000    20578808.320
  25176546.780   132303633.252 7        42.800    25176544.920   103093743.01746
        41.850    25176545.180
  22821709.580   119928934.856 8        46.950    22821708.300    93451112.09546
        40.750    22821708.820
 19  9 29 21 16 30.0000000  0 10G08G10G12G14G15G20G21G24G27G32
  25565932.340   134349868.299 4        35.500    25565932.020   104688217.86444
        34.900    25565933.480
  21205103.440   111433598.586 9        50.000    21205101.720    86831397.27548
        46.550    21205101.940
  24872432.620   130705492.341 5        38.550    24872428.680   101848450.60044
        35.550    24872429.280
  24901136.880   130856336.897 5        37.100    24901134.380   101965987.14643
        31.850
  22884425.940   120258520.055 8        47.350    22884422.080    93707939.99046
        39.750    22884422.840
  19940318.440   104787122.111 8        47.750    19940313.140    81652318.56648
        47.050
  21913374.760   115155583.666 8        48.050    21913370.240    89731594.34546
        41.250
  20582743.920   108163105.296 9        50.350    20582742.120    84282972.72648
        47.300    20582742.840
  25187829.920   132362926.400 6        40.750    25187828.220   103139945.44246
        40.350    25187828.460
  22807881.880   119856269.715 8        47.050    22807880.500    93394489.94846
        41.750    22807881.040
 19  9 29 21 17  0.0000000  0 10G08G10G12G14G15G20G21G24G27G32
  25568961.940   134365789.235 4        35.000    25568961.580   104700623.77044
        33.800    25568962.920
  21193584.140   111373064.224 9        49.850    21193582.400    86784227.65348
        46.600    21193582.620
  24855494.500   130616482.816 6        41.100    24855490.600   101779092.58443
        29.600    24855491.280
  24885426.400   130773778.713 5        38.300    24885423.880   101901656.25644
        32.750
  22900996.440   120345598.573 8        47.350    22900992.620    93775793.37046
        39.000    22900993.340
  19938424.640   104777170.246 8        47.800    19938419.360    81644563.87648
        47.150
  21925317.200   115218341.365 8        47.750    21925312.600    89780496.43446
        41.250
  20586793.440   108184385.622 9        50.300    20586791.640    84299554.79748
        47.550    20586792.340
  25199169.820   132422517.688 5        36.350    25199168.300   103186380.12645
        36.200    25199168.520
  22794090.400   119783794.865 8        46.750    22794088.940    93338016.08446
        41.150    22794089.480
 19  9 29 21 17 30.0000000  0 10G08G10G12G14G15G20G21G24G27G32
  25572080.820   134382179.559 4        35.500    25572080.420   104713395.45944
        34.700    25572081.780
  21182110.220   111312768.367 9        49.600    21182108.440    86737243.88948
        46.450    21182108.660
  24838563.860   130527513.709 6        40.900    24838560.240   101709766.21043
        30.950    24838560.820
  24869737.800   130691335.126 5        38.850    24869735.260   101837414.57744
        34.100
  22917582.440   120432758.438 8        46.950    22917578.640    93843710.13746
        40.000    22917579.340
  19936613.100   104767650.539 8        47.950    19936607.820    81637145.92448
        47.200
  21937332.040   115281479.767 8        48.350    21937327.380    89829695.17946
        41.050
  20590957.500   108206267.845 9        50.350    20590955.700    84316605.87548
        47.100    20590956.400
  25210564.200   132482407.947 5        37.350    25210563.300   103233036.83345
        36.950    25210564.440
  22780334.840   119711508.883 8        46.850    22780333.340    93281689.37646
        41.000    22780333.880
 19  9 29 21 18  0.0000000  0 10G08G10G12G14G15G20G21G24G27G32
  25575288.980   134399038.919 4        34.950    25575288.580   104726532.59243
        31.500    25575290.020
  21170682.440   111252715.096 9        50.050    21170680.660    86690449.15548
        46.550    21170680.880
  24821642.160   130438590.855 7        42.100    24821638.700   101640475.78944
        34.650    24821639.200
  24854071.540   130609008.668 6        40.800    24854068.960   101773264.13644
        35.800
  22934184.140   120520000.806 8        46.500    22934180.360    93911691.17346
        39.000    22934181.060
  19934884.460   104758566.509 8        47.750    19934879.200    81630067.45748
        46.850
  21949419.520   115344999.717 8        48.900    21949414.800    89879191.22347
        42.000
  20595236.340   108228753.114 9        50.400    20595234.520    84334126.86048
        47.500    20595235.220
  25222015.260   132542586.252 6        40.500    25222013.960   103279928.96345
        36.400    25222015.840
  22766615.660   119639414.347 8        46.400    22766614.180    93225511.85446
        41.850    22766614.720
 19  9 29 21 18 30.0000000  0 10G08G10G12G14G15G20G21G24G27G32
  25578586.200   134416366.868 4        35.300    25578585.860   104740034.92044
        34.950    25578587.380
  21159301.180   111192906.095 9        50.100    21159299.380    86643844.73448
        46.950    21159299.600
  24804729.880   130349717.328 7        42.900    24804726.460   101571223.85943
        31.450    24804726.960
  24838427.660   130526799.758 7        42.950    24838425.040   101709205.30844
        35.600
  22950801.260   120607324.311 8        46.050    22950797.500    93979735.44046
        40.550    22950798.200
  19933239.020   104749919.647 8        47.750    19933233.760    81623329.64148
        47.300
  21961579.120   115408898.704 8        48.700    21961574.360    89928982.61947
        42.350
  20599629.640   108251840.154 9        50.500    20599627.860    84352116.77148
        47.300    20599628.540
  25233522.760   132603054.849 6        40.650    25233520.860   103327047.29745
        36.950    25233522.580
  22752932.960   119567511.412 8        46.650    22752931.500    93169483.62446
        41.750    22752932.020
 19  9 29 21 19  0.0000000  0 10G08G10G12G14G15G20G21G24G27G32
  25581972.040   134434159.819 6        39.000    25581971.680   104753899.53544
        34.700    25581973.220
  21147966.300   111133340.878 9        50.000    21147964.480    86597430.30648
        46.650    21147964.680
  24787827.260   130260894.167 6        41.800    24787823.820   101502011.07043
        31.200    24787824.360
  24822811.580   130444743.359 7        43.250    24822796.900   101645212.54643
        29.250
  22967433.200   120694725.693 8        46.200    22967429.460    94047840.39546
        39.250    22967430.160
  19931676.500   104741708.557 8        47.600    19931671.240    81616931.38948
        47.100
  21973810.100   115473172.741 8        48.000    21973805.340    89979066.26647
        42.300
  20604136.820   108275525.547 9        50.100    20604135.020    84370572.95148
        47.150    20604135.680
  25245084.160   132663808.593 7        43.050    25245082.060   103374387.90145
        36.650    25245083.600
  22739286.300   119495798.085 8        46.800    22739284.880    93113603.14046
        41.350    22739285.420
 19  9 29 21 19 30.0000000  0 10G08G10G12G14G15G20G21G24G27G32
  25585449.040   134452431.540 5        38.000    25585448.560   104768137.27144
        34.550    25585450.120
  21136680.980   111074036.092 9        50.200    21136679.140    86551218.79948
        46.600    21136679.340
  24770937.560   130172139.663 7        42.100    24770934.060   101432851.92344
        32.600    24770934.720
  24807209.360   130362781.104 6        41.900    24807207.000   101581345.97743
        30.250
  22984082.660   120782219.188 8        46.950    22984078.940    94116017.13046
        39.250    22984079.640
  19930199.980   104733949.458 8        47.650    19930194.740    81610885.33948
        47.500
  21986115.000   115537835.174 8        48.050    21986110.220    90029452.55547
        42.000
  20608760.460   108299822.989 9        50.300    20608758.640    84389506.02848
        46.950    20608759.320
  25256702.060   132724859.837 7        43.500    25256699.820   103421960.34645
        36.800    25256701.260
  22725678.640   119424289.693 8        46.700    22725677.240    93057882.34846
        40.850    22725677.800
 19  9 29 21 20  0.0000000  0 10G08G10G12G14G15G20G21G24G27G32
  25589013.160   134471160.978 5        36.350    25589012.640   104782731.64644
        34.600    25589014.140
  21125441.860   111014974.120 9        50.050    21125440.000    86505196.49348
        46.950    21125440.200
  24754057.860   130083437.224 6        39.600    24754054.360   101363733.20744
        35.150    24754055.140
  24791631.720   130280930.311 6        40.850    24791631.240   101517566.21644
        34.900
  23000745.640   120869783.649 8        46.900    23000741.940    94184249.14746
        39.950    23000742.640
  19928805.920   104726623.592 8        47.750    19928800.700    81605176.86848
        47.500
  21998489.620   115602864.094 8        48.450    21998484.840    90080124.42446
        41.250
  20613496.560   108324711.297 9        50.700    20613494.700    84408899.51148
        47.500    20613495.400
  25268372.140   132786185.772 7        43.500    25268369.940   103469746.81445
        37.900    25268371.280
  22712106.260   119352966.628 8        46.400    22712104.840    93002305.96047
        42.300    22712105.440
 19  9 29 21 20 30.0000000  0 10G08G10G12G14G15G20G21G24G27G32
  25592665.420   134490353.821 4        35.300    25592664.840   104797687.16944
        32.600    25592666.300
  21114250.600   110956163.668 9        50.000    21114248.740    86459370.18148
        47.100    21114248.920
  24737190.040   129994797.290 7        42.700    24737186.600   101294663.22344
        32.600    24737187.440
  24776078.100   130199198.681 7        42.100    24776078.080   101453879.24644
        34.100
  23017423.300   120957425.218 8        46.900    23017419.620    94252541.26046
        40.250    23017420.300
  19927495.820   104719738.922 8        47.800    19927490.620    81599812.18548
        47.500
  22010934.940   115668264.524 8        47.850    22010930.120    90131085.79046
        41.300
  20618346.260   108350196.553 9        50.800    20618344.340    84428758.16048
        47.500    20618345.060
  25280095.240   132847790.774 7        43.150    25280093.240   103517750.73045
        38.600    25280094.440
  22698570.560   119281836.260 8        46.400    22698569.140    92946879.72647
        42.550    22698569.760
 19  9 29 21 21  0.0000000  0 10G08G10G12G14G15G20G21G24G27G32
  25596405.540   134510008.384 4        34.500    25596404.940   104813002.43843
        31.150    25596406.360
  21103107.480   110897606.209 9        49.950    21103105.620    86413741.01348
        47.250    21103105.800
  24720334.620   129906222.459 6        41.600    24720331.340   101225643.96644
        33.950    24720332.160
  24760547.460   130117585.955 6        40.650    24760547.620   101390284.92244
        32.900
  23034115.420   121045142.699 8        47.000    23034111.740    94320892.51946
        40.600    23034112.420
  19926269.900   104713296.601 8        47.650    19926264.700    81594792.19648
        47.600
  22023450.480   115734034.120 8        47.200    22023445.600    90182334.83246
        41.650
  20623309.220   108376276.863 9        50.450    20623307.220    84449080.49648
        47.550    20623307.940
  25291870.880   132909671.709 6        39.300    25291869.040   103565969.64346
        39.500    25291870.120
  22685071.480   119210898.510 8        45.800    22685070.100    92891603.59247
        43.050    22685070.720
 19  9 29 21 21 30.0000000  0 10G08G10G12G14G15G20G21G24G27G32
  25600234.080   134530127.447 5        37.300    25600233.480   104828679.61243
        30.300    25600234.900
  21092013.640   110839307.694 9        49.850    21092011.780    86368313.61548
        47.000    21092011.960
  24703493.120   129817720.722 5        38.950    24703490.000   101156681.67244
        35.200    24703490.800
  24745040.320   130036096.756 6        39.150    24745040.520   101326787.04144
        32.300
  23050822.480   121132938.660 8        47.100    23050818.780    94389304.93646
        39.700    23050819.460
  19925129.180   104707302.074 8        47.900    19925124.020    81590121.13848
        47.850
  22036036.700   115800175.108 8        47.550    22036031.800    90233873.24247
        42.250
  20628385.940   108402955.060 9        50.150    20628383.900    84469868.70348
        47.200    20628384.620
  25303699.160   132971829.761 5        36.100    25303697.580   103614404.44845
        37.100    25303698.600
  22671609.900   119140157.776 8        45.900    22671608.600    92836480.96747
        43.600    22671609.220
 19  9 29 21 22  0.0000000  0 10G08G10G12G14G15G20G21G24G27G32
  25604149.620   134550704.001 5        37.300    25604148.980   104844713.35844
        32.050    25604150.420
  21080968.320   110781264.122 9        50.050    21080966.460    86323084.86248
        46.850    21080966.600
  24686664.980   129729289.195 6        41.850    24686662.020   101087774.06544
        33.900    24686662.800
  24729555.840   129954725.766 6        41.950    24729556.040   101263381.17044
        34.350
  23067543.280   121220806.852 8        47.300    23067539.580    94457773.63546
        39.550    23067540.240
  19924072.620   104701749.851 8        47.750    19924067.500    81585794.73448
        47.700
  22048692.120   115866679.702 8        47.800    22048687.240    90285694.96347
        42.550
  20633575.080   108430224.093 9        50.100    20633573.000    84491117.31148
        46.900    20633573.740
  25315578.440   133034256.301 5        36.850    25315577.140   103663048.47445
        37.450    25315578.140
  22658184.760   119069608.497 8        46.750    22658183.520    92781507.54147
        42.950    22658184.140
 19  9 29 21 22 30.0000000  0 10G08G10G12G14G15G20G21G24G27G32
  25608152.460   134571738.550 5        36.400    25608151.760   104861103.83944
        33.300    25608153.220
  21069972.140   110723478.864 9        50.250    21069970.260    86278057.40048
        46.950    21069970.420
  24669851.100   129640932.553 7        42.250    24669848.260   101018924.84845
        36.000    24669849.020
  24714094.300   129873474.583 6        41.700    24714094.440   101200068.62744
        35.000
  23084277.900   121308747.658 8        46.800    23084274.180    94526298.91646
        39.550    23084274.860
  19923100.840   104696643.091 8        47.600    19923095.760    81581815.45048
        47.350
  22061416.720   115933547.987 8        47.850    22061411.880    90337800.09747
        42.750
  20638876.620   108458084.013 9        49.800    20638874.520    84512826.37048
        46.300    20638875.260
  25327508.660   133096950.080 6        39.300    25327507.580   103711900.67545
        38.700    25327508.540
  22644796.360   118999252.408 8        47.000    22644795.200    92726684.66447
        43.050    22644795.800
 19  9 29 21 23  0.0000000  0 10G08G10G12G14G15G20G21G24G27G32
  25612242.600   134593232.155 5        36.050    25612241.840   104877852.08644
        33.800    25612243.280
  21059026.020   110665956.578 9        50.350    21059024.120    86233234.83648
        47.150    21059024.280
  24653052.740   129552657.264 7        43.850    24653049.940   100950139.01944
        33.150    24653050.720
  24698656.280   129792346.707 6        41.850    24698656.260   101136852.18244
        34.500
  23101026.620   121396762.766 8        46.050    23101022.880    94594882.10646
        39.000    23101023.580
  19922214.540   104691985.538 8        47.250    19922209.500    81578186.19348
        47.050
  22074210.580   116000780.183 8        48.000    22074205.780    90390188.80746
        41.600
  20644290.960   108486536.748 9        49.750    20644288.860    84534997.34148
        47.150    20644289.600
  25339489.800   133159910.967 6        41.000    25339488.760   103760961.04546
        39.050    25339489.700
  22631445.380   118929092.627 8        47.200    22631444.240    92672014.73547
        42.800    22631444.840
 19  9 29 21 23 30.0000000  0 10G08G10G12G14G15G20G21G24G27G32
  25616419.380   134615181.290 4        33.800    25616418.600   104894955.32743
        31.700    25616419.980
  21048129.880   110608696.976 9        50.250    21048127.960    86188616.97048
        46.600    21048128.140
  24636270.040   129464464.274 7        44.250    24636267.200   100881417.34544
        33.800    24636268.020
  24683241.320   129711340.094 6        41.050    24683241.100   101073730.25844
        33.900
  23117788.900   121484849.160 8        45.950    23117785.160    94663520.84546
        40.000    23117785.880
  19921413.480   104687776.091 8        47.050    19921408.480    81574906.12148
        47.050
  22087072.920   116068372.199 8        47.700    22087068.120    90442857.91246
        40.950
  20649817.340   108515578.381 9        50.000    20649815.260    84557627.19748
        47.150    20649816.020
  25351520.820   133223134.008 6        40.500    25351519.760   103810225.72146
        39.000    25351520.700
  22618131.420   118859127.260 8        47.400    22618130.300    92617496.30547
        42.850    22618130.860
 19  9 29 21 24  0.0000000  0 10G08G10G12G14G15G20G21G24G27G32
  25620682.920   134637586.569 5        36.600    25620682.140   104912414.03143
        30.800    25620683.500
  21037284.500   110551704.022 9        50.050    21037282.560    86144206.88848
        46.900    21037282.740
  24619504.120   129376359.019 6        41.650    24619501.260   100812763.95145
        37.200    24619502.140
  24667849.960   129630457.486 6        40.350    24667849.520   101010704.91944
        33.150
  23134564.980   121573008.105 8        46.050    23134561.220    94732216.12346
        39.400    23134561.960
  19920698.300   104684017.937 8        47.350    19920693.340    81571977.69848
        47.250
  22100003.720   116136323.993 8        47.100    22099998.920    90495807.36646
        40.600
  20655456.060   108545210.118 9        50.200    20655454.000    84580716.86448
        47.400    20655454.760
  25363601.580   133286618.436 7        43.100    25363600.460   103859694.05346
        39.800    25363601.440
  22604854.900   118789358.648 8        47.650    22604853.780    92563131.19647
        42.600    22604854.340
 19  9 29 21 24 30.0000000  0 10G08G10G12G14G15G20G21G24G27G32
  25625033.000   134660446.321 5        38.200    25625032.220   104930226.81844
        35.450    25625033.560
  21026490.060   110494978.805 9        50.150    21026488.100    86100005.41448
        46.650    21026488.280
  24602755.400   129288344.261 7        42.500    24602752.580   100744181.08344
        35.800    24602753.460
  24652482.060   129549698.348 6        41.500    24652481.420   100947775.78644
        34.850
  23151354.540   121661237.975 8        46.500    23151350.780    94800966.65445
        38.950    23151351.540
  19920069.100   104680711.537 8        47.650    19920064.180    81569401.27448
        47.250
  22113002.460   116204632.799 8        47.650    22112997.660    90549034.98946
        41.150
  20661206.620   108575429.459 9        50.550    20661204.540    84604264.39348
        46.950    20661205.320
  25375731.320   133350360.566 7        43.700    25375730.180   103909363.23545
        37.850    25375731.160
  22591615.740   118719786.306 8        47.750    22591614.600    92508919.01247
        42.000    22591615.140
 19  9 29 21 25  0.0000000  0 10G08G10G12G14G15G20G21G24G27G32
  25629468.240   134683753.567 5        36.600    25629467.440   104948388.29744
        34.650    25629468.800
  21015745.960   110438518.328 9        50.150    21015744.020    86056010.25448
        46.900    21015744.200
  24586023.500   129200418.188 7        43.850    24586020.800   100675667.37244
        35.250    24586021.620
  24637136.740   129469058.021 7        42.650    24637135.920   100884939.22344
        34.250
  23168156.400   121749532.487 8        46.650    23168152.640    94869767.56146
        39.300    23168153.440
  19919525.080   104677852.840 8        47.500    19919520.180    81567173.73248
        47.350
  22126067.840   116273291.797 8        47.700    22126063.040    90602535.49147
        42.200
  20667067.700   108606229.514 9        50.600    20667065.580    84628264.44448
        47.250    20667066.360
  25387908.620   133414352.730 7        43.550    25387907.480   103959227.25545
        37.050    25387908.460
  22578413.080   118650405.657 8        47.400    22578411.880    92454856.19747
        42.950    22578412.420
 19  9 29 21 25 30.0000000  0 10G08G10G12G14G15G20G21G24G27G32
  25633989.000   134707510.476 5        38.900    25633988.180   104966900.22344
        32.900    25633989.540
  21005053.240   110382327.692 9        50.450    21005051.300    86012225.35748
        46.850    21005051.480
  24569309.780   129112587.348 7        44.100    24569307.160   100607227.84144
        34.150    24569307.940
  24621814.760   129388540.307 7        42.900    24621813.720   100822198.23544
        32.800
  23184971.080   121837894.248 8        47.050    23184967.340    94938620.86846
        39.050    23184968.140
  19919067.100   104675446.223 8        47.800    19919062.240    81565298.45848
        47.250
  22139200.120   116342302.403 8        47.100    22139195.360    90656309.97447
        43.000
  20673039.700   108637612.478 9        50.600    20673037.540    84652718.71448
        47.250    20673038.340
  25400133.580   133478595.239 6        40.650    25400132.400   104009286.35545
        36.250    25400133.380
  22565247.520   118581220.146 8        46.900    22565246.300    92400945.44647
        43.200    22565246.840
 19  9 29 21 26  0.0000000  0 10G08G10G12G14G15G20G21G24G27G32
  25638596.000   134731720.217 5        38.750    25638595.160   104985764.94844
        32.600    25638596.500
  20994413.140   110326413.673 9        50.200    20994411.220    85968656.00048
        46.400    20994411.380
  24552615.800   129024860.299 7        42.800    24552613.200   100538869.21344
        34.500    24552613.980
  24606517.040   129308150.261 7        42.000    24606515.740   100759556.75844
        32.800
  23201799.340   121926327.223 8        47.400    23201795.580    95007529.65945
        38.850    23201796.400
  19918696.260   104673497.485 8        47.800    19918691.440    81563779.94748
        47.200
  22152399.880   116411667.589 8        46.750    22152395.180    90710360.73547
        42.550
  20679123.380   108669582.180 9        49.950    20679121.200    84677630.15748
        46.900    20679122.000
  25412406.460   133543090.129 5        37.100    25412405.320   104059542.15944
        35.000    25412406.280
  22552120.060   118512234.954 8        47.100    22552118.860    92347190.80247
        42.050    22552119.380
 19  9 29 21 26 30.0000000  0 10G08G10G12G14G15G20G21G24G27G32
  25643287.360   134756373.338 6        39.300    25643286.520   105004975.16244
        33.700    25643287.860
  20983824.440   110270769.739 9        50.100    20983822.520    85925297.10948
        46.500    20983822.680
  24535940.600   128937231.904 7        42.250    24535938.040   100470587.41745
        36.300    24535938.800
  24591242.160   129227879.991 7        42.050    24591240.620   100697008.56343
        31.950
  23218639.360   122014821.952 8        46.900    23218635.600    95076486.55646
        39.850    23218636.420
  19918411.160   104671999.248 8        47.700    19918406.340    81562612.49148
        46.900
  22165665.060   116481376.643 8        47.000    22165660.460    90764679.45246
        41.400
  20685316.700   108702128.309 9        49.700    20685314.540    84702990.79248
        46.300    20685315.320
  25424725.180   133607826.251 5        37.250    25424724.260   104109985.90545
        36.000    25424725.160
  22539029.160   118443441.871 8        47.200    22539027.980    92293585.84147
        43.000    22539028.480
 19  9 29 21 27  0.0000000  0 10G08G10G12G14G15G20G21G24G27G32
  25648063.780   134781473.600 5        37.350    25648062.980   105024533.80243
        30.650    25648064.300
  20973288.540   110215403.277 9        50.250    20973286.620    85882154.42548
        47.000    20973286.780
  24519285.820   128849710.881 7        44.550    24519283.280   100402389.31944
        35.050    24519284.020
  24575991.160   129147735.322 7        43.450    24575989.440   100634558.25044
        34.700
  23235492.040   122103383.070 8        46.700    23235488.260    95145495.19545
        38.650    23235489.080
  19918213.060   104670958.154 8        47.550    19918208.200    81561801.25048
        47.200
  22178996.240   116551432.548 8        47.850    22178991.720    90819268.45546
        40.800
  20691620.420   108735254.742 9        49.250    20691618.260    84728803.62548
        46.300    20691619.020
  25437090.420   133672806.213 5        37.600    25437089.700   104160619.53144
        35.650    25437090.540
  22525975.920   118374846.692 8        47.150    22525974.760    92240135.08147
        42.300    22525975.260
 19  9 29 21 27 30.0000000  0 10G08G10G12G14G15G20G21G24G27G32
  25652924.460   134807016.459 5        37.350    25652923.660   105044437.30843
        29.050    25652924.960
  20962805.240   110160313.192 9        50.250    20962803.320    85839227.09748
        46.600    20962803.480
  24502651.600   128762297.719 7        42.450    24502649.080   100334275.25644
        35.750    24502649.780
  24560763.560   129067713.573 7        43.450    24560761.680   100572203.72244
        32.450
  23252356.620   122192006.936 8        46.250    23252352.840    95214552.74345
        38.600    23252353.640
  19918101.560   104670372.147 8        47.700    19918096.680    81561344.62148
        47.300
  22192392.580   116621830.769 8        48.350    22192388.080    90874124.21046
        39.850
  20698033.840   108768957.686 9        49.400    20698031.680    84755065.66448
        46.300    20698032.460
  25449500.900   133738024.059 5        37.750    25449500.340   104211438.58944
        35.650    25449501.140
  22512959.820   118306446.678 8        46.500    22512958.660    92186836.38547
        42.750    22512959.160
 19  9 29 21 28  0.0000000  0 10G08G10G12G14G15G20G21G24G27G32
  25657868.240   134832996.083 5        38.450    25657867.440   105064681.14843
        28.100    25657868.720
  20952374.080   110105497.092 9        49.950    20952372.140    85796513.26348
        46.650    20952372.300
  24486037.680   128674991.448 7        44.100    24486035.180   100266244.51244
        35.550    24486035.840
  24545558.660   128987810.856 7        43.300    24545556.640   100509941.90743
        31.800
  23269232.120   122280688.232 8        46.350    23269228.380    95283655.03745
        38.150    23269229.160
  19918076.020   104670237.915 8        47.750    19918071.140    81561240.01648
        47.200
  22205852.860   116692564.771 8        48.000    22205848.300    90929241.60546
        40.800
  20704555.660   108803230.376 9        49.900    20704553.540    84781771.65148
        46.800    20704554.340
  25461955.360   133803472.770 5        38.550    25461954.860   104262437.57645
        38.000    25461955.640
  22499980.060   118238237.820 8        46.700    22499978.900    92133686.65347
        42.050    22499979.420
 19  9 29 21 28 30.0000000  0 10G08G10G12G14G15G20G21G24G27G32
  25662897.320   134859424.276 6        39.000    25662896.500   105085274.59244
        32.950    25662897.780
  20941997.900   110050969.954 9        49.650    20941995.940    85754024.60048
        46.750    20941996.120
  24469447.260   128587808.505 7        42.800    24469444.760   100198309.86344
        35.700    24469445.380
  24530378.880   128908040.395 7        42.850    24530376.700   100447783.19744
        34.150
  23286120.840   122369438.939 8        46.350    23286117.120    95352811.40846
        39.300    23286117.880
  19918139.120   104670569.458 8        47.800    19918134.240    81561498.35748
        47.350
  22219379.120   116763645.460 8        47.350    22219374.500    90984629.14647
        42.300
  20711188.220   108838085.000 9        49.700    20711186.140    84808931.11148
        46.850    20711186.940
  25474455.760   133869162.439 7        43.200    25474455.320   104313624.25346
        40.700    25474456.080
  22487039.180   118170233.420 8        46.650    22487038.020    92080696.23847
        42.400    22487038.560
 19  9 29 21 29  0.0000000  0 10G08G10G12G14G15G20G21G24G27G32
  25668009.340   134886288.262 5        37.150    25668008.500   105106207.60544
        32.300    25668009.780
  20931674.940   109996722.693 9        49.400    20931672.980    85711754.03148
        46.900    20931673.180
  24452878.780   128500741.122 6        41.950    24452876.260   100130465.30344
        33.350    24452876.860
  24515222.300   128828391.659 7        42.800    24515219.940   100385719.28644
        35.850
  23303020.560   122458247.467 8        46.800    23303016.860    95422012.83445
        38.800    23303017.600
  19918288.960   104671356.785 8        47.600    19918284.040    81562111.86348
        47.250
  22232969.020   116835060.252 8        47.250    22232964.340    91040276.98647
        42.250
  20717929.060   108873508.456 9        49.100    20717926.980    84836533.80848
        46.800    20717927.800
  25486999.380   133935079.279 6        39.900    25486998.940   104364988.01846
        39.300    25486999.680
  22474135.160   118102422.729 8        46.350    22474134.000    92027856.77546
        41.000    22474134.560
 19  9 29 21 29 30.0000000  0 11G08G10G12G14G15G20G21G24G25G27G32
  25673204.680   134913589.905 5        36.000    25673203.820   105127481.59343
        31.350    25673205.120
  20921406.220   109942760.415 9        49.800    20921404.260    85669705.50748
        46.700    20921404.480
  24436333.660   128413796.421 7        44.300    24436331.080   100062716.28044
        33.600    24436331.700
  24500089.560   128748868.248 7        42.500    24500087.060   100323753.04645
        36.700
  23319931.740   122547116.050 8        46.800    23319928.040    95491261.05145
        38.550    23319928.760
  19918526.400   104672604.431 8        47.800    19918521.460    81563084.05648
        47.250
  22246622.520   116906809.503 8        46.750    22246617.860    91096185.43847
        42.400
  20724778.620   108909503.239 9        49.450    20724776.560    84864581.68548
        46.950    20724777.380
  25707103.280   135091734.100 5        38.950    25707103.180   105266304.16344
        32.600    25707105.480
  25499586.280   134001223.522 6        40.250    25499585.880   104416528.93245
        38.950    25499586.600
  22461268.680   118034809.246 8        46.000    22461267.500    91975170.96746
        41.900    22461268.100
 19  9 29 21 30  0.0000000  0 11G08G10G12G14G15G20G21G24G25G27G32
  25678484.460   134941335.492 5        37.350    25678483.580   105149101.54243
        29.450    25678484.900
  20911193.700   109889093.499 9        49.750    20911191.760    85627887.14848
        46.900    20911192.000
  24419814.000   128326985.679 6        40.950    24419811.340    99995071.69344
        32.600    24419811.960
  24484982.260   128669478.735 7        43.100    24484979.660   100261891.18244
        35.600
  23336855.800   122636052.504 8        46.700    23336852.120    95560562.17445
        38.550    23336852.800
  19918853.140   104674321.414 8        47.700    19918848.160    81564421.98048
        47.300
  22260340.900   116978899.788 8        47.050    22260336.260    91152359.66746
        41.350
  20731738.000   108946075.235 9        49.650    20731735.980    84893079.35548
        46.550    20731736.800
  25688968.500   134996435.810 4        35.100    25688973.660   105192050.81942
        27.500    25688970.840
  25512217.460   134067600.747 6        40.950    25512217.080   104468251.42946
        39.400    25512217.780
  22448441.360   117967401.616 8        46.700    22448440.180    91922645.56747
        42.550    22448440.780
 19  9 29 21 30 30.0000000  0 11G08G10G12G14G15G20G21G24G25G27G32
  25683845.820   134969509.597 5        38.800    25683844.960   105171055.35444
        32.450    25683846.300
  20901034.980   109835709.265 9        49.950    20901033.040    85586289.04548
        46.450    20901033.300
  24403317.780   128240297.915 7        42.550    24403315.100    99927522.83944
        34.200    24403315.720
  24469897.800   128590209.118 6        41.550    24469895.100   100200122.73244
        35.850
  23353789.840   122725041.093 8        46.400    23353786.140    95629903.89745
        38.250    23353786.800
  19919266.600   104676494.103 8        47.650    19919261.620    81566114.97848
        47.350
  22274120.980   117051314.497 8        47.100    22274116.360    91208786.68946
        40.650
  20738804.180   108983208.270 9        49.450    20738802.180    84922014.17248
        46.150    20738803.000
  25670797.480   134900946.963 4        35.950    25670803.160   105117643.81444
        34.550    25670800.120
  25524889.660   134134193.529 7        42.050    25524889.280   104520141.87745
        38.700    25524890.000
  22435650.500   117900185.535 8        47.600    22435649.320    91870269.41647
        43.250    22435649.940
 19  9 29 21 31  0.0000000  0 10G08G10G12G14G15G20G21G24G27G32
  25689289.900   134998118.693 5        37.700    25689289.040   105193348.21344
        35.250    25689290.360
  20890932.040   109782618.091 9        50.000    20890930.100    85544919.31248
        46.750    20890930.360
  24386847.200   128153745.142 6        41.050    24386844.500    99860079.22745
        36.750    24386845.120
  24454837.760   128511067.987 6        41.300    24454835.000   100138454.40044
        34.250
  23370735.220   122814089.574 8        46.600    23370731.480    95699292.30545
        37.900    23370732.160
  19919768.540   104679131.847 8        47.600    19919763.560    81568170.37348
        47.000
  22287963.960   117124060.008 8        47.150    22287959.340    91265471.51546
        39.200
  20745978.460   109020909.529 9        50.100    20745976.500    84951391.79548
        46.250    20745977.280
  25537603.960   134201007.427 6        41.400    25537603.600   104572204.60144
        35.550    25537604.320
  22422897.760   117833169.696 8        48.650    22422896.620    91818049.32147
        43.150    22422897.200
 19  9 29 21 31 30.0000000  0 10G08G10G12G14G15G20G21G24G27G32
  25694813.620   135027146.022 5        38.250    25694812.800   105215966.88244
        32.300    25694814.120
  20880882.340   109729806.680 9        50.150    20880880.380    85503767.56848
        46.900    20880880.660
  24370400.060   128067315.393 7        42.300    24370397.380    99792731.41144
        34.750    24370398.000
  24439799.340   128432040.570 6        40.150    24439796.620   100076874.62345
        37.000
  23387688.940   122903181.843 8        46.450    23387685.140    95768714.84845
        37.850    23387685.840
  19920356.300   104682220.457 8        47.550    19920351.300    81570577.08148
        47.200
  22301866.640   117197119.090 8        46.750    22301862.040    91322400.64746
        40.600
  20753257.720   109059162.316 9        50.100    20753255.760    84981199.17948
        46.950    20753256.540
  25550356.860   134268024.266 6        39.100    25550356.480   104624425.52145
        36.000    25550357.200
  22410180.340   117766339.127 8        48.600    22410179.200    91765973.57147
        43.000    22410179.760
 19  9 29 21 32  0.0000000  0 11G08G10G12G14G15G20G21G24G25G27G32
  25700420.040   135056607.958 5        37.800    25700419.200   105238924.24344
        32.900    25700420.520
  20870889.720   109677295.039 9        50.350    20870887.740    85462849.40948
        47.300    20870888.040
  24353980.340   127981030.114 7        43.550    24353977.620    99725496.30145
        36.550    24353978.240
  24424786.060   128353145.324 6        40.300    24424783.420   100015397.83545
        36.700
  23404654.320   122992335.233 8        46.000    23404650.440    95838184.99245
        37.700    23404651.160
  19921033.440   104685778.923 8        47.700    19921028.480    81573349.90948
        47.200
  22315831.940   117270507.305 8        46.450    22315827.360    91379586.24947
        42.450
  20760645.080   109097983.008 9        49.550    20760643.140    85011449.05848
        47.500    20760643.880
  25616074.820   134613385.392 5        38.650    25616078.980   104893569.06645
        37.600    25616078.080
  25563151.320   134335259.389 5        37.800    25563150.940   104676816.50045
        36.750    25563151.660
  22397501.680   117699712.019 8        47.650    22397500.500    91714056.37147
        42.800    22397501.040
 19  9 29 21 32 30.0000000  0 11G08G10G12G14G15G20G21G24G25G27G32
  25706108.840   135086502.838 5        36.800    25706107.960   105262218.96144
        32.650    25706109.300
  20860954.500   109625085.034 9        50.400    20860952.500    85422166.28648
        47.300    20860952.800
  24337588.860   127894892.787 7        43.100    24337586.120    99658376.39345
        36.800    24337586.780
  24409797.820   128274382.312 6        41.600    24409795.280    99954024.20044
        33.400
  23421631.180   123081548.830 8        45.900    23421627.200    95907702.04745
        37.800    23421627.940
  19921800.160   104689808.006 8        47.600    19921795.180    81576489.46048
        47.500
  22329859.480   117344222.517 8        46.350    22329854.960    91437026.65647
        43.550
  20768140.040   109137369.234 9        49.900    20768138.120    85042139.61748
        47.200    20768138.860
  25597768.400   134517180.525 4        35.750    25597772.500   104818604.26943
        28.600    25597770.880
  25575986.760   134402709.843 5        37.250    25575986.400   104729375.21344
        33.550    25575987.120
  22384861.800   117633288.834 8        46.250    22384860.600    91662298.07347
        43.850    22384861.140
 19  9 29 21 33  0.0000000  0 11G08G10G12G14G15G20G21G24G25G27G32
  25711877.840   135116819.448 4        35.150    25711876.900   105285842.38744
        32.200    25711878.240
  20851075.300   109573169.393 9        50.150    20851073.260    85381712.55048
        47.350    20851073.560
  24321224.440   127808897.657 6        40.900    24321221.700    99591367.32645
        38.600    24321222.340
  24394833.120   128195742.745 7        42.700    24394830.660    99892746.71444
        34.400
  23438617.580   123170812.730 8        45.750    23438613.540    95977258.29745
        38.050    23438614.320
  19922654.820   104694299.406 8        47.750    19922649.860    81579989.26548
        47.400
  22343947.040   117418253.079 8        45.900    22343942.600    91494712.76347
        42.850
  20775740.540   109177310.196 9        49.950    20775738.620    85073262.47448
        46.900    20775739.340
  25579427.780   134420799.094 4        33.750    25579431.760   104743501.92344
        32.550    25579430.080
  25588860.820   134470363.390 5        36.800    25588860.460   104782092.21544
        32.900    25588861.180
  22372258.940   117567060.460 8        46.700    22372257.760    91610691.57347
        43.250    22372258.280
 19  9 29 21 33 30.0000000  0 11G08G10G12G14G15G20G21G24G25G27G32
  25717727.540   135147559.652 6        40.250    25717726.600   105309795.73645
        36.700    25717727.980
  20841253.120   109521553.365 9        50.300    20841251.040    85341492.28348
        47.200    20841251.360
  24304888.440   127723051.574 6        40.950    24304885.760    99524474.28545
        37.700    24304886.380
  24379892.620   128117230.076 6        40.000    24379890.280    99831568.02345
        36.950
  23455614.080   123260129.670 8        46.400    23455610.000    96046855.87945
        36.950    23455610.760
  19923598.280   104699257.293 8        47.900    19923593.320    81583852.55348
        47.050
  22358094.920   117492600.725 8        45.300    22358090.600    91552645.95846
        41.200
  20783447.000   109217807.878 9        49.650    20783445.080    85104819.11148
        47.400    20783445.820
  25561054.500   134324246.766 5        36.250    25561058.640   104668266.32144
        35.100    25561056.760
  25601773.660   134538220.628 5        36.600    25601773.280   104834967.94644
        33.300    25601774.000
  22359693.820   117501030.469 8        47.700    22359692.660    91559239.66147
        42.700    22359693.180
 19  9 29 21 34  0.0000000  0 11G08G10G12G14G15G20G21G24G25G27G32
  25723657.400   135178721.159 6        40.650    25723656.440   105334077.42245
        36.050    25723657.840
  20831488.220   109470238.441 9        50.400    20831486.140    85301506.64448
        47.250    20831486.440
  24288581.220   127637357.077 7        42.900    24288578.580    99457699.44844
        35.500    24288579.200
  24364976.280   128038844.562 6        39.850    24364974.000    99770488.48345
        36.350
  23472620.320   123349497.744 8        46.500    23472616.200    96116493.30245
        38.100    23472616.980
  19924630.620   104704682.192 8        47.900    19924625.660    81588079.74948
        47.500
  22372302.520   117567262.356 8        45.550    22372298.260    91610823.84046
        39.400
  20791258.960   109258860.025 9        49.850    20791257.100    85136807.78948
        48.200    20791257.800
  25542648.920   134227525.602 3        31.350    25542653.120   104592899.18843
        30.400    25542651.220
  25614724.620   134606278.266 6        40.550    25614724.240   104887999.86245
        38.850    25614724.940
  22347166.420   117435198.643 8        48.100    22347165.260    91507942.17547
        42.600    22347165.760
 19  9 29 21 34 30.0000000  0 11G08G10G12G14G15G20G21G24G25G27G32
  25729667.220   135210303.136 5        36.400    25729666.260   105358686.79643
        29.200    25729667.640
  20821781.120   109419227.186 9        50.600    20821779.020    85261757.63948
        47.400    20821779.320
  24272303.700   127551818.453 7        44.700    24272301.080    99391046.06545
        36.400    24272301.660
  24350084.300   127960586.949 6        39.400    24350082.120    99709508.53244
        35.700
  23489636.320   123438917.236 8        46.700    23489632.200    96186170.81645
        37.850    23489632.940
  19925752.080   104710575.478 8        48.050    19925747.120    81592671.93048
        47.600
  22386569.600   117642236.777 8        46.550    22386565.360    91669245.49046
        39.300
  20799176.160   109300465.219 9        50.300    20799174.340    85169227.43048
        48.050    20799175.020
  25524210.120   134130624.948 4        34.550    25524215.700   104517391.13844
        33.550    25524214.320
  25627713.280   134674533.733 6        40.300    25627712.900   104941185.84644
        34.600    25627713.620
  22334676.900   117369565.877 8        48.550    22334675.680    91456799.79947
        42.000    22334676.200
 19  9 29 21 35  0.0000000  0 10G08G10G12G14G15G20G21G24G25G32
  25735757.160   135242305.611 5        38.500    25735756.200   105383623.73044
        33.500    25735757.560
  20812132.560   109368523.619 9        50.200    20812130.460    85222248.37248
        47.600    20812130.740
  24256056.840   127466441.061 6        41.700    24256054.200    99324518.36245
        38.950    24256054.800
  24335217.080   127882459.470 6        40.500    24335214.920    99648630.03644
        35.850
  23506662.380   123528389.459 8        46.750    23506658.280    96255889.39145
        37.400    23506658.980
  19926963.220   104716939.843 8        48.000    19926958.220    81597631.16448
        47.100
  22400896.140   117717523.316 8        47.200    22400891.840    91727910.31946
        40.150
  20807198.600   109342623.501 9        49.900    20807196.860    85202078.05548
        47.600    20807197.500
  25505742.420   134033577.191 5        36.050    25505748.340   104441769.61742
        26.700    25505746.980
  22322225.720   117304134.437 8        48.250    22322224.400    91405814.28647
        42.750    22322224.960
 19  9 29 21 35 30.0000000  0 11G08G10G12G14G15G20G21G24G25G27G32
  25741926.380   135274724.719 5        38.850    25741925.400   105408885.33144
        32.300    25741926.740
  20802542.460   109318127.274 9        50.450    20802540.340    85182978.50648
        47.100    20802540.640
  24239841.000   127381226.338 5        37.100    24239838.400    99258117.26545
        36.550    24239839.020
  24320374.260   127804460.318 5        38.750    24320372.120    99587851.52745
        36.500
  23523697.800   123617911.095 8        46.850    23523693.740    96325646.50645
        37.100    23523694.400
  19928263.780   104723774.301 8        47.850    19928258.780    81602956.71548
        47.200
  22415281.340   117793117.923 8        47.200    22415277.000    91786815.15746
        40.550
  20815325.740   109385331.805 9        49.650    20815324.040    85235357.24248
        47.350    20815324.640
  25487244.420   133936368.804 5        36.950    25487250.140   104366022.86244
        35.600    25487248.880
  25653800.540   134811640.073 7        42.550    25653801.020   105048043.90645
        36.850    25653802.140
  22309812.460   117238902.239 8        47.750    22309811.020    91354984.01647
        42.600    22309811.620
 19  9 29 21 36  0.0000000  0 11G08G10G12G14G15G20G21G24G25G27G32
  25748173.480   135307553.524 5        37.550    25748172.520   105434466.25144
        34.950    25748173.820
  20793010.280   109268035.294 9        50.600    20793008.160    85143945.80448
        47.250    20793008.460
  24223655.660   127296172.859 7        43.700    24223653.120    99191841.94144
        35.600    24223653.780
  24305554.980   127726584.881 6        40.850    24305552.800    99527169.44844
        34.100
  23540741.620   123707476.869 8        46.600    23540737.620    96395438.00445
        38.300    23540738.240
  19929652.920   104731074.173 8        47.600    19929647.920    81608644.92548
        47.200
  22429723.800   117869013.410 8        46.800    22429719.400    91845954.47146
        41.350
  20823556.060   109428582.502 9        49.700    20823554.440    85269059.08048
        46.950    20823555.000
  25468715.500   133838997.556 5        36.950    25468720.660   104290149.19144
        35.600    25468719.700
  25666899.100   134880468.828 6        41.950    25666898.720   105101676.62345
        37.550    25666899.820
  22297436.200   117173864.612 8        47.550    22297434.680    91304305.37847
        42.800    22297435.300
 19  9 29 21 36 30.0000000  0 11G08G10G12G14G15G20G21G24G25G27G32
  25754499.440   135340796.900 4        33.300    25754498.520   105460370.21143
        31.500    25754499.820
  20783537.580   109218255.938 9        50.300    20783535.480    85105156.71148
        47.400    20783535.760
  24207502.800   127211289.874 7        44.200    24207500.320    99125699.47245
        37.100    24207501.000
  24290760.500   127648839.590 6        41.000    24290758.200    99466588.76744
        34.100
  23557794.840   123797092.058 8        46.350    23557790.880    96465268.00145
        36.950    23557791.480
  19931131.960   104738846.649 8        48.050    19931126.980    81614701.39848
        47.250
  22444224.240   117945213.448 8        46.550    22444219.780    91905331.09546
        40.750
  20831890.380   109472379.755 9        50.000    20831888.820    85303186.81548
        46.350    20831889.360
  25450157.300   133741472.332 5        38.250    25450161.820   104214155.58244
        32.950    25450161.160
  25680033.160   134949485.213 5        38.800    25680032.560   105155455.55445
        37.150    25680033.400
  22285098.180   117109028.132 8        47.250    22285096.640    91253783.48247
        42.850    22285097.260
 19  9 29 21 37  0.0000000  0 11G08G10G12G14G15G20G21G24G25G27G32
  25760903.240   135374449.054 5        38.850    25760902.380   105486592.64244
        33.750    25760903.640
  20774123.960   109168787.075 9        50.300    20774121.880    85066609.56248
        47.750    20774122.140
  24191382.340   127126577.073 6        40.600    24191379.900    99059689.62745
        38.750    24191380.580
  24275990.100   127571220.730 6        40.950    24275987.620    99406106.62943
        30.650
  23574856.540   123886751.939 8        45.600    23574852.620    96535132.83745
        38.450    23574853.220
  19932700.380   104747088.794 8        47.900    19932695.440    81621123.83848
        47.600
  22458781.460   118021711.964 8        46.950    22458776.960    91964940.31546
        39.900
  20840327.760   109516718.549 9        49.600    20840326.200    85337736.54448
        45.650    20840326.740
  25431569.580   133643791.851 5        38.800    25431573.560   104138041.00944
        32.050    25431573.040
  25693201.320   135018682.412 6        39.900    25693200.680   105209375.41145
        38.700    25693201.320
  22272797.740   117044389.007 8        48.050    22272796.180    91203415.36647
        43.100    22272796.800
 19  9 29 21 37 30.0000000  0 11G08G10G12G14G15G20G21G24G25G27G32
  25767385.600   135408514.057 6        39.550    25767384.780   105513136.79444
        33.350    25767386.020
  20764770.920   109119636.531 9        50.650    20764768.840    85028310.44748
        47.150    20764769.100
  24175296.120   127042044.015 7        42.750    24175293.780    98993819.77145
        37.100    24175294.420
  24261244.980   127493734.417 6        39.900    24261242.280    99345727.72545
        36.000
  23591927.720   123976461.645 8        45.250    23591923.800    96605036.49045
        38.550    23591924.420
  19934359.420   104755807.105 8        47.800    19934354.500    81627917.33248
        46.950
  22473396.200   118098512.741 8        47.700    22473391.640    92024785.07946
        39.200
  20848868.880   109561602.564 9        49.900    20848867.300    85372711.11348
        45.600    20848867.860
  25412953.940   133545964.654 6        40.650    25412957.360   104061812.13443
        31.850    25412956.940
  25706404.180   135088063.276 5        38.300    25706403.560   105263438.41444
        35.950    25706404.140
  22260536.000   116979953.286 8        48.900    22260534.400    91153205.74047
        42.550    22260535.060
 19  9 29 21 38  0.0000000  0 11G08G10G12G14G15G20G21G24G25G27G32
  25773945.260   135442983.219 4        35.100    25773944.780   105539993.93242
        26.000    25773945.640
  20755477.640   109070800.113 9        50.500    20755475.580    84990256.10348
        47.350    20755475.840
  24159243.460   126957687.598 7        44.150    24159241.200    98928087.61644
        35.600    24159241.820
  24246523.960   127416374.935 6        39.800    24246521.020    99285447.70144
        33.200
  23609007.080   124066214.296 7        44.300    23609003.200    96674973.57346
        39.100    23609003.840
  19936108.040   104764996.263 8        47.550    19936103.140    81635077.71848
        47.300
  22488066.940   118175607.750 8        47.750    22488062.300    92084859.09845
        38.800
  20857512.180   109607023.406 9        49.950    20857510.560    85408103.98448
        46.250    20857511.120
  25394309.660   133447987.288 5        37.100    25394312.580   103985466.26443
        28.900    25394312.240
  25719640.200   135157618.739 6        40.900    25719639.700   105317637.42146
        39.950    25719640.200
  22248311.900   116915715.109 9        49.000    22248310.220    91103150.04047
        43.000    22248310.920
 19  9 29 21 38 30.0000000  0 11G08G10G12G14G15G20G21G24G25G27G32
  25780581.880   135477858.614 5        38.300    25780581.360   105567169.51544
        32.350    25780582.200
  20746245.080   109022282.669 9        50.050    20746243.000    84952450.31148
        47.250    20746243.260
  24143225.640   126873514.269 7        42.600    24143223.380    98862498.16145
        37.100    24143224.020
  24231827.720   127339145.328 6        40.950    24231824.560    99225268.80744
        33.700
  23626095.040   124156012.110 7        44.600    23626091.180    96744945.85545
        38.250    23626091.840
  19937946.920   104774659.779 8        47.550    19937942.060    81642607.73748
        47.350
  22502793.760   118252997.494 8        46.700    22502789.100    92145162.76146
        39.650
  20866257.960   109652982.620 9        49.700    20866256.320    85443916.35348
        46.300    20866256.880
  25375637.800   133349865.339 5        37.800    25375640.280   103909007.73044
        33.500    25375640.040
  25732909.380   135227348.682 6        39.850    25732908.980   105371972.39344
        35.450    25732909.440
  22236125.980   116851677.549 8        48.300    22236124.240    91053250.68247
        43.550    22236124.940
 19  9 29 21 39  0.0000000  0 11G08G10G12G14G15G20G21G24G25G27G32
  25787295.000   135513136.731 4        33.350    25787294.440   105594658.96844
        32.700    25787295.380
  20737073.320   108974084.882 9        50.250    20737071.260    84914893.60648
        47.550    20737071.520
  24127243.120   126789525.951 7        44.800    24127240.800    98797052.83344
        34.750    24127241.440
  24217155.960   127262044.564 6        40.900    24217152.540    99165190.37644
        33.550
  23643191.240   124245853.327 7        43.950    23643187.440    96814951.96746
        39.750    23643188.100
  19939876.040   104784797.428 8        47.850    19939871.180    81650507.20848
        46.850
  22517575.800   118330677.320 8        46.850    22517571.120    92205692.45746
        40.000
  20875105.580   109699477.019 9        49.550    20875103.920    85480145.76248
        45.200    20875104.460
  25356938.640   133251600.219 5        37.350    25356940.720   103832437.65041
        25.550    25356940.560
  25746211.120   135297249.183 6        40.250    25746210.620   105426440.25844
        34.950    25746211.120
  22223978.040   116787839.599 8        48.250    22223976.240    91003506.86547
        43.900    22223976.960
 19  9 29 21 39 30.0000000  0 11G08G10G12G14G15G20G21G24G25G27G32
  25794084.980   135548819.258 4        32.550    25794080.140   105622443.50843
        30.800    25794085.420
  20727963.500   108926212.531 9        50.150    20727961.420    84877590.47448
        47.700    20727961.700
  24111297.380   126705730.529 7        42.900    24111295.040    98731757.74645
        37.300    24111295.640
  24202509.520   127185076.827 6        41.950    24202505.900    99105215.57545
        36.650
  23660296.260   124335740.903 7        43.550    23660292.540    96884994.18545
        38.350    23660293.220
  19941896.180   104795413.409 8        48.050    19941891.320    81658779.39348
        47.050
  22532413.480   118408649.616 8        47.000    22532408.800    92266450.06246
        40.100
  20884055.320   109746508.123 9        49.850    20884053.600    85516793.38348
        45.300    20884054.160
  25338213.420   133153198.579 5        37.600    25338215.240   103755761.19143
        31.200    25338215.140
  25759545.460   135367321.124 6        40.250    25759544.760   105481041.72344
        33.600    25759545.360
  22211868.860   116724205.321 8        48.600    22211867.040    90953921.74647
        43.600    22211867.760
 19  9 29 21 40  0.0000000  0 11G08G10G12G14G15G20G21G24G25G27G32
  25800950.960   135584900.846 5        36.300    25800948.060   105650559.01744
        32.100    25800951.480
  20718915.260   108878663.887 9        50.400    20718913.220    84840539.58048
        47.650    20718913.480
  24095388.160   126622127.539 7        43.750    24095385.800    98666612.70945
        36.800    24095386.360
  24187887.780   127108238.796 7        42.050    24187884.000    99045341.80544
        34.900
  23677409.220   124425670.372 7        44.100    23677405.620    96955069.07346
        40.000    23677406.300
  19944006.800   104806504.781 8        47.950    19944001.940    81667422.02748
        47.150
  22547305.660   118486908.440 8        47.700    22547300.980    92327430.95346
        39.600
  20893106.080   109794070.140 9        49.650    20893104.300    85553854.70848
        45.650    20893104.860
  25319462.020   133054659.399 5        36.150    25319463.680   103678977.53344
        34.400    25319463.600
  25772911.220   135437558.120 6        39.650    25772910.320   105535771.77344
        35.100    25772911.040
  22199797.760   116660771.244 8        48.600    22199795.920    90904492.63047
        43.250    22199796.640
 19  9 29 21 40 30.0000000  0 11G08G10G12G14G15G20G21G24G25G27G32
  25807891.960   135621376.610 6        39.300    25807889.760   105678981.70044
        35.000    25807892.520
  20709928.480   108831438.124 9        50.300    20709926.440    84803740.29048
        47.900    20709926.720
  24079515.700   126538717.706 8        45.200    24079513.340    98601618.16745
        37.500    24079513.860
  24173290.160   127031527.754 7        42.200    24173286.260    98985567.04744
        33.900
  23694529.480   124515638.243 8        45.100    23694526.020    97025173.88146
        39.700    23694526.680
  19946207.480   104818069.522 8        47.950    19946202.620    81676433.51748
        47.100
  22562251.380   118565448.547 8        47.900    22562246.680    92388631.05145
        38.150
  20902257.120   109842159.012 9        49.100    20902255.260    85591326.56048
        46.050    20902255.860
  25300684.320   132955982.577 5        38.450    25300685.920   103602086.67044
        33.550    25300685.860
  25786307.180   135507954.160 6        39.550    25786306.180   105590625.76445
        37.850    25786306.960
  22187764.280   116597534.798 8        48.550    22187762.420    90855217.50247
        42.850    22187763.120
 19  9 29 21 41  0.0000000  0 11G08G10G12G14G15G20G21G24G25G27G32
  25814908.440   135658248.009 6        40.150    25814906.800   105707712.60745
        37.350    25814909.000
  20701004.040   108784539.914 9        50.500    20701002.020    84767196.23148
        48.000    20701002.300
  24063681.180   126455506.844 7        43.650    24063678.780    98536778.61645
        36.600    24063679.280
  24158717.320   126954946.994 6        41.750    24158713.300    98925893.81644
        33.800
  23711657.480   124605646.653 8        45.250    23711654.140    97095310.26846
        40.550    23711654.780
  19948498.920   104830111.084 8        48.200    19948494.040    81685816.54648
        47.350
  22577250.780   118644270.637 8        47.850    22577246.080    92450050.84345
        38.400
  20911508.420   109890774.714 9        49.750    20911506.540    85629208.89448
        46.150    20911507.140
  25281881.500   132857173.721 5        37.250    25281883.100   103525092.88444
        35.050    25281883.060
  25799733.320   135578509.223 5        36.600    25799732.300   105645603.72744
        32.850    25799733.120
  22175768.960   116534498.914 9        49.050    22175767.060    90806098.64247
        43.000    22175767.740
 19  9 29 21 41 30.0000000  0 11G08G10G12G14G15G20G21G24G25G27G32
  25821999.740   135695512.503 5        37.600    25821998.340   105736749.84144
        34.400    25822000.240
  20692142.360   108737971.490 9        50.250    20692140.340    84730909.15348
        47.950    20692140.640
  24047885.280   126372499.108 7        43.950    24047882.800    98472097.38844
        35.400    24047883.320
  24144169.380   126878496.901 6        41.950    24144165.220    98866322.35645
        36.250
  23728793.120   124695695.049 8        45.250    23728789.860    97165477.82246
        40.100    23728790.500
  19950881.260   104842630.333 8        47.500    19950876.380    81695571.80848
        47.400
  22592303.400   118723372.413 8        46.300    22592298.700    92511688.54846
        39.900
  20920859.680   109939915.949 9        49.950    20920857.760    85667500.79048
        46.050    20920858.360
  25263054.200   132758236.044 4        35.800    25263055.840   103447998.67044
        34.450    25263055.780
  25813189.280   135649220.830 5        37.950    25813188.320   105700703.64645
        36.800    25813189.100
  22163811.940   116471664.173 9        49.200    22163809.960    90757136.52947
        42.900    22163810.640
 19  9 29 21 42  0.0000000  0 11G08G10G12G14G15G20G21G24G25G27G32
  25829165.620   135733169.270 4        32.000    25829164.340   105766092.78543
        31.150    25829166.100
  20683343.940   108691735.586 9        50.250    20683341.940    84694881.18248
        47.900    20683342.240
  24032128.840   126289698.523 8        45.450    24032126.260    98407577.53744
        34.750    24032126.780
  24129646.440   126802178.447 7        42.400    24129642.160    98806853.51844
        35.650
  23745936.420   124785783.704 8        45.600    23745933.240    97235676.75046
        39.100    23745933.860
  19953354.760   104855628.748 8        47.650    19953349.880    81705700.45548
        46.950
  22607408.920   118802752.433 8        45.350    22607404.280    92573543.08846
        41.300
  20930310.780   109989581.862 9        49.300    20930308.800    85706201.53648
        46.750    20930309.440
  25244202.900   132659172.805 5        36.300    25244204.500   103370806.74544
        32.650    25244204.480
  25826674.580   135720086.778 5        36.600    25826673.720   105755923.83044
        33.350    25826674.500
  22151893.360   116409031.476 8        48.950    22151891.320    90708331.86647
        43.500    22151892.000
 19  9 29 21 42 30.0000000  0 10G10G12G14G15G20G21G24G25G27G32
  20674608.540   108645830.833 9        50.550    20674606.560    84659111.24948
        47.900    20674606.860
  24016411.820   126207105.172 7        42.350    24016409.160    98343219.18146
        39.050    24016409.680
  24115148.040   126725988.722 7        42.750    24115143.660    98747484.92445
        36.650
  23763086.620   124875908.524 8        46.000    23763083.480    97305903.84545
        38.150    23763084.100
  19955918.980   104869103.786 8        47.650    19955914.100    81716200.47248
        47.250
  22622566.340   118882405.231 8        45.950    22622561.760    92635610.17546
        40.600
  20939860.600   110039766.423 8        48.950    20939858.620    85745306.36348
        47.050    20939859.260
  25225327.760   132559983.735 5        37.300    25225329.360   103293516.58344
        32.600    25225329.420
  25840188.160   135791101.055 6        41.800    25840187.440   105811259.55046
        39.500    25840188.180
  22140012.680   116346597.827 8        48.700    22140010.580    90659682.26347
        43.250    22140011.260
 19  9 29 21 43  0.0000000  0 11G08G10G12G14G15G20G21G24G25G27G32
  25843718.200   135809651.968 5        38.600    25843719.140   105825712.76045
        36.300    25843719.540
  20665937.380   108600263.535 9        50.550    20665935.380    84623604.27448
        47.700    20665935.680
  24000735.720   126124726.992 7        43.300    24000733.020    98279028.48145
        37.350    24000733.540
  24100674.880   126649931.956 7        42.800    24100670.400    98688219.99944
        34.300
  23780244.420   124966073.350 8        46.200    23780241.320    97376162.14145
        36.650    23780241.940
  19958574.800   104883060.269 8        47.550    19958569.920    81727075.64848
        46.900
  22637776.020   118962332.762 8        46.900    22637771.540    92697891.34145
        38.850
  20949509.580   110090472.300 9        49.750    20949507.640    85784817.44248
        46.800    20949508.260
  25206429.980   132460675.825 5        36.250    25206431.460   103216133.88944
        33.300    25206431.640
  25853730.240   135862265.094 5        36.100    25853729.640   105866711.98943
        29.150    25853730.360
  22128170.720   116284367.718 8        48.000    22128168.600    90611191.30847
        44.200    22128169.260
 19  9 29 21 43 30.0000000  0 11G08G10G12G14G15G20G21G24G25G27G32
  25851105.120   135848469.504 4        35.850    25851105.480   105855960.20944
        32.800    25851106.300
  20657330.100   108555031.995 9        50.600    20657328.080    84588358.92848
        47.500    20657328.400
  23985100.520   126042563.832 8        45.000    23985097.840    98215005.29945
        36.050    23985098.380
  24086226.460   126574005.127 7        42.550    24086221.900    98629056.29245
        37.900
  23797409.040   125056273.803 8        46.050    23797405.900    97446448.20545
        36.550    23797406.540
  19961321.640   104897495.043 8        47.650    19961316.760    81738323.50948
        46.700
  22653036.800   119042528.868 8        46.300    22653032.400    92760381.78345
        38.650
  20959256.660   110141693.743 9        49.150    20959254.740    85824730.27348
        45.700    20959255.380
  25187509.380   132361248.291 4        35.650    25187510.720   103138658.03543
        31.900    25187511.000
  25867299.560   135933572.284 6        41.200    25867299.060   105922275.99046
        40.050    25867299.760
  22116366.800   116222337.720 8        47.650    22116364.720    90562856.27247
        43.550    22116365.360
 19  9 29 21 44  0.0000000  0  9G10G12G14G15G20G21G24G27G32
  20648786.600   108510135.660 9        50.850    20648784.580    84553374.78948
        47.500    20648784.900
  23969506.420   125960616.559 7        42.900    23969503.740    98151150.36545
        36.700    23969504.240
  24071802.260   126498205.779 7        42.050    24071797.700    98569991.92644
        35.900
  23814579.840   125146506.877 7        44.950    23814576.640    97516759.69144
        35.700    23814577.300
  19964159.200   104912406.605 8        47.750    19964154.320    81749942.91448
        46.650
  22668347.740   119122988.643 7        44.250    22668343.380    92823077.72346
        41.950
  20969100.960   110193425.999 8        48.450    20969099.080    85865041.11148
        45.750    20969099.720
  25880895.080   136005017.079 6        39.700    25880894.640   105977947.20845
        37.700    25880895.320
  22104600.460   116160505.565 8        47.000    22104598.460    90514675.40847
        43.950    22104599.080
 19  9 29 21 44 30.0000000  0 10G08G10G12G14G15G20G21G24G27G32
  25866098.160   135927257.313 5        36.050    25866096.580   105917354.18544
        33.850    25866098.460
  20640309.700   108465589.168 9        50.700    20640307.640    84518663.24348
        47.550    20640307.960
  23953956.340   125878901.052 7        43.700    23953953.680    98087476.06744
        34.500    23953954.180
  24057404.820   126422547.136 7        42.400    24057400.280    98511037.22145
        37.350
  23831759.120   125236784.508 7        43.950    23831755.860    97587105.89545
        37.600    23831756.540
  19967089.900   104927807.608 8        47.900    19967085.040    81761943.68248
        46.550
  22683710.860   119203722.454 8        46.200    22683706.500    92885987.18345
        38.800
  20979044.520   110245679.974 9        49.200    20979042.660    85905758.48948
        46.250    20979043.320
  25894518.700   136076609.620 6        39.700    25894518.320   106033733.53645
        36.750    25894519.020
  22092874.200   116098884.128 8        47.950    22092872.300    90466658.74547
        43.650    22092872.920
 19  9 29 21 45  0.0000000  0 10G10G12G14G15G20G21G24G25G27G32
  20631896.280   108421376.182 9        50.700    20631894.180    84484211.58248
        47.650    20631894.500
  23938447.660   125797402.846 7        43.500    23938445.000    98023971.03645
        36.150    23938445.500
  24043030.700   126347010.920 7        42.500    24043026.200    98452177.88145
        37.500
  23848943.280   125327087.710 7        44.500    23848940.000    97657471.99745
        37.500    23848940.680
  19970110.460   104943680.727 8        47.950    19970105.580    81774312.35448
        47.250
  22699122.200   119284709.582 8        47.550    22699117.880    92949093.99945
        38.300
  20989083.480   110298435.160 9        49.050    20989081.620    85946866.43648
        47.250    20989082.280
  25130614.840   132062269.207 4        32.500    25130616.260   102905673.94244
        33.400    25130618.520
  25908166.440   136148329.006 5        38.600    25908166.100   106089618.75044
        35.500    25908166.780
  22081184.620   116037455.425 8        48.350    22081182.780    90418792.26947
        42.950    22081183.420
 19  9 29 21 45 30.0000000  0 11G08G10G12G14G15G20G21G24G25G27G32
  25881378.260   136007564.626 5        37.600    25881377.780   105979989.24644
        33.350    25881378.500
  20623549.980   108377516.048 9        50.550    20623547.860    84450034.86348
        47.850    20623548.180
  23922984.300   125716142.616 7        43.100    23922981.620    97960651.42845
        37.800    23922982.100
  24028683.180   126271614.727 6        41.750    24028678.740    98393427.69745
        37.350
  23866135.460   125417433.218 7        43.700    23866132.160    97727871.08645
        38.400    23866132.860
  19973224.260   104960043.809 8        47.700    19973219.360    81787062.80948
        47.150
  22714584.700   119365965.250 8        47.250    22714580.380    93012410.02645
        38.700
  20999220.740   110351706.926 8        48.800    20999218.940    85988376.89148
        46.350    20999219.600
  25111610.220   131962400.519 5        36.300    25111611.620   102827854.28944
        32.650    25111614.080
  25921841.020   136220189.454 6        39.750    25921840.720   106145613.85745
        36.950    25921841.420
  22069535.060   115976236.955 8        48.650    22069533.240    90371089.58747
        42.850    22069533.900
 19  9 29 21 46  0.0000000  0 11G08G10G12G14G15G20G21G24G25G27G32
  25889124.940   136048276.347 6        40.050    25889125.000   106011712.66745
        37.200    25889125.800
  20615268.680   108333997.404 9        50.150    20615266.520    84416124.23948
        48.100    20615266.860
  23907564.320   125635110.519 7        43.050    23907561.640    97897509.61445
        37.300    23907562.120
  24014359.880   126196345.466 6        40.700    24014355.480    98334776.36644
        35.950
  23883333.100   125507807.376 7        43.850    23883329.840    97798292.48845
        38.300    23883330.520
  19976428.860   104976884.085 8        47.600    19976423.960    81800185.10248
        47.150
  22730095.340   119447474.029 7        44.600    22730091.000    93075923.32845
        38.950
  21009453.380   110405479.865 8        48.900    21009451.620    86030277.88448
        45.750    21009452.260
  25092585.340   131862422.560 5        37.650    25092586.540   102749949.50544
        35.200    25092588.940
  25935539.340   136292174.751 6        40.950    25935539.120   106201706.24944
        33.300    25935539.820
  22057923.060   115915215.691 8        48.400    22057921.200    90323540.55447
        43.150    22057921.900
 19  9 29 21 46 30.0000000  0 10G10G12G14G15G20G21G24G25G27G32
  20607051.880   108290817.834 9        50.350    20607049.700    84382477.82948
        47.950    20607050.040
  23892187.600   125554305.767 8        45.750    23892184.940    97834544.94445
        36.700    23892185.420
  24000059.900   126121199.048 6        41.800    24000055.540    98276220.78545
        37.300
  23900535.260   125598205.035 7        44.950    23900532.040    97868732.17345
        37.950    23900532.700
  19979723.580   104994197.822 8        47.800    19979718.660    81813676.31948
        47.000
  22745652.780   119529229.007 7        42.650    22745648.400    93139628.50746
        40.150
  21019780.120   110459747.444 9        49.600    21019778.380    86072564.32648
        46.200    21019779.020
  25073539.520   131762333.859 6        39.000    25073540.380   102671958.42844
        34.850    25073542.600
  25949260.080   136364277.737 7        42.300    25949259.900   106257890.37145
        37.250    25949260.600
  22046347.800   115854387.460 8        48.350    22046345.880    90276141.93147
        42.750    22046346.600
 19  9 29 21 47  0.0000000  0 10G10G12G14G15G20G21G24G25G27G32
  20598902.040   108247990.241 9        50.100    20598899.860    84349105.71048
        48.100    20598900.200
  23876856.860   125473742.605 7        44.450    23876854.180    97771768.57945
        37.150    23876854.640
  23985785.380   126046186.462 6        41.800    23985781.080    98217769.48144
        33.950
  23917743.860   125688636.589 7        44.900    23917740.660    97939198.29645
        37.500    23917741.300
  19983110.500   105011996.319 8        47.550    19983105.580    81827545.28548
        47.250
  22761258.660   119611238.597 7        44.400    22761254.240    93203532.08346
        40.400
  21030202.620   110514518.225 8        48.900    21030200.900    86115242.88548
        46.800    21030201.520
  25054475.220   131662148.218 6        39.350    25054475.820   102593891.78844
        33.700    25054477.860
  25963004.580   136436505.871 4        34.700    25963004.340   106314172.12244
        33.550    25963005.060
  22034811.400   115793763.405 8        48.200    22034809.420    90228902.43847
        43.650    22034810.160
 19  9 29 21 47 30.0000000  0  9G10G12G14G15G20G21G24G25G32
  20590819.060   108205514.081 9        50.350    20590816.900    84316007.41748
        47.900    20590817.260
  23861572.300   125393422.023 7        43.700    23861569.620    97709181.20545
        37.450    23861570.060
  23971536.020   125971305.982 7        42.100    23971531.760    98159421.11045
        36.200
  23934958.340   125779098.987 8        45.300    23934955.180    98009688.42145
        37.300    23934955.800
  19986589.320   105030277.671 8        47.350    19986584.400    81841790.49848
        47.000
  22776912.060   119693497.803 7        44.750    22776907.600    93267630.16446
        40.500
  21040720.120   110569788.015 8        48.200    21040718.440    86158310.24048
        46.600    21040719.040
  25035392.520   131561866.095 5        38.700    25035392.800   102515749.97643
        29.900    25035394.740
  22023313.400   115733341.252 8        47.850    22023311.360    90181820.27147
        44.250    22023312.140
 19  9 29 21 48  0.0000000  0 10G10G12G14G15G20G21G24G25G31G32
  20582804.260   108163396.123 9        50.500    20582802.080    84283188.24148
        47.700    20582802.460
  23846335.540   125313352.477 7        44.500    23846332.840    97646789.41044
        33.550    23846333.260
  23957312.680   125896562.217 7        42.750    23957308.440    98101179.25545
        37.250
  23952179.480   125869596.237 8        45.100    23952176.280    98080205.72445
        38.250    23952176.880
  19990161.040   105049047.194 8        47.600    19990156.120    81856416.10448
        46.450
  22792613.540   119776009.519 8        46.150    22792609.060    93331924.98745
        38.900
  21051333.020   110625559.237 8        48.200    21051331.380    86201768.32248
        45.350    21051331.980
  25016292.740   131461495.147 5        38.350    25016292.720   102437539.01344
        33.250    25016294.640
  25549393.780   134262971.741 6        40.600

  22011854.800   115673126.068 8        47.950    22011852.740    90134899.37647
        44.550    22011853.520
 19  9 29 21 48 30.0000000  0  9G10G12G14G15G20G21G24G25G32
  20574857.360   108121634.918 9        50.650    20574855.180    84250647.05148
        47.900    20574855.560
  23831146.460   125233533.759 7        44.850    23831143.720    97584593.09644
        33.350    23831144.180
  23943114.780   125821952.033 7        43.650    23943110.520    98043041.51845
        36.750
  23969406.580   125960124.843 8        45.800    23969403.360    98150747.43345
        36.750    23969403.960
  19993825.120   105068302.193 8        47.600    19993820.200    81871420.00248
        46.950
  22808361.960   119858767.822 8        47.050    22808357.480    93396411.92245
        37.950
  21062040.220   110681826.289 9        49.300    21062038.600    86245612.80347
        44.950    21062039.220
  24997175.840   131361034.983 5        37.750    24997175.540   102359258.55443
        31.450    24997177.540
  22000435.000   115613114.687 8        48.600    22000432.940    90088137.29247
        44.750    22000433.740
 19  9 29 21 49  0.0000000  0 10G10G12G14G15G20G21G24G25G31G32
  20566977.720   108080227.172 9        50.650    20566975.540    84218381.29048
        48.150    20566975.920
  23816004.780   125153964.003 8        45.900    23816001.940    97522590.76745
        36.600    23816002.440
  23928941.380   125747470.481 7        43.250    23928937.080    97985004.01345
        36.850
  23986638.400   126050678.395 8        46.100    23986635.120    98221308.62045
        37.550    23986635.720
  19997580.560   105088037.297 8        47.500    19997575.640    81886798.01348
        47.200
  22824155.800   119941764.807 8        45.900    22824151.320    93461084.83745
        37.600
  21072840.360   110738581.696 9        49.250    21072838.740    86289837.82548
        45.750    21072839.360
  24978041.540   131260483.334 5        37.550    24978041.040   102280906.72143
        30.050    24978043.140
  25504176.580   134025355.339 4        35.100    25504176.640   104435327.95143
        29.550    25504176.700
  21989053.020   115553302.044 9        49.050    21989051.000    90041530.06647
        44.800    21989051.760
 19  9 29 21 49 30.0000000  0 10G10G12G14G15G20G21G24G25G31G32
  20559166.560   108039179.234 9        50.400    20559164.340    84186395.90148
        48.050    20559164.740
  23800912.060   125074651.469 7        44.800    23800909.120    97460788.87845
        37.150    23800909.680
  23914793.340   125673122.221 7        43.100    23914789.000    97927070.39445
        36.050
  24003875.720   126141261.076 8        46.100    24003872.380    98291892.52545
        37.300    24003873.000
  20001428.380   105108257.783 8        47.400    20001423.440    81902554.24848
        46.950
  22839995.480   120025003.013 7        43.950    22839990.980    93525945.78846
        40.050
  21083733.860   110795827.544 8        48.850    21083732.240    86334444.97448
        45.850    21083732.880
  24958891.040   131159847.445 5        38.100    24958890.420   102202489.37242
        27.600    24958892.520
  25481571.060   133906563.102 5        36.100    25481569.340   104342758.78444
        34.700    25481570.940
  21977709.760   115493692.792 8        48.850    21977707.780    89995081.32947
        44.700    21977708.500
 19  9 29 21 50  0.0000000  0 10G10G12G14G15G20G21G24G25G31G32
  20551425.500   107998499.686 9        50.650    20551423.280    84154697.56348
        48.050    20551423.660
  23785870.180   124995606.003 7        44.700    23785867.160    97399195.09345
        36.550    23785867.720
  23900672.080   125598914.470 7        43.200    23900667.700    97869246.22045
        37.400
  24021119.760   126231878.881 8        46.500    24021116.360    98362503.78445
        36.950    24021117.000
  20005369.880   105128970.629 8        47.700    20005364.980    81918694.12648
        47.000
  22855881.720   120108485.755 7        44.400    22855877.180    93590997.28946
        40.050
  21094721.540   110853568.383 9        49.300    21094719.980    86379437.82848
        45.850    21094720.600
  24939726.440   131059137.108 5        38.750    24939725.760   102124013.91144
        34.500    24939727.880
  25458967.960   133787783.401 5        38.850    25458966.180   104250203.39045
        36.600    25458967.780
  21966406.520   115434293.771 8        48.700    21966404.560    89948796.38747
        44.400    21966405.260
 19  9 29 21 50 30.0000000  0 10G10G12G14G15G20G21G24G25G31G32
  20543751.800   107958174.002 9        50.850    20543749.540    84123274.96248
        47.950    20543749.940
  23770876.640   124916814.576 7        44.500    23770873.580    97337799.26045
        37.300    23770874.140
  23886574.320   125524830.312 7        42.600    23886569.900    97811518.38045
        37.700
  24038367.260   126322514.890 8        46.300    24038363.800    98433129.21245
        37.350    24038364.480
  20009402.000   105150159.665 8        47.650    20009397.120    81935205.06948
        47.150
  22871811.080   120192194.988 8        46.100    22871806.540    93656225.21846
        39.650
  21105799.900   110911785.671 9        49.550    21105798.320    86424801.97347
        44.900    21105798.940
  24920545.080   130958338.780 6        40.050    24920544.340   102045469.92144
        34.700    24920546.460
  25436364.540                          37.600    25436365.840
        34.950    25436361.920
  21955140.200   115375088.741 8        48.900    21955138.220    89902662.62947
        44.200    21955138.900
 19  9 29 21 51  0.0000000  0 10G10G12G14G15G20G21G24G25G31G32
  20536148.580   107918218.762 9        50.700    20536146.300    84092141.01948
        47.700    20536146.680
  23755934.860   124838295.468 7        43.800    23755931.760    97276615.68044
        35.700    23755932.300
  23872502.960   125450884.780 7        42.250    23872498.560    97753898.52645
        37.900
  24055620.940   126413183.272 8        45.550    24055617.440    98503779.86145
        36.550    24055618.120
  20013527.600   105171839.868 8        47.500    20013522.720    81952098.74348
        47.250
  22887785.840   120276142.706 8        46.200    22887781.320    93721638.98546
        39.300
  21116971.320   110970492.003 9        49.150    21116969.700    86470547.18747
        44.600    21116970.340
  24901350.280   130857469.995 5        38.850    24901349.480   101966871.05543
        31.550    24901351.580
  25413765.300   133550225.703 7        42.300    25413763.240   104065110.87844
        35.900    25413764.960
  21943913.580   115316092.513 8        48.750    21943911.600    89856691.57247
        43.350    21943912.260
 19  9 29 21 51 30.0000000  0 10G10G12G14G15G20G21G24G25G31G32
  20528615.200   107878630.625 9        50.700    20528612.900    84061293.12448
        47.700    20528613.300
  23741044.520   124760046.647 8        45.350    23741041.400    97215642.66744
        35.750    23741041.960
  23858456.980   125377072.943 7        42.850    23858452.620    97696382.87245
        36.800
  24072879.620   126503878.056 7        44.250    24072876.160    98574451.06844
        35.550    24072876.820
  20017745.820   105194006.667 8        47.950    20017740.920    81969371.56648
        47.350
  22903804.500   120360321.080 8        45.750    22903800.020    93787232.48846
        39.500
  21128234.360   111029679.623 9        49.000    21128232.700    86516667.41048
        45.550    21128233.340
  24882141.660   130756528.581 5        37.950    24882140.900   101888215.55044
        35.600    24882142.940
  25391168.720   133431484.695 6        40.000    25391163.300   103972568.67945
        36.000    25391167.820
  21932725.740   115257300.096 8        48.150    21932723.720    89810879.31647
        43.500    21932724.380
 19  9 29 21 52  0.0000000  0 10G10G12G14G15G20G21G24G25G31G32
  20521151.660   107839409.368 9        50.650    20521149.320    84030731.11048
        47.900    20521149.720
  23726205.900   124682069.504 7        44.400    23726202.740    97154881.30444
        35.900    23726203.320
  23844436.080   125303392.960 7        42.200    23844431.760    97638969.96245
        38.650
  24090142.800   126594596.690 7        44.800    24090139.400    98645140.88244
        33.850    24090140.020
  20022056.240   105216658.074 8        47.750    20022051.360    81987022.01248
        47.200
  22919866.240   120444725.678 8        45.700    22919861.780    93853002.24445
        38.000
  21139588.160   111089344.207 9        49.050    21139586.480    86563159.28648
        45.700    21139587.140
  24862919.300   130655515.206 4        34.900    24862918.620   101809503.99843
        31.500    24862920.560
  25368574.720   133312753.590 6        39.400    25368571.380   103880051.14243
        31.000    25368573.820
  21921576.300   115198709.485 8        48.400    21921574.260    89765224.30747
        43.350    21921574.940
 19  9 29 21 52 30.0000000  0 10G10G12G14G15G20G21G24G25G31G32
  20513758.720   107800559.203 9        50.550    20513756.380    84000458.27348
        48.000    20513756.780
  23711420.020   124604369.666 7        43.050    23711416.800    97094336.07845
        36.200    23711417.400
  23830440.740   125229847.333 6        41.950    23830436.440    97581661.73744
        35.300
  24107410.800   126685340.900 8        45.050    24107407.440    98715850.64144
        33.600    24107408.080
  20026459.400   105239796.781 8        47.550    20026454.540    82005052.18348
        47.250
  22935970.860   120529356.033 7        44.550    22935966.420    93918947.97145
        38.950
  21151032.800   111149486.115 8        48.900    21151031.100    86610023.11948
        45.400    21151031.760
  24843684.240   130554435.343 4        35.250    24843683.740   101730740.61543
        31.450    24843685.540
  25345984.640   133194042.100 5        38.100    25345981.520   103787548.83444
        34.250    25345983.680
  21910465.740   115140323.229 8        48.650    21910463.680    89719728.53747
        44.300    21910464.360
 19  9 29 21 53  0.0000000  0 10G10G12G14G15G20G21G24G25G31G32
  20506435.720   107762076.636 9        50.350    20506433.380    83970471.86348
        47.750    20506433.760
  23696686.500   124526945.174 8        45.800    23696683.300    97034005.39944
        35.550    23696683.900
  23816469.880   125156430.491 6        41.800    23816465.580    97524453.87945
        36.800
  24124682.520   126776104.564 8        45.050    24124679.220    98786575.56444
        32.800    24124679.840
  20030954.320   105263417.761 8        47.600    20030949.460    82023458.14748
        46.800
  22952117.060   120614204.826 8        45.450    22952112.620    93985063.90545
        37.400
  21162566.660   111210097.003 9        49.000    21162564.960    86657252.38447
        44.850    21162565.640
  24824436.040   130453286.528 4        35.550    24824435.680   101651923.52944
        35.150    24824437.380
  25323397.580   133075346.540 6        39.100    25323394.620   103695058.96344
        33.800    25323396.460
  21899393.080   115082136.090 8        48.650    21899390.980    89674387.93047
        43.650    21899391.680
 19  9 29 21 53 30.0000000  0 10G10G12G14G15G20G21G24G25G31G32
  20499183.640   107723966.730 9        50.350    20499181.320    83940775.84448
        48.250    20499181.680
  23682006.700   124449802.627 8        45.350    23682003.420    96973894.40244
        35.450    23682004.060
  23802524.220   125083146.037 6        41.550    23802519.920    97467349.17745
        37.100
  24141958.580   126866890.669 7        44.850    24141955.300    98857317.96844
        32.850    24141955.880
  20035541.780   105287524.894 8        47.700    20035536.900    82042242.91748
        46.450
  22968304.940   120699272.460 8        45.600    22968300.480    94051350.32046
        39.200
  21174189.980   111271177.978 9        49.200    21174188.260    86704847.96348
        45.600    21174188.940
  24805175.960   130352074.981 5        36.250    24805175.720   101573057.50744
        34.000    24805177.340
  25300814.560   132956672.529 6        39.750    25300811.600   103602585.88044
        32.000    25300813.360
  21888358.960   115024151.453 8        48.700    21888356.820    89629205.11447
        44.350    21888357.540
 19  9 29 21 54  0.0000000  0 10G10G12G14G15G20G21G24G25G31G32
  20492002.840   107686231.555 9        50.400    20492000.560    83911371.82248
        48.300    20492000.920
  23667381.220   124372945.516 8        46.350    23667377.820    96914005.84044
        35.750    23667378.520
  23788603.800   125009994.243 7        43.150    23788599.500    97410347.84945
        37.150
  24159238.760   126957698.605 7        43.700    24159235.460    98928077.40044
        35.800    24159236.040
  20040221.660   105312117.780 8        47.500    20040216.780    82061406.18648
        46.650
  22984533.960   120784556.438 7        44.800    22984529.500    94117805.33945
        38.500
  21185902.420   111332727.192 9        49.100    21185900.660    86752808.39848
        46.600    21185901.360
  24785904.540   130250803.852 5        37.850    24785904.320   101494145.10944
        33.750    24785905.880
  25278236.100   132838022.546 5        37.950    25278233.220   103510131.54843
        31.900    25278234.860
  21877363.440   114966369.658 8        48.900    21877361.260    89584180.34747
        44.100    21877362.000
 19  9 29 21 54 30.0000000  0 10G10G12G14G15G20G21G24G25G31G32
  20484894.120   107648875.095 9        50.400    20484891.880    83882262.90348
        48.450    20484892.220
  23652811.160   124296379.371 8        45.100    23652807.640    96854343.99045
        37.850    23652808.360
  23774709.080   124936977.314 7        42.250    23774704.760    97353451.58444
        35.850
  24176523.340   127048529.833 7        42.850    24176520.000    98998854.96644
        35.550    24176520.600
  20044994.440   105337199.058 8        47.400    20044989.560    82080950.04748
        46.700
  23000804.220   120870057.200 8        45.100    23000799.760    94184429.28746
        39.350
  21197703.860   111394744.101 8        48.900    21197702.080    86801133.26448
        46.950    21197702.780
  24766622.820   130149478.289 6        40.250    24766622.620   101415190.23644
        33.750    24766624.120
  25255663.000   132719400.961 6        39.550    25255660.280   103417699.35844
        35.750    25255661.740
  21866406.940   114908792.956 8        48.850    21866404.740    89539315.41847
        44.200    21866405.500
 19  9 29 21 55  0.0000000  0 10G10G12G14G15G20G21G24G25G31G32
  20477858.180   107611901.089 9        50.550    20477855.980    83853451.98948
        48.600    20477856.300
  23638297.480   124220109.412 7        44.350    23638293.920    96794912.92245
        37.850    23638294.620
  23760840.460   124864097.416 7        42.050    23760836.060    97296662.10044
        35.950
  24193812.620   127139385.836 7        43.200    24193809.300    99069651.84344
        35.500    24193809.900
  20049860.580   105362770.912 8        47.350    20049855.720    82100876.17348
        47.200
  23017115.520   120955773.219 8        45.900    23017111.000    94251220.92045
        37.850
  21209594.300   111457228.688 8        48.450    21209592.540    86849822.53848
        46.850    21209593.240
  24747331.680   130048103.130 6        40.800    24747331.500   101336196.72445
        36.250    24747332.940
  25233096.140   132600811.643 6        40.100    25233093.560   103325292.25644
        35.550    25233094.880
  21855489.860   114851423.400 8        48.650    21855487.640    89494611.89647
        44.650    21855488.420
 19  9 29 21 55 30.0000000  0 10G10G12G14G15G20G21G24G25G31G32
  20470894.480   107575306.640 9        50.600    20470892.300    83824936.84648
        48.400    20470892.600
  23623839.860   124144134.204 7        42.800    23623836.300    96735711.52245
        38.050    23623836.960
  23746997.040   124791350.105 7        43.050    23746992.580    97239975.96044
        33.700
  24211105.640   127230261.416 7        44.650    24211102.300    99140463.97244
        35.750    24211102.940
  20054819.220   105388828.793 8        47.800    20054814.340    82121181.01848
        46.350
  23033466.420   121041697.594 8        46.100    23033461.860    94318174.93645
        36.750
  21221572.180   111520172.991 8        48.800    21221570.440    86898870.05548
        46.250    21221571.160
  24728030.820   129946676.757 6        41.100    24728030.700   101257163.28544
        35.800    24728032.060
  25210534.920   132482252.267 6        40.600    25210532.480   103232908.53843
        31.100    25210533.640
  21844611.300   114794256.408 8        48.600    21844609.080    89450066.23147
        43.800    21844609.860
 19  9 29 21 56  0.0000000  0 10G10G12G14G15G20G21G24G25G31G32
  20464003.000   107539091.682 9        50.850    20464000.840    83796717.40248
        48.250    20464001.140
  23609438.500   124068455.080 7        44.500    23609434.940    96676740.87845
        36.150    23609435.600
  23733178.440   124718733.180 7        43.100    23733173.920    97183391.39345
        36.700
  24228401.920   127321153.989 7        44.900    24228398.580    99211289.33445
        37.100    24228399.240
  20059870.020   105415370.919 8        47.950    20059865.120    82141863.19148
        46.550
  23049856.060   121127825.842 7        43.950    23049851.420    94385287.89145
        37.900
  21233636.900   111583573.614 9        49.050    21233635.160    86948273.14648
        46.300    21233635.880
  24708720.360   129845200.106 6        40.600    24708720.300   101178090.68143
        30.350    24708721.620
  25187979.420   132363722.932 6        40.000    25187977.140   103140548.21844
        35.600    25187978.120
  21833770.980   114737290.244 9        49.050    21833768.740    89405677.04347
        43.600    21833769.540
 19  9 29 21 56 30.0000000  0 10G10G12G14G15G20G21G24G25G31G32
  20457184.780   107503261.596 9        50.900    20457182.620    83768797.85948
        47.800    20457182.900
  23595094.920   123993079.210 8        45.650    23595091.340    96618006.46745
        36.050    23595092.020
  23719385.360   124646250.446 7        43.650    23719380.820    97126911.41144
        34.950
  24245701.980   127412066.386 7        44.600    24245698.620    99282130.14745
        36.950    24245699.300
  20065013.700   105442401.163 8        48.100    20065008.780    82162925.73048
        46.100
  23066284.720   121214158.980 8        45.400    23066280.040    94452560.44445
        38.000
  21245788.600   111647431.368 9        49.200    21245786.880    86998032.44148
        45.700    21245787.620
  24689401.620   129743679.747 6        40.000    24689401.640   101098983.99145
        36.500    24689402.920
  25165430.740   132245229.347 6        39.900    25165428.640   103048215.67745
        36.750    25165429.500
  21822969.560   114680528.572 9        49.150    21822967.320    89361447.18747
        43.750    21822968.120
 19  9 29 21 57  0.0000000  0 10G10G12G14G15G20G21G24G25G31G32
  20450440.620   107467820.634 9        50.700    20450438.420    83741181.52848
        48.350    20450438.720
  23580810.060   123918012.306 7        43.250    23580806.440    96559512.89245
        36.550    23580807.140
  23705618.340   124573904.544 6        41.750    23705613.760    97070538.04245
        37.550
  24263006.240   127503000.695 8        45.400    24263002.880    99352988.01544
        35.300    24263003.560
  20070250.760   105469921.986 8        48.000    20070245.820    82184370.52348
        46.400
  23082752.460   121300697.307 8        45.900    23082747.780    94519992.83945
        37.250
  21258027.260   111711745.926 8        48.850    21258025.540    87048147.67148
        46.200    21258026.280
  24670075.580   129642121.255 5        37.200    24670075.620   101019847.64544
        34.500    24670076.900
  25142889.600   132126775.905 6        39.800    25142887.720   102955914.49244
        34.100    25142888.440
  21812207.580   114623973.970 8        48.850    21812205.320    89317378.67247
        44.550    21812206.120
 19  9 29 21 57 30.0000000  0 10G10G12G14G15G20G21G24G25G31G32
  20443770.160   107432767.151 9        50.600    20443767.980    83713867.12848
        48.300    20443768.260
  23566584.000   123843254.226 7        44.350    23566580.400    96501259.87845
        38.450    23566581.120
  23691876.760   124501692.253 7        42.200    23691872.160    97014268.76245
        38.250
  24280313.920   127593952.852 8        46.000    24280310.540    99423859.79344
        35.550    24280311.200
  20075580.500   105497929.904 8        48.250    20075575.520    82206194.87448
        46.200
  23099258.000   121387434.434 8        45.250    23099253.340    94587580.17645
        37.900
  21270351.760   111776511.637 8        48.850    21270350.020    87098614.45348
        46.100    21270350.800
  24650742.200   129540524.238 6        39.400    24650742.220   100940681.31244
        34.400    24650743.480
  25120355.980   132008361.929 6        39.300    25120354.300   102863644.03344
        35.500    25120354.920
  21801484.360   114567623.095 9        49.150    21801482.100    89273468.90947
        44.700    21801482.880
 19  9 29 21 58  0.0000000  0 10G10G12G14G15G20G21G24G25G31G32
  20437173.340   107398100.559 9        50.400    20437171.160    83686854.21248
        48.550    20437171.420
  23552416.820   123768805.668 7        43.800    23552413.200    96443248.10746
        39.200    23552413.940
  23678160.040   124429610.918 7        43.250    23678155.460    96958101.56145
        37.050
  24297624.500   127684920.130 8        45.450    24297621.080    99494743.34945
        37.950    24297621.740
  20081002.600   105526423.000 8        48.100    20080997.580    82228397.28148
        46.800
  23115800.420   121474365.254 7        44.950    23115795.760    94655318.44645
        37.600
  21282761.200   111841723.753 8        48.750    21282759.440    87149429.10948
        45.950    21282760.220
  24631401.660   129438889.264 6        40.050    24631401.640   100861485.33544
        34.100    24631402.920
  25097829.780   131889986.926 6        40.000    25097828.300   102771403.92544
        34.550    25097828.820
  21790799.460   114511473.658 9        49.000    21790797.240    89229716.12248
        45.000    21790797.960
 19  9 29 21 58 30.0000000  0 11G10G12G14G15G18G20G21G24G25G31G32
  20430651.360   107363827.507 9        50.400    20430649.220    83660147.94448
        48.150    20430649.480
  23538310.080   123694674.877 7        44.600    23538306.440    96385483.98145
        37.750    23538307.200
  23664469.240   124357665.499 7        43.050    23664464.700    96902040.21445
        38.100
  24314938.740   127775906.778 8        45.250    24314935.280    99565642.03945
        36.550    24314935.920
  24491961.560   128706125.807 5        36.550    24491957.680   100290471.32243
        31.600
  20086517.900   105555405.945 8        47.950    20086512.820    82250981.39648
        46.700
  23132380.200   121561492.418 8        45.550    23132375.560    94723209.70645
        36.600
  21295256.060   111907384.764 8        48.600    21295254.260    87200593.55448
        45.700    21295255.060
  24612055.460   129337224.234 6        39.700    24612055.400   100782265.89745
        37.850    24612056.680
  25075312.280   131771657.755 7        42.400    25075310.900   102679199.55544
        34.800    25075311.400
  21780153.880   114455530.697 9        49.100    21780151.680    89186124.22147
        44.700    21780152.360
 19  9 29 21 59  0.0000000  0 11G10G12G14G15G18G20G21G24G25G31G32
  20424204.000   107329946.520 9        50.350    20424201.860    83633747.19148
        48.400    20424202.120
  23524263.940   123620862.008 8        46.600    23524260.300    96327967.49845
        37.050    23524261.040
  23650803.680   124285852.880 7        42.950    23650799.200    96846082.38945
        38.800
  24332255.920   127866908.858 7        44.700    24332252.420    99636552.71745
        37.950    24332253.060
  24475924.760   128621853.079 5        37.750    24475919.720   100224804.26943
        28.200
  20092125.780   105584875.480 8        47.750    20092120.680    82273944.67648
        46.550
  23148996.200   121648810.032 7        43.900    23148991.560    94791249.38545
        37.800
  21307835.240   111973488.751 8        48.350    21307833.420    87252103.14248
        46.550    21307834.240
  24592703.460   129235528.974 6        39.000    24592703.400   100703022.92744
        35.800    24592704.660
  25052803.440   131653373.804 7        42.800    25052802.080   102587030.41244
        32.850    25052802.580
  21769546.980   114399791.035 8        48.900    21769544.800    89142690.74947
        44.750    21769545.440
 19  9 29 21 59 30.0000000  0 11G10G12G14G15G18G20G21G24G25G31G32
  20417832.060   107296461.883 9        50.500    20417829.960    83607655.27948
        48.300    20417830.200
  23510279.400   123547372.678 8        46.150    23510275.720    96270703.10445
        36.950    23510276.480
  23637164.000   124214176.010 7        43.750    23637159.580    96790230.31645
        37.650
  24349576.340   127957928.111 7        44.900    24349572.800    99707476.81345
        37.100    24349573.440
  24459966.640   128537993.504 5        37.150    24459962.060   100159459.19944
        34.000
  20097826.740   105614834.130 8        47.950    20097821.620    82297289.07648
        46.250
  23165648.340   121736317.681 7        44.650    23165643.680    94859437.16745
        37.100
  21320498.800   112040036.142 8        48.700    21320496.980    87303958.23348
        46.700    21320497.800
  24573346.700   129133808.947 6        40.200    24573346.660   100623760.70244
        35.900    24573347.880
  25030304.080   131535139.455 7        42.050    25030302.680   102494899.87344
        34.700    25030303.220
  21758979.240   114344257.303 8        48.650    21758977.080    89099417.74147
        44.700    21758977.720
                            4  1
RINEX FILE SPLICE; other post-header comments skipped       COMMENT
 19  9 29 22  0  0.0000000  0 11G10G12G14G15G18G20G21G24G25G31G32
  20411535.760   107263374.861 9        50.550    20411533.680    83581873.19648
        48.450    20411533.940
  23496356.920   123474209.694 7        44.550    23496353.080    96213693.09945
        36.900    23496353.880
  23623550.040   124142634.312 7        43.500    23623545.680    96734483.56945
        38.800
  24366899.940   128048964.065 8        45.400    24366896.340    99778413.89745
        37.300    24366897.000
  24444087.540   128454548.995 5        36.950    24444083.240   100094437.53343
        29.750
  20103620.700   105645281.450 8        48.200    20103615.540    82321014.24948
        46.050
  23182336.100   121824012.389 8        45.600    23182331.480    94927770.64945
        36.200
  21333246.100   112107023.582 8        48.750    21333244.320    87356156.22248
        47.000    21333245.120
  24553985.740   129032066.797 6        39.850    24553985.760   100544481.19044
        35.600    24553986.940
  25007814.580   131416956.782 7        43.350    25007813.060   102402809.62444
        33.300    25007813.640
  21748450.600   114288929.102 8        48.650    21748448.460    89056304.89047
        44.900    21748449.100
 19  9 29 22  0 30.0000000  0 11G10G12G14G15G18G20G21G24G25G31G32
  20405315.040   107230684.793 9        50.700    20405312.960    83556400.43048
        48.300    20405313.220
  23482496.680   123401373.969 8        46.700    23482492.700    96156938.07545
        36.350    23482493.560
  23609961.340   124071225.300 7        43.900    23609957.020    96678840.23945
        37.550
  24384226.160   128140013.732 7        44.900    24384222.500    99849361.66745
        36.600    24384223.200
  24428287.560   128371519.858 5        37.950    24428283.580   100029739.55943
        29.850
  20109507.180   105676215.041 8        48.350    20109501.980    82345118.34948
        46.500
  23199058.540   121911889.286 7        44.600    23199053.900    94996246.13645
        37.500
  21346076.220   112174446.381 8        48.950    21346074.500    87408693.46648
        45.850    21346075.280
  24534620.620   128930303.037 6        40.200    24534620.700   100465184.88945
        37.750    24534621.840
  24985334.740   131298824.930 7        42.500    24985333.080   102310758.98643
        29.950    24985333.720
  21737960.620   114233804.098 9        49.150    21737958.480    89013350.37648
        45.000    21737959.160
 19  9 29 22  1  0.0000000  0 11G10G12G14G15G18G20G21G24G25G31G32
  20399170.240   107198393.791 9        50.650    20399168.180    83531238.62248
        48.300    20399168.420
  23468699.440   123328868.986 8        47.650    23468695.340    96100440.74145
        36.500    23468696.220
  23596397.980   123999949.441 7        43.500    23596393.680    96623300.65645
        37.850
  24401554.760   128231076.232 7        43.800    24401551.060    99920319.44045
        37.350    24401551.800
  24412567.260   128288909.108 5        36.400    24412563.420    99965367.60542
        27.800
  20115486.280   105707635.331 8        48.000    20115481.060    82369601.69748
        46.200
  23215815.220   121999946.205 8        45.350    23215810.600    95064861.90745
        36.900
  21358988.720   112242301.964 9        49.350    21358987.020    87461567.94848
        45.300    21358987.780
  24515252.060   128828521.193 6        41.700    24515252.160   100385874.53544
        33.700    24515253.260
  24962865.180   131180746.997 6        41.600    24962863.380   102218750.33044
        33.650    24962864.100
  21727509.420   114178882.802 9        49.050    21727507.300    88970554.57247
        44.650    21727507.980
 19  9 29 22  1 30.0000000  0 11G10G12G14G15G18G20G21G24G25G31G32
  20393102.300   107166506.593 9        50.600    20393100.240    83506391.46948
        48.400    20393100.460
  23454966.360   123256701.051 7        44.350    23454962.120    96044206.06045
        36.250    23454963.020
  23582860.540   123928809.761 7        43.000    23582856.280    96567867.15845
        37.550
  24418886.320   128322154.502 7        43.050    24418882.640    99991289.52345
        37.500    24418883.400
  24396927.720   128206722.681 5        36.000    24396923.960    99901326.27143
        31.800
  20121558.560   105739545.218 8        48.200    20121553.320    82394466.53748
        46.050
  23232606.280   122088183.474 8        46.200    23232601.680    95133618.15544
        35.800
  21371983.740   112310591.249 9        49.450    21371982.060    87514780.39348
        45.550    21371982.800
  24495881.240   128726727.254 6        41.000    24495881.360   100306554.72644
        35.600    24495882.400
  24940406.920   131062728.517 6        40.250    24940405.000   102126788.02145
        36.250    24940405.780
  21717097.560   114124168.303 8        48.700    21717095.420    88927919.91247
        44.850    21717096.140
 19  9 29 22  2  0.0000000  0 11G10G12G14G15G18G20G21G24G25G31G32
  20387111.100   107135022.551 9        50.600    20387109.060    83481858.46048
        48.300    20387109.260
  23441297.520   123184870.959 8        46.800    23441293.180    95988234.66445
        36.800    23441294.080
  23569348.520   123857803.654 7        42.850    23569344.280    96512537.74445
        38.150
  24436220.340   128413245.654 7        44.400    24436216.700   100062269.63045
        37.900    24436217.500
  24381368.900   128124960.546 5        36.850    24381365.140    99837615.53743
        31.000
  20127723.540   105771942.333 8        47.700    20127718.280    82419711.03648
        46.400
  23249430.640   122176595.959 7        44.200    23249426.060    95202510.98645
        36.200
  21385060.280   112379308.907 9        49.350    21385058.600    87568326.63248
        45.650    21385059.320
  24476508.300   128624921.970 6        39.550    24476508.420   100227226.04545
        36.400    24476509.420
  24917959.840   130944769.080 6        40.700    24917957.840   102034871.77544
        34.700    24917958.680
  21706724.620   114069658.309 8        48.300    21706722.460    88885444.59847
        44.700    21706723.200
 19  9 29 22  2 30.0000000  0 11G10G12G14G15G18G20G21G24G25G31G32
  20381197.320   107103945.311 9        50.700    20381195.260    83457642.43148
        47.950    20381195.460
  23427693.980   123113383.926 8        47.050    23427689.600    95932530.50545
        36.900    23427690.520
  23555862.340   123786933.549 7        42.550    23555858.160    96457314.31845
        37.700
  24453557.100   128504351.045 7        44.050    24453553.520   100133260.81745
        37.200    24453554.300
  24365891.620   128043627.382 5        37.750    24365887.900    99774239.11743
        29.000
  20133981.580   105804828.568 8        47.500    20133976.320    82445336.67048
        46.350
  23266288.260   122265183.145 8        45.900    23266283.660    95271539.95845
        36.650
  21398218.420   112448455.229 9        49.350    21398216.720    87622206.87248
        45.050    21398217.440
  24457134.160   128523110.248 6        40.850    24457134.240   100147892.33844
        34.700    24457135.200
  24895524.780   130826872.454 6        40.800    24895522.720   101943004.39945
        36.050    24895523.580
  21696390.960   114015354.851 8        48.250    21696388.820    88843130.21247
        44.200    21696389.580
 19  9 29 22  3  0.0000000  0 11G10G12G14G15G18G20G21G24G25G31G32
  20375361.240   107073276.478 9        50.700    20375359.160    83433744.64348
        48.450    20375359.360
  23414156.280   123042242.983 7        43.950    23414151.860    95877096.07545
        38.500    23414152.780
  23542401.980   123716199.177 7        43.700    23542397.840    96402196.67045
        37.100
  24470896.460   128595469.889 7        43.700    24470892.920   100204262.47745
        36.800    24470893.700
  24350496.560   127962725.990 5        38.900    24350492.920    99711199.07345
        36.050
  20140332.580   105838203.401 8        47.400    20140327.360    82471343.03548
        47.150
  23283178.600   122353942.323 7        44.700    23283174.020    95340702.92445
        37.700
  21411457.460   112518026.914 9        49.500    21411455.760    87676418.58947
        44.550    21411456.480
  24437759.300   128421295.110 6        40.800    24437759.320   100068556.01345
        36.700    24437760.280
  24873102.000   130709040.869 6        40.750    24873099.920   101851187.78544
        35.950    24873100.800
  21686096.600   113961257.918 8        48.450    21686094.460    88800976.76748
        45.350    21686095.240
 19  9 29 22  3 30.0000000  0 11G10G12G14G15G18G20G21G24G25G31G32
  20369602.520   107043014.245 9        50.900    20369600.460    83410163.69448
        48.550    20369600.640
  23400684.400   122971448.017 7        44.700    23400680.020    95821931.19145
        36.900    23400680.900
  23528966.780   123645597.042 7        43.750    23528962.660    96347182.06545
        37.150
  24488237.620   128686598.261 7        43.250    24488234.120   100275271.57745
        37.550    24488234.880
  24335183.360   127882254.981 5        38.900    24335179.820    99648494.42944
        33.900
  20146775.900   105872063.352 8        47.700    20146770.720    82497727.41748
        46.650
  23300100.520   122442867.379 7        43.200    23300095.940    95409995.16546
        39.550
  21424776.340   112588018.159 9        49.700    21424774.600    87730957.24447
        44.200    21424775.320
  24418383.760   128319476.191 6        40.750    24418383.700    99989216.71445
        38.050    24418384.660
  24850691.440   130591273.131 6        41.550    24850689.380   101759420.83344
        34.800    24850690.280
  21675840.860   113907364.019 8        48.350    21675838.740    88758981.55348
        45.550    21675839.540
 19  9 29 22  4  0.0000000  0 11G10G12G14G15G18G20G21G24G25G31G32
  20363922.040   107013163.071 9        50.800    20363919.960    83386903.03948
        48.400    20363920.160
  23387279.440   122901004.889 8        46.700    23387275.060    95767040.48544
        35.300    23387275.960
  23515557.320   123575129.915 7        43.050    23515553.180    96292272.64645
        37.850
  24505581.020   128777738.598 7        42.650    24505577.560   100346290.03245
        36.350    24505578.300
  24319953.220   127802220.291 5        37.300    24319949.760    99586129.77743
        31.800
  20153312.040   105906411.139 8        47.900    20153306.920    82524491.92248
        46.250
  23317054.000   122531958.294 7        43.550    23317049.480    95479416.61245
        38.500
  21438174.980   112658428.371 9        49.150    21438173.180    87785822.35947
        44.700    21438173.900
  24399008.520   128217659.264 6        40.300    24399008.400    99909878.99944
        35.650    24399009.380
  24828293.920   130473574.026 6        39.900    24828291.880   101667707.39445
        38.450    24828292.780
  21665624.320   113853676.099 8        48.750    21665622.240    88717146.82948
        45.900    21665623.040
 19  9 29 22  4 30.0000000  0 11G10G12G14G15G18G20G21G24G25G31G32
  20358320.320   106983725.883 9        50.650    20358318.260    83363964.97948
        48.100    20358318.440
  23373942.200   122830917.714 8        45.050    23373937.760    95712427.19445
        36.250    23373938.700
  23502173.820   123504799.494 7        43.150    23502169.640    96237469.79945
        36.200
  24522926.800   128868891.332 7        42.700    24522923.380   100417318.11144
        35.700    24522924.120
  24304806.700   127722625.180 5        37.000    24304803.260    99524107.69744
        33.950
  20159941.160   105941247.549 8        47.600    20159936.060    82551637.18948
        46.250
  23334038.780   122621213.813 7        44.350    23334034.280    95548966.35145
        37.550
  21451653.200   112729256.898 8        48.950    21451651.360    87841013.43147
        44.200    21451652.100
  24379634.560   128115848.719 5        38.150    24379634.400    99830546.18745
        36.450    24379635.380
  24805910.140   130355947.028 6        41.650    24805908.140   101576050.10345
        36.000    24805909.020
  21655447.280   113800195.435 9        49.300    21655445.220    88675473.59848
        45.750    21655446.020
 19  9 29 22  5  0.0000000  0 11G10G12G14G15G18G20G21G24G25G31G32
  20352796.920   106954700.199 9        50.600    20352794.860    83341347.55948
        48.250    20352795.040
  23360672.520   122761185.579 8        46.150    23360668.020    95658090.57045
        36.550    23360668.980
  23488815.440   123434601.086 7        43.650    23488811.260    96182769.80445
        37.550
  24540274.000   128960051.777 7        43.400    24540270.620   100488352.19844
        35.450    24540271.360
  24289743.600   127643468.316 5        36.650    24289740.220    99462427.04144
        33.150
  20166662.520   105976568.605 8        47.400    20166657.460    82579160.09048
        46.600
  23351053.580   122710627.015 8        45.800    23351049.080    95618638.94444
        35.300
  21465209.740   112800497.013 8        48.950    21465207.900    87896525.20947
        44.800    21465208.620
  24360261.480   128014043.335 6        40.200    24360261.340    99751217.46745
        36.600    24360262.320
  24783539.740   130238390.447 6        41.000    24783537.760   101484447.68545
        36.650    24783538.660
  21645308.920   113746917.994 9        49.400    21645306.880    88633958.71948
        45.800    21645307.680
 19  9 29 22  5 30.0000000  0 11G10G12G14G15G18G20G21G24G25G31G32
  20347352.380   106926089.091 9        50.400    20347350.340    83319053.19548
        48.000    20347350.520
  23347471.420   122691813.344 8        47.200    23347466.880    95604034.28145
        37.450    23347467.860
  23475482.520   123364536.244 7        44.000    23475478.320    96128173.86245
        37.100
  24557622.940   129051221.062 7        44.000    24557619.500   100559393.18144
        33.150    24557620.300
  24274764.640   127564753.710 5        37.750    24274761.260    99401091.02844
        33.350
  20173476.280   106012375.366 8        47.650    20173471.260    82607061.46648
        46.150
  23368098.220   122800196.853 8        45.100    23368093.700    95688433.54844
        35.800
  21478844.400   112872147.537 8        48.900    21478842.540    87952356.78647
        44.850    21478843.260
  24340890.280   127912247.809 5        36.350    24340890.200    99671896.39945
        36.250    24340891.160
  24761183.420   130120907.778 6        40.650    24761181.440   101392902.84945
        36.100    24761182.340
  21635209.520   113693845.196 9        49.300    21635207.500    88592603.31148
        45.900    21635208.280
 19  9 29 22  6  0.0000000  0 11G10G12G14G15G18G20G21G24G25G31G32
  20341987.520   106897896.779 9        50.350    20341985.500    83297085.17448
        48.050    20341985.680
  23334339.820   122622806.551 8        45.250    23334335.200    95550262.85145
        37.000    23334336.200
  23462175.520   123294607.808 7        43.600    23462171.320    96073684.23345
        37.500
  24574973.920   129142401.193 7        42.800    24574970.400   100630442.61545
        36.700    24574971.260
  24259870.820   127486486.354 6        39.700    24259867.400    99340103.50743
        30.550
  20180382.980   106048670.388 8        47.700    20180378.000    82635343.29548
        46.200
  23385172.560   122889923.068 7        43.800    23385168.000    95758350.08344
        35.750
  21492557.080   112944208.262 8        48.400    21492555.220    88008508.01748
        45.100    21492555.940
  24321522.040   127810467.859 5        37.600    24321522.040    99592587.46645
        37.350    24321523.000
  24738842.040   130003503.657 6        40.750    24738840.020   101301419.20644
        33.100    24738840.960
  21625149.560   113640979.742 9        49.000    21625147.580    88551409.46548
        45.700    21625148.340
 19  9 29 22  6 30.0000000  0 11G10G12G14G15G18G20G21G24G25G31G32
  20336702.560   106870124.300 9        50.450    20336700.580    83275444.28148
        48.000    20336700.760
  23321278.200   122554167.703 8        45.650    23321273.540    95496778.15345
        38.250    23321274.540
  23448894.340   123224814.841 7        43.050    23448890.140    96019300.14245
        38.750
  24592326.760   129233590.909 7        43.100    24592323.180   100701499.53744
        35.750    24592324.080
  24245062.600   127408668.441 6        40.050    24245059.160    99279466.09843
        31.050
  20187382.340   106085452.396 8        47.650    20187377.400    82664004.59248
        46.500
  23402276.020   122979802.225 7        43.800    23402271.400    95828385.76245
        36.350
  21506347.260   113016676.158 8        48.050    21506345.400    88064976.50347
        44.700    21506346.120
  24302157.160   127708705.661 5        37.150    24302157.260    99513292.37945
        36.900    24302158.180
  24716515.800   129886179.640 6        40.950    24716513.740   101209998.08344
        35.350    24716514.720
  21615128.960   113588321.042 8        48.750    21615126.980    88510376.73048
        45.100    21615127.740
 19  9 29 22  7  0.0000000  0 11G10G12G14G15G18G20G21G24G25G31G32
  20331497.440   106842771.473 9        50.500    20331495.500    83254130.40248
        48.050    20331495.680
  23308286.900   122485898.148 8        46.550    23308282.300    95443581.12745
        37.400    23308283.260
  23435638.560   123155155.644 7        42.550    23435634.440    95965020.28745
        38.150
  24609681.000   129324788.029 7        42.950    24609677.440   100772562.23844
        34.900    24609678.300
  24230339.920   127331300.488 6        40.050    24230336.440    99219179.45143
        31.100
  20194474.020   106122719.571 8        47.950    20194469.140    82693043.94748
        46.100
  23419407.800   123069830.143 7        43.250    23419403.160    95898537.32845
        37.650
  21520214.100   113089546.833 8        48.300    21520212.200    88121758.83947
        44.550    21520212.940
  24282796.000   127606962.822 6        39.300    24282796.180    99434012.32745
        37.500    24282797.080
  24694205.020   129768936.289 6        41.100    24694202.900   101118639.71344
        35.100    24694203.940
  21605147.340   113535867.395 9        49.100    21605145.400    88469503.76347
        44.650    21605146.160
 19  9 29 22  7 30.0000000  0 11G10G12G14G15G18G20G21G24G25G31G32
  20326372.520   106815840.065 9        50.600    20326370.620    83233144.89448
        47.750    20326370.800
  23295366.560   122418000.998 7        43.600    23295362.020    95390674.21845
        38.450    23295362.900
  23422408.260   123085630.416 7        42.400    23422404.220    95910844.83345
        38.600
  24627036.520   129415991.832 7        43.450    24627033.020   100843630.13245
        36.500    24627033.820
  24215703.400   127254385.101 5        38.850    24215699.880    99159245.44444
        33.350
  20201658.040   106160471.827 8        47.750    20201653.160    82722461.28348
        46.050
  23436567.400   123160004.454 7        43.250    23436562.760    95968803.02045
        38.450
  21534157.060   113162817.640 8        48.350    21534155.160    88178852.96947
        43.900    21534155.920
  24263439.120   127505242.480 6        40.900    24263439.360    99354749.82545
        37.350    24263440.280
  24671909.980   129651775.722 7        42.750    24671907.760   101027345.91944
        35.000    24671908.860
  21595204.780   113483618.977 9        49.100    21595202.820    88428790.72047
        43.900    21595203.580
 19  9 29 22  8  0.0000000  0 11G10G12G14G15G18G20G21G24G25G31G32
  20321328.440   106789333.448 9        50.700    20321326.560    83212490.39748
        47.950    20321326.740
  23282517.800   122350481.118 8        45.000    23282513.340    95338061.44145
        37.350    23282514.200
  23409203.780   123016240.778 7        42.550    23409199.840    95856775.00845
        37.550
  24644393.620   129507203.834 7        43.900    24644390.220   100914704.36244
        34.600    24644390.960
  24201153.800   127177926.542 5        38.350    24201150.260    99099667.41044
        33.000
  20208934.640   106198710.671 8        47.600    20208929.800    82752257.77748
        46.100
  23453754.720   123250324.197 7        43.250    23453750.060    96039182.01545
        38.100
  21548176.060   113236487.998 8        48.200    21548174.140    88236258.45147
        43.700    21548174.900
  24244087.500   127403549.587 6        41.550    24244087.760    99275508.71445
        36.250    24244088.660
  24649631.500   129534702.056 7        43.100    24649629.200   100936119.81644
        34.950    24649630.340
  21585301.640   113431577.651 9        49.000    21585299.640    88388239.05247
        44.350    21585300.400
 19  9 29 22  8 30.0000000  0 11G10G12G14G15G18G20G21G24G25G31G32
  20316365.140   106763251.199 9        50.800    20316363.260    83192166.57948
        48.350    20316363.440
  23269741.160   122283339.931 8        47.550    23269736.740    95285743.70945
        36.300    23269737.600
  23396024.740   122946985.057 7        43.150    23396020.840    95802809.57345
        38.650
  24661751.880   129598421.796 7        43.750    24661748.480   100985783.27344
        34.500    24661749.180
  24186691.180   127101925.271 6        39.350    24186687.640    99040445.73744
        32.200
  20216303.380   106237433.755 8        47.650    20216298.540    82782431.62148
        45.900
  23470968.760   123340784.409 7        43.700    23470964.120    96109670.46345
        36.250
  21562270.160   113310552.970 8        47.950    21562268.200    88293971.43247
        44.250    21562268.980
  24224741.320   127301885.238 5        38.600    24224741.600    99196289.83745
        36.250    24224742.500
  24627369.640   129417715.633 6        41.800    24627367.260   100844961.71644
        35.100    24627368.420
  21575437.520   113379741.537 8        48.850    21575435.500    88347847.29148
        45.400    21575436.260
 19  9 29 22  9  0.0000000  0 11G10G12G14G15G18G20G21G24G25G31G32
  20311483.680   106737598.867 9        50.950    20311481.760    83172177.75948
        48.400    20311481.960
  23257037.900   122216584.054 8        45.650    23257033.460    95233726.16745
        37.350    23257034.360
  23382871.880   122877866.669 7        42.900    23382868.000    95748951.11545
        37.200
  24679111.820   129689648.700 7        42.650    24679108.400   101056869.18844
        35.600    24679109.080
  24172316.880   127026387.967 6        40.400    24172313.400    98981585.52044
        32.450
  20223764.920   106276644.450 8        47.750    20223760.080    82812985.40748
        45.800
  23488209.780   123431386.134 7        43.800    23488205.160    96180269.16345
        36.300
  21576439.560   113385013.672 8        47.550    21576437.580    88351992.76447
        44.850    21576438.360
  24205401.900   127200256.362 4        33.800    24205402.200    99117098.58744
        33.250    24205403.060
  24605125.400   129300821.891 6        41.850    24605122.940   100753875.88044
        34.850    24605124.100
  21565613.180   113328114.447 9        49.150    21565611.140    88307618.40648
        45.200    21565611.920
 19  9 29 22  9 30.0000000  0 11G10G12G14G15G18G20G21G24G25G31G32
  20306684.380   106712378.254 9        50.800    20306682.460    83152525.33848
        48.000    20306682.640
  23244408.580   122150216.837 7        44.500    23244404.100    95182011.50845
        37.250    23244405.020
  23369745.260   122808886.157 7        42.700    23369741.380    95695200.11445
        37.800
  24696473.360   129780884.334 7        42.900    24696469.880   101127961.92344
        35.800    24696470.580
  24158031.360   126951316.958 6        40.850    24158027.940    98923088.60443
        31.700
  20231319.260   106316342.827 8        48.350    20231314.420    82843919.20748
        45.600
  23505477.300   123522127.398 7        42.550    23505472.700    96250976.63145
        37.650
  21590683.920   113459868.313 8        47.600    21590681.940    88410321.05447
        44.650    21590682.720
  24186069.860   127098666.418 6        39.100    24186070.160    99037937.70544
        35.450    24186071.020
  24582899.440   129184023.872 7        43.550    24582896.920   100662864.57444
        34.200    24582898.080
  21555828.700   113276696.787 9        49.600    21555826.640    88267552.71348
        45.350    21555827.420
 19  9 29 22 10  0.0000000  0 11G10G12G14G15G18G20G21G24G25G31G32
  20301965.880   106687582.193 9        50.850    20301963.920    83133203.73248
        47.750    20301964.100
  23231852.140   122084232.633 8        46.650    23231847.660    95130595.29645
        38.150    23231848.600
  23356643.200   122740034.640 7        44.200    23356639.320    95641549.61245
        36.850
  24713834.800   129872119.535 7        44.000    24713831.240   101199054.31744
        33.500    24713831.980
  24143833.340   126876705.951 6        40.900    24143829.980    98864950.16143
        31.350
  20238964.640   106356519.502 8        48.300    20238959.780    82875225.70148
        45.800
  23522769.180   123612996.739 6        41.550    23522764.580    96321783.87745
        38.200
  21605001.000   113535105.150 8        47.550    21604999.060    88468947.15047
        44.550    21604999.820
  24166744.120   126997109.768 7        42.300    24166744.360    98958802.82744
        33.150    24166745.240
  24560690.420   129067314.926 7        43.100    24560687.840   100571922.66744
        33.700    24560689.000
  21546082.440   113225479.858 9        49.650    21546080.380    88227643.42848
        45.800    21546081.160
 19  9 29 22 10 30.0000000  0 11G10G12G14G15G18G20G21G24G25G31G32
  20297329.840   106663219.631 9        50.600    20297327.880    83114219.92748
        48.050    20297328.060
  23219370.600   122018641.926 8        45.850    23219366.180    95079485.70445
        38.100    23219367.060
  23343567.100   122671319.549 7        43.650    23343563.240    95588005.42245
        38.800
  24731197.540   129963361.261 8        45.200    24731193.900   101270151.74444
        33.200    24731194.680
  24129724.760   126802564.879 6        39.400    24129721.460    98807177.91344
        32.850
  20246702.460   106397181.799 8        48.350    20246697.560    82906910.59448
        45.450
  23540086.280   123703998.616 7        43.550    23540081.660    96392694.39244
        34.000
  21619391.680   113610728.731 8        47.500    21619389.760    88527874.61447
        44.950    21619390.520
  24147426.840   126895597.021 6        39.850    24147427.020    98879702.04644
        35.300    24147427.920
  24538500.160   128950704.599 7        42.650    24538497.500   100481057.63244
        33.050    24538498.640
  21536375.820   113174471.173 9        49.900    21536373.760    88187896.41948
        45.100    21536374.540
 19  9 29 22 11  0.0000000  0 11G10G12G14G15G18G20G21G24G25G31G32
  20292776.240   106639290.304 9        50.550    20292774.280    83095573.70448
        48.150    20292774.460
  23206964.060   121953445.628 7        44.450    23206959.680    95028683.48245
        37.500    23206960.540
  23330516.620   122602738.921 7        42.750    23330512.760    95534565.99945
        38.700
  24748561.140   130054607.169 7        43.650    24748557.380   101341252.42145
        36.200    24748558.220
  24115705.680   126728894.381 5        38.550    24115702.440    98749772.37844
        35.500
  20254532.220   106438327.361 8        47.850    20254527.300    82938972.07648
        46.200
  23557427.740   123795128.533 7        44.350    23557423.040    96463704.70444
        35.850
  21633855.060   113686734.529 8        47.450    21633853.180    88587099.91348
        45.100    21633853.940
  24128118.160   126794129.472 6        41.150    24128118.240    98800636.53245
        36.000    24128119.140
  24516328.680   128834192.866 7        43.650    24516325.900   100390269.42744
        32.950    24516327.020
  21526708.460   113123668.827 9        49.550    21526706.400    88148310.21748
        45.550    21526707.160
 19  9 29 22 11 30.0000000  0 11G10G12G14G15G18G20G21G24G25G31G32
  20288305.880   106615798.385 9        50.400    20288303.940    83077268.31748
        48.600    20288304.100
  23194633.720   121888649.745 8        46.650    23194629.420    94978193.22845
        38.150    23194630.260
  23317492.240   122534295.621 7        43.800    23317488.400    95481233.60245
        37.950
  24765925.880   130145859.375 7        42.600    24765922.080   101412358.02445
        38.000    24765922.940
  24101777.060   126655699.404 5        38.850    24101773.880    98692737.38844
        35.250
  20262454.400   106479958.553 8        47.700    20262449.460    82971411.96348
        46.050
  23574793.600   123886386.614 7        43.050    23574788.820    96534814.87945
        36.350
  21648391.300   113763123.046 8        47.900    21648389.440    88646623.41948
        45.350    21648390.220
  24108819.160   126692712.908 6        41.800    24108819.120    98721610.80245
        38.550    24108820.040
  24494176.940   128717784.831 7        43.950    24494174.040   100299561.97843
        31.650    24494175.180
  21517080.900   113073075.584 9        49.100    21517078.820    88108886.95348
        45.450    21517079.580
 19  9 29 22 12  0.0000000  0 11G10G12G14G15G18G20G21G24G25G31G32
  20283918.060   106592740.306 9        50.400    20283916.160    83059300.98748
        48.650    20283916.300
  23182379.200   121824251.926 8        46.600    23182374.920    94928013.12245
        37.050    23182375.740
  23304492.960   122465984.036 7        43.900    23304489.120    95428003.80345
        38.800
  24783290.740   130237112.338 7        44.050    24783287.040   101483464.21345
        38.800    24783287.860
  24087938.400   126582976.984 6        40.150    24087935.240    98636070.61444
        35.450
  20270467.840   106522069.543 8        47.850    20270462.920    83004225.71548
        46.000
  23592182.340   123977764.999 6        40.800    23592177.480    96606018.79746
        39.250
  21662998.800   113839886.179 8        48.600    21662997.000    88706438.85147
        44.900    21662997.760
  24089529.520   126591345.341 6        40.050    24089529.360    98642623.21745
        37.900    24089530.280
  24472044.340   128601477.404 7        44.350    24472041.300   100208932.96544
        33.650    24472042.440
  21507492.140   113022686.426 8        48.600    21507490.080    88069622.71148
        45.750    21507490.840
 19  9 29 22 12 30.0000000  0 11G10G12G14G15G18G20G21G24G25G31G32
  20279614.020   106570122.515 9        50.400    20279612.120    83041676.74348
        48.000    20279612.280
  23170201.960   121760260.269 7        44.550    23170197.680    94878149.54445
        37.750    23170198.480
  23291519.760   122397809.562 7        44.050    23291515.880    95374880.86545
        38.050
  24800656.600   130328370.428 8        45.200    24800653.020   101554574.36145
        37.100    24800653.800
  24074191.120   126510734.679 7        42.050    24074187.980    98579777.92744
        32.800
  20278573.500   106564665.077 8        48.300    20278568.560    83037417.04848
        45.200
  23609594.400   124069265.866 6        41.800    23609589.540    96677318.09045
        36.750
  21677678.100   113917026.403 8        48.950    21677676.280    88766548.12947
        44.350    21677677.040
  24070250.840   126490034.960 5        38.850    24070250.640    98563680.09545
        37.750    24070251.520
  24449932.280   128485277.553 7        42.950    24449929.120   100118387.68844
        34.900    24449930.260
  21497943.120   112972506.323 8        48.900    21497941.100    88030521.34347
        44.950    21497941.860
 19  9 29 22 13  0.0000000  0 11G10G12G14G15G18G20G21G24G25G31G32
  20275393.840   106547945.480 9        50.700    20275391.940    83024395.93848
        48.000    20275392.100
  23158102.300   121696676.734 8        45.450    23158098.020    94828604.01045
        37.900    23158098.840
  23278572.460   122329771.031 7        44.550    23278568.540    95321863.85145
        37.700
  24818023.120   130419631.983 7        44.300    24818019.640   101625687.24345
        37.250    24818020.380
  24060535.460   126438973.791 7        42.350    24060532.340    98523860.36644
        33.350
  20286771.020   106607743.354 8        47.950    20286766.060    83070984.53648
        45.750
  23627029.040   124160885.657 7        42.950    23627024.200    96748710.08145
        36.250
  21692428.460   113994539.866 8        48.750    21692426.620    88826948.22847
        44.400    21692427.360
  24050983.380   126388783.785 6        41.950    24050983.100    98484783.20345
        38.100    24050983.940
  24427840.900   128369186.730 6        41.150    24427837.640   100027927.45445
        37.550    24427838.740
  21488433.720   112922534.291 9        49.350    21488431.700    87991582.10747
        44.350    21488432.460
 19  9 29 22 13 30.0000000  0 11G10G12G14G15G18G20G21G24G25G31G32
  20271257.500   106526208.817 9        50.800    20271255.580    83007458.28748
        48.250    20271255.760
  23146080.580   121633502.295 8        46.150    23146076.300    94779377.18145
        38.650    23146077.120
  23265650.580   122261866.193 7        44.350    23265646.600    95268951.04145
        37.900
  24835389.860   130510894.757 7        44.850    24835386.420   101696801.05845
        36.700    24835387.160
  24046971.500   126367694.634 7        42.550    24046968.340    98468318.18343
        29.800
  20295060.000   106651302.248 8        48.550    20295055.020    83104926.53848
        45.750
  23644485.340   124252619.413 6        41.850    23644480.480    96820190.93145
        36.800
  21707249.000   114072422.103 8        48.300    21707247.120    88887635.68547
        44.550    21707247.860
  24031727.360   126287593.135 6        41.450    24031727.020    98405933.53044
        35.500    24031727.840
  24405770.260   128253205.010 7        44.700    24405766.940    99937552.25044
        34.100    24405767.980
  21478963.560   112872768.472 9        49.650    21478961.520    87952803.55947
        44.550    21478962.300
 19  9 29 22 14  0.0000000  0 11G10G12G14G15G18G20G21G24G25G31G32
  20267205.860   106504917.186 9        50.900    20267203.900    82990867.40648
        48.150    20267204.080
  23134137.860   121570743.012 8        46.250    23134133.600    94730473.87046
        40.050    23134134.420
  23252754.800   122194098.354 7        44.550    23252750.760    95216144.96345
        38.250
  24852757.380   130602161.551 7        44.750    24852753.900   101767918.04944
        35.300    24852754.660
  24033500.280   126296902.880 6        41.600    24033497.080    98413155.79344
        33.200
  20303440.920   106695344.322 8        48.850    20303435.960    83139245.03948
        45.650
  23661963.540   124344467.956 7        43.050    23661958.660    96891761.17045
        36.650
  21722139.760   114150673.412 8        48.600    21722137.860    88948610.72547
        44.650    21722138.600
  24012484.180   126186469.486 5        37.350    24012483.860    98327135.89245
        36.250    24012484.640
  24383721.540   128137338.057 7        44.550    24383718.240    99847266.35144
        33.850    24383719.200
  21469533.300   112823212.121 9        49.700    21469531.200    87914188.22947
        44.800    21469531.980
