     2.11           OBSERVATION DATA    G (GPS)             RINEX VERSION / TYPE
teqc  2018Jun8      NGS Web             20191128 00:43:22UTCPGM / RUN BY / DATE
Linux 2.4.21-27.ELsmp|Opteron|gcc|Linux 64|=+               COMMENT
teqc  2019Feb25     CORS-ADM Account    20191031 19:44:31UTCCOMMENT
teqc  2019Feb25     NOAA/NOS/NGS/CORS   20190930 03:27:13UTCCOMMENT
Spider V7.2.2.7822                      2019 09 29 02:09    COMMENT
BIT 2 OF LLI FLAGS DATA COLLECTED UNDER A/S CONDITION       COMMENT
SNR is mapped to RINEX snr flag value [1-9]                 COMMENT
Lx:    >= 25dBHz -> 1; 26-27dBHz -> 2; 28-31dBHz -> 3       COMMENT
       32-35dBHz -> 4; 36-38dBHz -> 5; 39-41dBHz -> 6       COMMENT
       42-44dBHz -> 7; 45-48dBHz -> 8; >= 49dBHz -> 9       COMMENT
US2010                                                      COMMENT
teqc.e edited: all SBAS satellites excluded                 COMMENT
teqc.e edited: all QZSS satellites excluded                 COMMENT
Forced Modulo Decimation to 30 seconds                      COMMENT
NJTR                                                        MARKER NAME
SmartNet  NA        SMRTNT                                  OBSERVER / AGENCY
355965              LEICA GRX1200GGPRO  4.30/6.525          REC # / TYPE / VERS
15072033            LEIAR10         NONE                    ANT # / TYPE
  1278261.2780 -4703708.0040  4099884.5550                  APPROX POSITION XYZ
        0.0000        0.0000        0.0000                  ANTENNA: DELTA H/E/N
     1     1                                                WAVELENGTH FACT L1/2
     7    C1    L1    S1    P2    L2    S2    C2            # / TYPES OF OBSERV
    30.0000                                                 INTERVAL
teqc.w windowed: start @ 2019 Sep 29 16:00:00.000           COMMENT
teqc.w windowed:  end  @ 2019 Sep 30 04:00:00.000           COMMENT
teqc.w edited: all GLONASS satellites excluded              COMMENT
teqc.w edited: all SBAS satellites excluded                 COMMENT
teqc.w edited: all Galileo satellites excluded              COMMENT
teqc.w edited: all Beidou satellites excluded               COMMENT
teqc.w edited: all QZSS satellites excluded                 COMMENT
  2019     9    29    16     0    0.0000000     GPS         TIME OF FIRST OBS
    18                                                      LEAP SECONDS
                                                            END OF HEADER
 19  9 29 16  0  0.0000000  0 10G02G05G06G09G12G13G15G19G25G29
  21102829.660   110896131.654 8        48.250    21102822.560    86412553.76348
        45.700
  20121222.860   105737760.282 9        51.000    20121218.280    82393062.93148
        47.850    20121219.120
  23486665.860   123423243.420 7        44.800    23486665.160    96173957.70946
        40.900    23486666.240
  24546414.640   128992284.229 7        43.200    24546413.740   100513473.47845
        37.150    24546414.180
  24050122.100   126384214.679 7        43.200    24050118.520    98481177.62745
        38.150    24050119.540
  23329721.020   122598523.222 7        42.750    23329717.560    95531338.20445
        37.950
  25328601.220   133102713.317 6        40.900    25328598.860   103716394.41644
        35.900    25328599.800
  25525763.860   134138760.118 5        37.650    25525759.260   104523676.84444
        35.600
  23537468.960   123690229.538 7        43.600    23537467.060    96381995.05646
        39.200    23537468.240
  22267158.080   117014720.201 8        48.850    22267153.840    91180285.52446
        41.600    22267154.720
 19  9 29 16  0 30.0000000  0 10G02G05G06G09G12G13G15G19G25G29
  21105493.280   110910128.958 8        48.250    21105486.160    86423460.73948
        45.950
  20119134.980   105726788.262 9        51.150    20119130.380    82384513.30948
        47.700    20119131.220
  23501173.320   123499480.542 7        44.650    23501172.680    96233363.19346
        41.350    23501173.740
  24562518.260   129076909.260 7        42.950    24562517.380   100579415.03845
        38.550    24562517.820
  24068589.800   126481263.171 7        43.800    24068586.200    98556799.82044
        35.700    24068587.240
  23309468.280   122492094.352 6        41.350    23309464.760    95448406.62745
        38.400
  25305993.780   132983910.652 6        41.400    25305991.460   103623820.92545
        36.850    25305992.400
  25547767.740   134254390.707 5        38.550    25547763.020   104613778.47544
        34.700
  23548338.160   123747347.301 7        43.950    23548336.240    96426502.35746
        39.000    23548337.420
  22251414.480   116931987.143 9        49.850    22251410.280    91115818.20446
        41.750    22251411.140
 19  9 29 16  1  0.0000000  0 10G02G05G06G09G12G13G15G19G25G29
  21108202.620   110924366.589 8        48.200    21108195.500    86434554.99148
        46.250
  20117133.660   105716271.049 9        51.000    20117129.020    82376318.09048
        47.950    20117129.860
  23515708.100   123575861.219 8        45.550    23515707.500    96292880.55546
        40.900    23515708.540
  24578687.960   129161881.531 7        43.200    24578687.100   100645627.17444
        34.050    24578687.540
  24087073.500   126578395.823 7        44.300    24087069.900    98632487.57245
        36.300    24087070.980
  23289243.580   122385813.727 7        42.300    23289240.060    95365590.70945
        36.200
  25283374.100   132865043.999 6        39.750    25283371.880   103531197.61445
        36.400    25283372.780
  25569778.200   134370055.982 5        36.050    25569773.380   104703907.12544
        34.900
  23559283.720   123804866.450 7        43.650    23559281.820    96471322.43845
        38.700    23559282.960
  22235736.080   116849596.479 9        50.100    22235731.860    91051617.69347
        42.050    22235732.720
 19  9 29 16  1 30.0000000  0 10G02G05G06G09G12G13G15G19G25G29
  21110956.460   110938838.055 8        48.650    21110949.360    86445831.45448
        45.950
  20115217.420   105706200.993 9        51.050    20115212.800    82368471.28148
        47.950    20115213.620
  23530268.900   123652378.221 8        45.100    23530268.340    96352504.15046
        41.700    23530269.320
  24594921.880   129247191.338 7        43.250    24594921.040   100712102.32845
        36.300    24594921.480
  24105571.200   126675601.903 7        43.400    24105567.580    98708232.51445
        36.000    24105568.700
  23269046.500   122279677.694 8        45.000    23269043.040    95282887.34845
        36.850
  25260741.420   132746108.925 5        38.650    25260739.280   103438520.96844
        33.400    25260740.160
  25591793.720   134485747.233 5        37.250    25591788.860   104794055.83944
        33.000
  23570303.760   123862777.135 7        42.900    23570301.920    96516447.63345
        37.700    23570303.040
  22220121.940   116767543.496 9        49.900    22220117.700    90987680.30846
        41.250    22220118.560
 19  9 29 16  2  0.0000000  0 10G02G05G06G09G12G13G15G19G25G29
  21113756.140   110953550.428 8        48.750    21113749.060    86457295.63948
        46.250
  20113387.280   105696583.445 9        51.100    20113382.680    82360977.08048
        47.850    20113383.480
  23544856.860   123729037.951 7        43.850    23544856.360    96412238.93547
        42.350    23544857.300
  24611220.820   129332842.677 7        42.900    24611219.960   100778843.62644
        35.800    24611220.380
  24124083.580   126772885.179 7        42.200    24124079.940    98784037.62445
        36.250    24124081.100
  23248878.780   122173695.844 8        45.300    23248875.380    95200304.11745
        36.750
  25238097.400   132627114.188 6        40.800    25238095.380   103345797.83645
        36.950    25238096.220
  25613814.920   134601468.958 5        36.900    25613810.020   104884228.43344
        32.750
  23581399.020   123921083.156 7        42.300    23581397.280    96561880.86246
        39.350    23581398.360
  22204573.820   116685837.474 9        49.550    22204569.540    90924013.29246
        41.000    22204570.400
 19  9 29 16  2 30.0000000  0 10G02G05G06G09G12G13G15G19G25G29
  21116600.720   110968498.695 8        48.750    21116593.660    86468943.61848
        46.250
  20111642.100   105687412.299 9        51.050    20111637.520    82353830.72848
        47.850    20111638.300
  23559470.780   123805834.401 7        43.600    23559470.380    96472080.27146
        40.950    23559471.280
  24627583.180   129418827.323 7        42.450    24627582.280   100845844.63044
        35.150    24627582.720
  24142608.960   126870236.755 7        43.100    24142605.300    98859895.94145
        37.000    24142606.500
  23228739.960   122067865.539 7        43.350    23228736.580    95117838.92644
        32.750
  25215441.340   132508056.533 6        41.200    25215439.420   103253025.68244
        35.950    25215440.240
  25635840.460   134717213.536 5        37.150    25635835.540   104974418.84043
        31.700
  23592567.880   123979775.993 7        43.300    23592566.220    96607615.50545
        38.300    23592567.280
  22189091.140   116604475.334 9        49.250    22189086.820    90860614.23846
        41.850    22189087.680
 19  9 29 16  3  0.0000000  0 10G02G05G06G09G12G13G15G19G25G29
  21119490.860   110983686.233 8        48.400    21119483.800    86480778.04948
        46.300
  20109982.220   105678689.589 9        50.950    20109977.660    82347033.82048
        47.900    20109978.420
  23574111.200   123882770.306 7        44.800    23574110.880    96532030.26646
        39.900    23574111.760
  24644009.000   129505145.574 6        41.600    24644008.120   100913105.58245
        38.750    24644008.540
  24161147.280   126967656.229 7        43.850    24161143.660    98935807.14844
        35.900    24161144.860
  23208631.140   121962192.742 6        39.600    23208627.680    95035496.44644
        33.900
  25192774.380   132388941.356 6        41.250    25192772.520   103160208.76545
        37.300    25192773.320
  25657870.560   134832981.784 5        38.650    25657865.660   105064627.61044
        33.750
  23603810.380   124038855.814 7        43.100    23603808.760    96653651.68846
        39.050    23603809.820
  22173674.880   116523462.443 8        48.750    22173670.540    90797487.34546
        41.700    22173671.380
 19  9 29 16  3 30.0000000  0 10G02G05G06G09G12G13G15G19G25G29
  21122426.260   110999111.817 8        48.350    21122419.200    86492797.98348
        45.900
  20108407.220   105670412.906 9        50.950    20108402.660    82340584.46448
        47.700    20108403.420
  23588777.780   123959843.447 8        45.650    23588777.460    96592087.19345
        38.950    23588778.340
  24660497.420   129591792.806 6        41.700    24660496.520   100980622.90644
        35.650    24660496.940
  24179697.560   127065138.357 7        43.800    24179693.940    99011767.17644
        34.600    24179695.140
  23188552.260   121856678.252 7        42.900    23188548.740    94953277.46744
        35.850
  25170096.500   132269768.786 6        40.100    25170094.720   103067347.08045
        38.050    25170095.500
  25679904.460   134948770.014 5        38.700    25679899.580   105154851.96344
        32.800
  23615125.640   124098317.783 7        42.400    23615124.020    96699985.65146
        39.200    23615125.080
  22158325.280   116442799.772 9        49.550    22158320.940    90734633.32046
        41.200    22158321.780
 19  9 29 16  4  0.0000000  0 10G02G05G06G09G12G13G15G19G25G29
  21125407.860   111014780.039 8        47.900    21125400.800    86505006.96648
        46.400
  20106917.660   105662585.118 9        50.950    20106913.100    82334484.87548
        48.100    20106913.860
  23603471.180   124037057.462 7        44.600    23603470.820    96652253.92145
        38.950    23603471.700
  24677048.740   129678770.361 6        41.250    24677047.820   101048397.56744
        34.750    24677048.260
  24198259.960   127162684.282 7        44.500    24198256.380    99087776.94344
        35.950    24198257.540
  23168504.980   121751329.507 8        45.600    23168501.460    94871187.56545
        37.750
  25147408.820   132150544.969 7        43.750    25147407.060   102974445.57244
        34.300    25147407.820
  25701942.580   135064580.230 5        37.850    25701937.760   105245093.40443
        31.700
  23626513.780   124158162.889 6        41.650    23626512.160    96746618.15046
        40.250    23626513.240
  22143043.560   116362493.710 9        49.950    22143039.180    90672057.16146
        41.550    22143040.040
 19  9 29 16  4 30.0000000  0 11G02G05G06G07G09G12G13G15G19G25G29
  21128435.340   111030689.630 8        48.650    21128428.300    86517404.05448
        45.100
  20105512.960   105655203.330 9        51.300    20105508.420    82328732.83048
        47.750    20105509.160
  23618191.020   124114410.375 7        44.750    23618190.620    96712528.89245
        38.400    23618191.500
  26166537.720   137506084.042 7        43.500    26166535.000   107147583.45743
        29.500    26166535.880
  24693662.040   129766073.824 6        41.350    24693661.120   101116426.22645
        36.300    24693661.540
  24216833.400   127260288.203 8        45.200    24216829.880    99163831.88245
        36.250    24216831.000
  23148489.500   121646147.668 8        45.850    23148485.980    94789227.73145
        38.850
  25124711.560   132031270.720 7        43.000    25124709.840   102881504.69344
        34.500    25124710.600
  25723984.120   135180408.727 5        37.150    25723979.360   105335349.15044
        33.850
  23637973.940   124218386.544 7        42.200    23637972.320    96793545.64545
        38.300    23637973.420
  22127829.840   116282544.945 9        49.800    22127825.400    90609759.43146
        41.250    22127826.260
 19  9 29 16  5  0.0000000  0 10G02G05G06G09G12G13G15G19G25G29
  21131509.240   111046843.128 8        48.300    21131502.220    86529991.18548
        45.600
  20104193.480   105648269.419 9        51.300    20104188.960    82323329.78048
        47.950    20104189.680
  23632937.600   124191903.987 7        44.400    23632937.160    96772913.45945
        37.900    23632938.060
  24710337.260   129853702.638 6        41.250    24710336.360   101184708.36245
        36.250    24710336.780
  24235417.740   127357949.364 8        45.750    24235414.240    99239931.45444
        35.150    24235415.340
  23128506.740   121541137.498 7        43.250    23128503.180    94707401.64544
        35.100
  25102005.540   131911950.499 7        42.550    25102003.880   102788528.02744
        34.650    25102004.600
  25746029.120   135296255.251 5        37.750    25746024.420   105425618.90244
        35.200
  23649505.960   124278987.915 7        42.600    23649504.340    96840767.44745
        38.650    23649505.480
  22112685.020   116202958.363 9        49.100    22112680.560    90547743.91146
        41.300    22112681.420
 19  9 29 16  5 30.0000000  0 11G02G05G06G07G09G12G13G15G19G25G29
  21134628.580   111063235.470 8        48.400    21134621.560    86542764.43148
        45.200
  20102957.780   105641775.761 9        51.150    20102953.260    82318269.79848
        48.050    20102953.980
  23647709.760   124269532.088 7        44.750    23647709.300    96833402.81545
        38.550    23647710.220
  26147903.880   137408165.437 6        40.650    26147899.800   107071279.25943
        29.000    26147902.300
  24727072.740   129941648.248 6        40.700    24727071.840   101253237.39844
        35.550    24727072.280
  24254011.340   127455659.034 8        45.450    24254007.820    99316068.82044
        35.550    24254008.920
  23108556.160   121436296.673 6        39.700    23108552.560    94625707.56744
        32.150
  25079290.060   131792580.611 6        41.700    25079288.480   102695512.62344
        33.700    25079289.180
  25768076.120   135412112.518 4        35.100    25768071.460   105515897.09444
        33.400
  23661108.220   124339958.247 6        41.650    23661106.620    96888276.76046
        39.750    23661107.760
  22097608.420   116123730.438 8        48.750    22097603.940    90486007.89547
        42.500    22097604.800
 19  9 29 16  6  0.0000000  0 11G02G05G06G07G09G12G13G15G19G25G29
  21137793.920   111079869.549 8        48.450    21137786.900    86555726.04548
        45.350
  20101806.240   105635724.220 9        51.100    20101801.700    82313554.30748
        47.650    20101802.420
  23662507.920   124347296.876 8        45.250    23662507.420    96893998.72646
        39.450    23662508.360
  26138660.240   137359587.908 7        43.600    26138656.900   107033426.64143
        29.350    26138658.120
  24743868.500   130029910.504 6        41.600    24743867.600   101322013.14443
        31.900    24743868.040
  24272613.960   127553416.018 7        44.750    24272610.380    99392243.06044
        35.750    24272611.460
  23088638.720   121331630.117 7        44.750    23088635.140    94544149.20544
        33.750
  25056566.040   131673166.041 7        42.500    25056564.520   102602462.39144
        32.900    25056565.240
  25790125.240   135527981.027 5        38.950    25790120.620   105606184.08245
        36.700
  23672780.580   124401297.050 6        41.950    23672779.020    96936073.23446
        39.100    23672780.180
  22082601.040   116044866.339 9        49.050    22082596.560    90424555.38546
        41.650    22082597.440
 19  9 29 16  6 30.0000000  0 11G02G05G06G07G09G12G13G15G19G25G29
  21141005.700   111096747.530 8        48.650    21140998.660    86568877.71448
        45.250
  20100739.060   105630116.038 9        51.000    20100734.540    82309184.27948
        47.650    20100735.260
  23677332.400   124425199.789 7        44.950    23677331.920    96954702.25846
        39.200    23677332.840
  26129465.880   137311269.394 6        41.550    26129462.060   106995775.86343
        28.250    26129463.260
  24760724.340   130118488.399 6        41.250    24760723.400   101391034.85244
        34.950    24760723.860
  24291225.380   127651219.107 7        43.750    24291221.780    99468453.16745
        36.200    24291222.860
  23068755.380   121227142.728 8        46.750    23068751.780    94462730.46345
        36.250
  25033834.260   131553710.695 6        40.650    25033832.820   102509380.39845
        36.300    25033833.560
  25812176.380   135643860.132 5        36.850    25812171.800   105696479.36743
        31.450
  23684522.840   124463003.093 7        43.350    23684521.340    96984155.82445
        38.100    23684522.460
  22067663.700   115966370.311 9        49.700    22067659.280    90363389.66446
        41.600    22067660.140
 19  9 29 16  7  0.0000000  0 11G02G05G06G07G09G12G13G15G19G25G29
  21144264.020   111113870.091 9        49.050    21144256.980    86582219.96548
        45.600
  20099756.000   105624949.968 9        51.000    20099751.480    82305158.75748
        47.750    20099752.220
  23692183.080   124503240.347 7        43.300    23692182.600    97015513.03445
        38.900    23692183.520
  26120321.020   137263211.574 5        37.250    26120316.960   106958328.24642
        26.700    26120318.040
  24777639.720   130207379.137 6        41.200    24777638.760   101460300.32344
        34.450    24777639.240
  24309844.860   127749064.832 7        42.250    24309841.260    99544696.53945
        37.550    24309842.320
  23048906.720   121122837.465 8        46.400    23048903.080    94381453.66845
        37.200
  25011095.160   131434216.809 6        41.550    25011093.800   102416268.35045
        37.000    25011094.540
  25834229.160   135759748.273 6        39.900    25834224.600   105786781.79644
        34.750
  23696334.440   124525073.286 7        43.050    23696333.000    97032522.17146
        39.300    23696334.120
  22052796.920   115888244.823 9        49.800    22052792.500    90302512.66046
        41.600    22052793.360
 19  9 29 16  7 30.0000000  0 11G02G05G06G07G09G12G13G15G19G25G29
  21147569.380   111131239.854 8        48.950    21147562.320    86595754.84448
        45.700
  20098857.300   105620227.249 9        51.000    20098852.780    82301478.71448
        47.750    20098853.520
  23707060.300   124581420.561 7        42.750    23707059.860    97076432.60146
        39.250    23707060.780
  26111226.680   137215420.166 5        36.550
                  26111224.320
  24794614.580   130296582.287 6        40.550    24794613.560   101529809.23845
        36.600    24794614.040
  24328472.180   127846951.983 7        44.250    24328468.600    99620972.20244
        35.600    24328469.660
  23029093.780   121018719.778 7        43.050    23029090.080    94300323.04645
        37.400
  24988349.600   131314688.852 6        41.400    24988348.300   102323129.75045
        37.200    24988349.060
  25856283.640   135875645.468 5        38.300    25856279.120   105877091.33444
        35.600
  23708215.180   124587506.906 7        42.000    23708213.840    97081171.71945
        38.000    23708214.920
  22038001.540   115810494.616 8        48.900    22037997.120    90241928.09147
        42.300    22037997.980
 19  9 29 16  8  0.0000000  0 11G02G05G06G07G09G12G13G15G19G25G29
  21150921.420   111148854.678 8        48.750    21150914.300    86609480.67248
        45.050
  20098042.240   105615944.145 9        50.800    20098037.760    82298141.23748
        47.500    20098038.480
  23721963.420   124659737.345 7        44.300    23721963.080    97137458.63245
        38.600    23721964.020
  26102182.580   137167895.021 5        37.350    26102179.720   106884062.33942
        27.800    26102180.440
  24811647.840   130386092.447 6        40.200    24811646.800   101599557.37745
        36.350    24811647.280
  24347106.380   127944875.263 7        42.750    24347102.880    99697275.99345
        37.650    24347103.920
  23009316.440   120914789.563 7        42.400    23009312.720    94219338.55645
        36.650
  24965597.540   131195126.679 7        42.350    24965596.260   102229964.49044
        33.750    24965597.040
  25878339.060   135991547.469 4        34.600    25878334.600   105967404.58243
        31.300
  23720164.000   124650298.258 7        42.100    23720162.700    97130100.01746
        39.300    23720163.760
  22023277.520   115733119.479 9        49.000    22023273.100    90181635.79147
        42.050    22023273.960
 19  9 29 16  8 30.0000000  0 11G02G05G06G07G09G12G13G15G19G25G29
  21154319.700   111166712.560 9        49.050    21154312.540    86623395.91148
        45.250
  20097310.120   105612096.947 9        50.800    20097305.660    82295143.41648
        47.750    20097306.380
  23736891.980   124738187.605 7        44.800    23736891.720    97198588.65545
        38.700    23736892.660
  26093189.040   137120634.739 6        39.250    26093186.160   106847236.13244
        32.550    26093187.200
  24828738.500   130475904.143 6        40.250    24828737.440   101669540.46844
        35.550    24828737.900
  24365746.260   128042828.223 7        43.000    24365742.840    99773602.88845
        38.050    24365743.840
  22989574.920   120811047.254 8        45.100    22989571.200    94138500.40344
        35.350
  24942838.900   131075529.923 6        41.950    24942837.660   102136772.29644
        35.500    24942838.440
  25900394.740   136107489.850 4        35.750    25900393.180   106057795.15942
        26.100
  23732179.800   124713441.606 7        42.400    23732178.560    97179302.57246
        39.650    23732179.580
  22008624.820   115656119.141 9        49.300    22008620.400    90121635.53646
        40.950    22008621.260
 19  9 29 16  9  0.0000000  0 11G02G05G06G07G09G12G13G15G19G25G29
  21157765.120   111184818.065 8        48.850    21157757.900    86637504.08048
        45.750
  20096661.520   105608688.594 9        50.950    20096657.060    82292487.54548
        47.750    20096657.800
  23751846.720   124816775.228 7        42.450    23751846.540    97259825.72546
        40.150    23751847.460
  26084247.360   137073645.673 5        36.850    26084244.540   106810621.26243
        30.300    26084245.480
  24845886.780   130566018.778 6        40.150    24845885.740   101739759.62644
        33.900    24845886.180
  24384391.920   128140811.801 7        43.200    24384388.620    99849953.69046
        39.400    24384389.580
  22969870.600   120707500.054 8        46.050    22969866.860    94057814.24345
        37.550
  24920074.920   130955905.000 6        41.100    24920073.660   102043558.12645
        38.950    24920074.460
  25922451.180   136223410.68315        37.400    25922449.520   106148102.64354
        33.900
  23744262.820   124776938.094 7        42.600    23744261.580    97228780.30846
        40.100    23744262.600
  21994044.800   115579500.569 8        48.950    21994040.360    90061932.76146
        41.550    21994041.240
 19  9 29 16  9 30.0000000  0 11G02G05G06G07G09G12G13G15G19G25G29
  21161258.060   111203173.339 9        49.000    21161250.780    86651806.89348
        45.400
  20096096.620   105605720.122 9        51.150    20096092.160    82290174.46048
        47.650    20096092.900
  23766827.820   124895501.408 7        42.250    23766827.700    97321170.73346
        39.500    23766828.620
  26075358.080   137026931.813 5        36.500    26075355.220   106774220.80944
        32.550    26075356.220
  24863092.500   130656435.269 6        40.350    24863091.440   101810214.00944
        35.200    24863091.860
  24403043.200   128238824.808 7        44.650    24403040.040    99926327.40245
        37.050    24403040.940
  22950204.200   120604152.332 7        44.750    22950200.440    93977283.57945
        38.950
  24897306.320   130836255.882 6        41.800    24897305.040   101950325.17644
        34.000    24897305.860
  25944507.000   136339303.882 5        36.000    25944505.780   106238411.00143
        31.250
  23756412.760   124840786.226 7        42.250    23756411.520    97278532.06846
        39.750    23756412.540
  21979538.060   115503267.399 9        49.250    21979533.620    90002530.32147
        42.600    21979534.500
 19  9 29 16 10  0.0000000  0 11G02G05G06G07G09G12G13G15G19G25G29
  21164798.580   111221778.684 8        48.800    21164791.280    86666304.55748
        45.500
  20095615.200   105603190.282 9        51.050    20095610.740    82288203.15648
        47.750    20095611.500
  23781835.220   124974365.864 8        45.250    23781835.140    97382623.50145
        38.550    23781836.080
  26066521.400   136980495.151 6        39.400    26066518.580   106738036.35043
        31.650    26066519.660
  24880355.120   130747150.802 6        40.650    24880354.060   101880901.40744
        33.200    24880354.480
  24421699.400   128336863.732 6        41.100    24421696.380   100002721.34246
        39.700    24421697.200
  22930576.320   120501007.208 7        43.250    22930572.560    93896910.83546
        40.050
  24874533.600   130716585.188 7        42.700    24874532.320   101857075.37744
        33.350    24874533.160
  25966563.260   136455211.998 6        41.050    25966562.860   106328728.96845
        38.600
  23768629.020   124904982.995 7        42.850    23768627.760    97328555.50445
        38.400    23768628.820
  21965105.240   115427422.531 9        49.650    21965100.820    89943430.43447
        43.150    21965101.700
 19  9 29 16 10 30.0000000  0 11G02G05G06G07G09G12G13G15G19G25G29
  21168385.860   111240629.768 8        48.700    21168378.540    86680993.70348
        45.600
  20095216.120   105601092.953 9        50.900    20095211.660    82286568.86148
        47.550    20095212.400
  23796867.880   125053362.926 8        45.300    23796867.760    97444179.61846
        39.200    23796868.740
  26057736.820   136934332.560 6        39.000    26057734.000   106702065.56144
        32.000    26057735.180
  24897673.180   130838157.530 6        40.550    24897672.100   101951815.69345
        36.350    24897672.520
  24440358.920   128434919.819 6        41.450    24440356.020   100079128.59145
        38.200    24440356.780
  22910986.520   120398062.587 7        44.900    22910982.840    93816694.36245
        37.800
  24851756.100   130596889.539 7        43.400    24851754.820   101763806.17744
        33.950    24851755.680
  25988618.740   136571113.452 4        35.000    25988617.860   106419042.88544
        32.150
  23780910.100   124969520.175 7        42.700    23780908.800    97378844.15445
        38.000    23780909.880
  21950745.780   115351963.109 9        49.950    21950741.360    89884630.89747
        42.750    21950742.240
 19  9 29 16 11  0.0000000  0 11G02G05G06G07G09G12G13G15G19G25G29
  21172019.840   111259726.367 9        49.100    21172012.500    86695874.16848
        45.300
  20094899.000   105599426.494 9        50.950    20094894.560    82285270.31448
        47.500    20094895.300
  23811925.680   125132491.810 7        44.600    23811925.520    97505838.45645
        38.950    23811926.500
  26049004.920   136888446.071 6        40.300    26049002.020   106666309.87043
        29.600    26049003.260
  24915045.980   130929452.165 6        40.500    24915044.880   102022954.37244
        35.500    24915045.280
  24459021.100   128532989.930 7        43.100    24459018.320   100155546.75644
        35.550    24459019.040
  22891435.380   120295320.858 8        46.300    22891431.800    93736635.92745
        37.150
  24828974.360   130477171.224 7        43.700    24828973.120   101670519.21543
        31.500    24828973.960
  26010672.640   136687007.642 5        38.650    26010672.260   106509352.54044
        35.650
  23793255.200   125034394.090 7        42.750    23793253.900    97429395.22645
        37.450    23793255.020
  21936460.020   115276890.910 9        49.700    21936455.580    89826133.08046
        41.550    21936456.480
 19  9 29 16 11 30.0000000  0 10G02G05G06G07G09G12G13G15G25G29
  21175701.960   111279075.823 8        48.950    21175694.620    86710951.65148
        45.300
  20094664.940   105598196.622 9        50.800    20094660.540    82284311.96948
        47.750    20094661.260
  23827009.840   125211758.994 7        43.600    23827009.620    97567605.02745
        37.850    23827010.600
  26040327.300   136842844.373 7        42.850    26040324.360   106630776.08444
        34.750    26040325.600
  24932474.400   131021038.831 6        40.100    24932473.300   102094320.54244
        32.750    24932473.700
  24477686.560   128631077.392 7        43.600    24477683.880   100231978.46544
        35.700    24477684.560
  22871924.740   120192791.529 8        45.850    22871921.200    93656742.91544
        34.550
  24806190.000   130357439.106 7        42.750    24806188.760   101577221.55344
        34.500    24806189.600
  23805665.140   125099608.597 7        42.900    23805663.820    97480211.69645
        38.250    23805664.960
  21922249.780   115202215.623 9        49.050    21922245.320    89767944.55546
        41.050    21922246.220
 19  9 29 16 12  0.0000000  0 10G02G05G06G07G09G12G13G15G25G29
  21179432.120   111298677.959 8        48.100    21179424.780    86726226.05148
        45.400
  20094513.600   105597401.424 9        50.750    20094509.220    82283692.34348
        47.750    20094509.940
  23842120.120   125291163.494 7        43.150    23842119.900    97629478.55545
        38.750    23842120.860
  26031704.020   136797528.800 5        38.950    26031701.140   106595465.27143
        31.000    26031702.280
  24949957.700   131112914.040 6        39.600    24949956.600   102165911.58845
        36.050    24949957.000
  24496354.580   128729178.437 7        43.100    24496351.920   100308420.80344
        33.200    24496352.580
  22852454.980   120090477.111 7        44.050    22852451.380    93577017.40345
        36.300
  24783403.380   130237695.153 7        43.250    24783402.160   101483914.68545
        36.650    24783402.980
  23818139.160   125165159.922 7        42.450    23818137.860    97531290.62345
        38.100    23818139.000
  21908115.380   115127938.887 8        48.850    21908110.880    89710066.58746
        41.550    21908111.820
 19  9 29 16 12 30.0000000  0 10G02G05G06G07G09G12G13G15G25G29
  21183210.260   111318532.146 8        47.950    21183202.900    86741696.84248
        45.200
  20094444.640   105597039.105 9        50.900    20094440.280    82283410.01748
        47.700    20094440.980
  23857256.100   125370703.385 7        44.050    23857255.900    97691457.65445
        37.600    23857256.840
  26023135.340   136752500.292 5        38.950    26023132.540   106560378.20343
        29.450    26023133.600
  24967495.080   131205073.620 6        40.600    24967494.000   102237724.22744
        33.000    24967494.380
  24515024.320   128827288.506 7        43.750    24515021.720   100384870.14244
        35.500    24515022.360
  22833026.440   119988379.557 7        44.100    22833022.740    93497460.94145
        38.050
  24760614.760   130117940.115 7        43.500    24760613.520   101390599.08444
        34.800    24760614.360
  23830676.400   125231043.521 7        42.750    23830675.100    97582628.46945
        36.050    23830676.240
  21894056.980   115054061.565 9        49.200    21894052.440    89652499.84646
        41.650    21894053.400
 19  9 29 16 13  0.0000000  0 10G02G05G06G07G09G12G13G15G25G29
  21187035.860   111338635.896 8        47.750    21187028.520    86757362.09848
        45.400
  20094457.300   105597105.568 9        50.800    20094452.940    82283461.79648
        47.850    20094453.640
  23872417.320   125450375.785 7        44.350    23872417.080    97753540.02545
        37.200    23872418.000
  26014621.200   136707758.490 5        38.900    26014619.160   106525515.54343
        28.900    26014619.460
  24985085.620   131297512.240 6        40.350    24985084.540   102309754.26744
        34.500    24985084.920
  24533694.640   128925401.682 6        41.150    24533692.060   100461321.93845
        37.350    24533692.700
  22813639.100   119886498.673 8        45.400    22813635.360    93418073.31345
        37.800
  24737823.980   129998173.926 7        43.050    24737822.720   101297274.83245
        36.950    24737823.560
  23843275.820   125297253.741 7        42.750    23843274.540    97634220.80045
        38.750    23843275.660
  21880074.540   114980583.630 9        49.750    21880069.960    89595244.32347
        42.400    21880070.960
 19  9 29 16 13 30.0000000  0 10G02G05G06G07G09G12G13G15G25G29
  21190909.600   111358992.684 8        47.900    21190902.300    86773224.52248
        45.350
  20094551.840   105597602.401 9        50.750    20094547.480    82283848.94248
        47.700    20094548.200
  23887604.200   125530182.963 7        42.550    23887603.880    97815727.39545
        37.650    23887604.820
  26006162.420   136663307.555 6        40.800    26006160.380   106490878.52143
        28.950    26006160.620
  25002729.240   131390229.826 6        41.000    25002728.160   102382001.70044
        35.100    25002728.540
  24552365.520   129023517.750 7        42.850    24552362.980   100537775.97144
        35.150    24552363.640
  22794294.060   119784840.099 8        46.050    22794290.300    93338858.91145
        37.650
  24715032.000   129878401.494 7        42.200    24715030.720   101203945.70545
        36.000    24715031.580
  23855937.340   125363790.144 7        42.850    23855936.060    97686067.28845
        38.500    23855937.160
  21866169.140   114907510.313 9        50.000    21866164.540    89538304.06847
        42.700    21866165.560
 19  9 29 16 14  0.0000000  0 10G02G05G06G07G09G12G13G15G25G29
  21194831.680   111379603.540 8        47.950    21194824.420    86789284.91548
        45.450
  20094728.220   105598529.360 9        50.850    20094723.860    82284571.24848
        47.250    20094724.580
  23902816.800   125610125.268 6        41.150    23902816.440    97878019.98546
        40.050    23902817.360
  25997759.580   136619150.365 5        38.150    25997757.580   106456470.44643
        29.050    25997757.740
  25020425.540   131483224.251 6        39.750    25020424.480   102454464.83845
        36.700    25020424.840
  24571036.460   129121633.971 7        42.800    24571033.960   100614230.10745
        36.700    24571034.620
  22774992.160   119683407.809 7        44.650    22774988.320    93259820.77145
        36.750
  24692239.440   129758625.925 7        43.650    24692238.120   101110614.16444
        35.100    24692239.000
  23868660.440   125430650.247 6        41.600    23868659.220    97738166.03046
        39.550    23868660.280
  21852341.360   114834844.820 9        49.350    21852336.720    89481681.60847
        42.850    21852337.760
 19  9 29 16 14 30.0000000  0 10G02G05G06G07G09G12G13G15G25G29
  21198802.420   111400470.028 8        48.050    21198795.200    86805544.48948
        45.650
  20094986.300   105599885.621 9        50.900    20094981.940    82285628.07748
        47.550    20094982.660
  23918055.120   125690203.102 7        43.550    23918054.780    97940418.21646
        41.050    23918055.720
  25989413.220   136575290.141 5        36.300    25989411.180   106422293.60942
        26.000    25989411.340
  25038174.220   131576493.728 6        40.100    25038173.160   102527142.26844
        35.000    25038173.540
  24589707.020   129219748.068 7        43.250    24589704.580   100690682.54445
        37.000    24589705.240
  22755734.040   119582205.695 7        43.200    22755730.140    93180961.97745
        38.500
  24669446.920   129638850.450 7        44.050    24669445.560   101017282.62145
        36.300    24669446.460
  23881444.720   125497831.795 7        43.200    23881443.520    97790515.25246
        39.750    23881444.560
  21838591.740   114762590.260 9        49.400    21838587.120    89425379.36847
        43.650    21838588.160
 19  9 29 16 15  0.0000000  0 10G02G05G06G07G09G12G13G15G25G29
  21202821.580   111421590.977 8        48.300    21202814.400    86822002.36548
        45.150
  20095325.560   105601668.537 9        51.000    20095321.200    82287017.36248
        47.300    20095321.940
  23933318.820   125770414.416 8        45.100    23933318.520    98002920.50446
        39.450    23933319.460
  25981123.440   136531727.240 5        37.600    25981121.400   106388348.52443
        29.450    25981121.580
  25055974.340   131670033.749 6        39.900    25055973.320   102600030.53644
        35.650    25055973.700
  24608376.240   129317855.295 7        42.750    24608373.840   100767129.67945
        36.400    24608374.480
  22736519.800   119481234.681 7        42.550    22736515.860    93102283.30845
        37.850
  24646654.580   129519075.947 7        42.650    24646653.160   100923951.88945
        37.600    24646654.100
  23894289.300   125565330.082 7        43.400    23894288.140    97843111.28946
        39.200    23894289.140
  21824920.500   114690747.535 9        49.100    21824915.920    89369398.03647
        42.600    21824916.960
 19  9 29 16 15 30.0000000  0 10G02G05G06G07G09G12G13G15G25G29
  21206889.140   111442966.278 8        48.200    21206882.000    86838658.42348
        45.750
  20095745.740   105603876.640 9        50.850    20095741.380    82288737.96648
        47.500    20095742.120
  23948607.800   125850758.219 7        44.500    23948607.500    98065526.05346
        40.700    23948608.440
  25972890.460   136488463.095 6        40.200    25972888.400   106354636.2904
        20.800    25972888.640
  25073825.280   131763840.951 6        39.350    25073824.320   102673126.99144
        35.200    25073824.700
  24627043.480   129415952.017 7        43.250    24627041.100   100843568.62144
        35.500    24627041.740
  22717349.980   119380497.225 7        44.750    22717346.040    93023786.64445
        38.700
  24623862.720   129399304.170 7        44.600    24623861.260   100830623.27644
        35.150    24623862.240
  23907193.400   125633141.241 7        43.400    23907192.300    97895951.10845
        38.200    23907193.260
  21811327.940   114619318.271 9        49.500    21811323.400    89313738.88447
        42.550    21811324.420
 19  9 29 16 16  0.0000000  0 10G02G05G06G07G09G12G13G15G25G29
  21211005.400   111464597.504 8        48.350    21210998.300    86855513.92047
        44.950
  20096246.960   105606510.653 9        50.800    20096242.580    82290790.44148
        47.100    20096243.340
  23963922.240   125931235.666 7        43.200    23963921.940    98128235.69946
        40.900    23963922.880
  25964715.000   136445500.994 6        39.200    25964712.860   106321159.44043
        29.450    25964713.140
  25091726.820   131857913.973 6        39.750    25091725.880   102746430.58644
        34.000    25091726.300
  24645708.360   129514036.334 7        42.000    24645706.020   100919997.88845
        36.750    24645706.660
  22698225.480   119279997.775 8        46.600    22698221.600    92945475.41746
        39.250
  24601072.120   129279538.764 7        43.550    24601070.660   100737299.58944
        35.150    24601071.660
  23920156.720   125701263.651 7        42.550    23920155.660    97949033.45446
        39.400    23920156.600
  21797814.820   114548306.614 9        50.300    21797810.340    89258405.12947
        42.050    21797811.360
 19  9 29 16 16 30.0000000  0 11G02G05G06G07G09G12G13G15G25G29G30
  21215170.680   111486486.350 8        48.200    21215163.620    86872570.16048
        45.550
  20096829.080   105609569.790 9        50.800    20096824.700    82293174.18748
        46.950    20096825.460
  23979262.160   126011847.212 7        42.900    23979261.960    98191049.81646
        40.950    23979262.880
  25956597.720   136402844.334 5        38.450    25956595.600   106287920.45644
        34.350    25956595.880
  25109678.620   131952251.061 6        39.750    25109677.720   102819939.95244
        34.950    25109678.120
  24664370.460   129612105.956 6        41.900    24664368.140   100996415.70545
        36.100    24664368.780
  22679147.040   119179740.075 8        46.650    22679143.200    92867352.57746
        39.250
  24578283.320   129159783.216 7        44.550    24578281.800   100643983.66244
        35.800    24578282.820
  23933178.780   125769694.980 7        42.600    23933177.780    98002356.55945
        37.350    23933178.720
  21784381.820   114477715.744 9        49.900    21784377.360    89203399.27047
        42.100    21784378.360
  25896973.300   136089511.609 6        39.700    25896974.100   106043778.46445
        36.200    25896973.920
 19  9 29 16 17  0.0000000  0 10G02G05G06G07G09G12G13G15G25G29
  21219384.740   111508631.327 8        48.050    21219377.720    86889825.96048
        45.250
  20097491.520   105613051.051 9        50.800    20097487.160    82295886.85248
        47.150    20097487.920
  23994627.080   126092590.277 7        44.550    23994626.980    98253966.45446
        39.800    23994627.880
  25948538.360   136360492.316 6        39.550    25948536.240   106254918.84943
        29.500    25948536.540
  25127679.720   132046847.349 6        40.150    25127678.840   102893651.33144
        34.900    25127679.240
  24683028.800   129710155.819 6        41.950    24683026.540   101072818.08744
        35.150    24683027.160
  22660114.840   119079725.218 7        44.700    22660111.020    92789418.94745
        38.150
  24555496.480   129040037.889 7        43.650    24555494.940   100550675.65244
        34.300    24555495.960
  23946258.680   125838430.048 7        42.950    23946257.700    98055916.33645
        38.550    23946258.620
  21771028.960   114407545.868 9        50.100    21771024.500    89148721.43246
        41.800    21771025.480
 19  9 29 16 17 30.0000000  0 11G02G05G06G07G09G12G13G15G25G29G30
  21223648.340   111531036.825 8        48.100    21223641.360    86907284.78748
        45.300
  20098234.760   105616956.872 9        50.850    20098230.400    82298930.34848
        47.500    20098231.160
  24010017.780   126173468.547 7        44.250    24010017.720    98316988.44946
        40.200    24010018.580
  25940538.180   136318451.350 6        39.800    25940536.020   106222159.77343
        29.250    25940536.360
  25145730.400   132141704.039 6        39.050    25145729.520   102967565.60044
        35.950    25145729.920
  24701683.540   129808186.837 7        42.400    24701681.320   101149205.82644
        35.400    24701681.920
  22641130.140   118979960.064 7        44.000    22641126.320    92711679.93345
        36.950
  24532712.860   128920309.305 7        42.400    24532711.280   100457380.67445
        38.600    24532712.340
  23959396.540   125907469.661 7        43.550    23959395.580    98109713.38445
        37.750    23959396.480
  21757757.520   114337803.651 9        49.700    21757753.040    89094376.83447
        42.350    21757754.000
  25871956.260   135958048.544 4        33.950    25871958.000   105941354.00944
        33.350    25871958.820
 19  9 29 16 18  0.0000000  0 11G02G05G06G07G09G12G13G15G25G29G30
  21227960.400   111553696.919 8        48.200    21227953.460    86924942.00147
        44.850
  20099057.340   105621279.672 9        50.750    20099053.000    82302298.76848
        47.450    20099053.760
  24025432.980   126254475.499 7        43.300    24025432.900    98380110.70746
        39.550    24025433.780
  25932596.460   136276717.558 6        40.900    25932594.180   106189640.04842
        27.800    25932594.560
  25163828.900   132236812.199 5        38.900    25163828.060   103041675.81344
        35.800    25163828.480
  24720332.880   129906189.641 7        43.650    24720330.680   101225571.58644
        34.050    24720331.300
  22622192.360   118880441.506 8        45.550    22622188.540    92634133.02745
        37.350
  24509931.680   128800593.672 7        44.550    24509930.100   100364095.83544
        34.950    24509931.160
  23972590.620   125976804.583 7        42.650    23972589.640    98163740.53545
        37.800    23972590.540
  21744566.660   114268485.151 9        49.350    21744562.160    89040362.43847
        42.950    21744563.100
  25859479.500   135892472.249 7        44.200    25859479.700   105890240.59445
        36.350    25859480.280
 19  9 29 16 18 30.0000000  0 11G02G05G06G07G09G12G13G15G25G29G30
  21232322.460   111576619.628 8        48.450    21232315.520    86942803.84048
        45.250
  20099960.580   105626026.160 9        50.650    20099956.240    82305997.30948
        47.650    20099957.000
  24040873.920   126335617.921 7        43.550    24040873.840    98443338.48246
        39.200    24040874.740
  25924714.960   136235299.728 6        39.950    25924712.640   106157366.36543
        29.550    25924713.020
  25181976.080   132332176.184 5        38.150    25181975.240   103115985.40244
        34.700    25181975.680
  24738977.700   130004168.482 7        42.950    24738975.500   101301918.66544
        34.800    24738976.120
  22603303.440   118781179.516 8        46.450    22603299.580    92556786.02545
        38.350
  24487154.760   128680900.507 7        43.400    24487153.160   100270828.48345
        36.350    24487154.240
  23985841.600   126046438.709 6        41.550    23985840.600    98218000.82545
        38.100    23985841.520
  21731458.260   114199600.157 9        49.600    21731453.780    88986685.84047
        42.900    21731454.720
  25847022.240   135827003.953 6        40.250    25847021.760   105839226.23344
        35.750    25847022.260
 19  9 29 16 19  0.0000000  0 11G02G05G06G07G09G12G13G15G25G29G30
  21236734.140   111599803.055 8        48.000    21236727.220    86960868.83248
        45.450
  20100943.720   105631192.669 9        50.800    20100939.400    82310023.15448
        47.600    20100940.160
  24056340.080   126416893.043 7        44.150    24056340.020    98506669.70146
        39.800    24056340.920
  25916893.500   136194197.741 5        37.500    25916891.220   106125338.86743
        31.800    25916891.560
  25200171.040   132427791.121 5        38.600    25200170.220   103190490.49844
        34.650    25200170.660
  24757616.900   130102117.711 6        41.050    24757614.680   101378242.66845
        37.450    24757615.280
  22584463.500   118682174.895 8        45.550    22584459.580    92479639.60845
        38.650
  24464382.120   128561229.820 7        43.500    24464380.500   100177578.67945
        37.900    24464381.600
  23999148.460   126116366.661 6        39.900    23999147.420    98272490.08945
        38.550    23999148.380
  21718432.340   114131148.422 9        50.000    21718427.860    88933346.82847
        42.750    21718428.800
  25834584.660   135761643.811 5        38.550    25834583.880   105788296.18644
        35.050    25834584.640
 19  9 29 16 19 30.0000000  0 11G02G05G06G07G09G12G13G15G25G29G30
  21241194.260   111623241.021 8        48.650    21241187.340    86979132.17947
        44.750
  20102005.320   105636771.422 9        51.050    20102001.000    82314370.23148
        47.600    20102001.760
  24071830.160   126498293.811 7        43.600    24071830.120    98570098.84445
        38.650    24071831.000
  25909131.220   136153406.816 6        40.300    25909129.020   106093553.74543
        28.550    25909129.320
  25218411.920   132523647.477 5        38.200    25218411.160   103265183.70744
        34.100    25218411.600
  24776248.680   130200027.892 7        42.700    24776246.440   101454536.24245
        36.550    24776247.040
  22565671.840   118583424.181 7        44.100    22565667.880    92402691.05746
        39.400
  24441612.980   128441577.595 7        44.250    24441611.320   100084343.25445
        37.300    24441612.440
  24012509.340   126186578.557 6        39.850    24012508.260    98327200.61445
        38.300    24012509.260
  21705488.120   114063126.037 9        50.200    21705483.640    88880342.37447
        42.650    21705484.560
  25822166.860   135696388.591 7        43.950    25822165.840   105737447.98545
        36.000    25822166.780
 19  9 29 16 20  0.0000000  0 11G02G05G06G07G09G12G13G15G25G29G30
  21245704.640   111646942.978 8        48.500    21245697.720    86997601.22548
        45.600
  20103146.800   105642769.874 9        50.900    20103142.460    82319044.34748
        47.800    20103143.240
  24087345.820   126579828.823 6        41.900    24087345.760    98633632.61446
        39.000    24087346.640
  25901430.320   136112938.387 6        41.800    25901428.080   106062019.90844
        32.250    25901428.420
  25236700.700   132619756.395 5        37.650    25236699.960   103340060.87144
        35.100    25236701.240
  24794874.080   130297904.730 7        42.200    24794871.840   101530803.87545
        36.150    24794872.420
  22546930.620   118484938.792 7        44.900    22546926.640    92325949.28746
        39.250
  24418849.500   128321955.028 7        43.700    24418847.780    99991130.96745
        36.750    24418848.920
  24025925.300   126257080.118 6        41.100    24025924.160    98382136.87945
        37.150    24025925.220
  21692627.720   113995544.124 9        50.550    21692623.220    88827681.15147
        42.600    21692624.140
  25809771.120   135631248.711 5        38.150    25809769.840   105686689.66643
        30.400    25809770.900
 19  9 29 16 20 30.0000000  0 11G02G05G06G07G09G12G13G15G25G29G30
  21250265.020   111670907.763 8        48.700    21250258.080    87016275.06747
        44.850
  20104367.600   105649185.114 9        50.900    20104363.220    82324043.23148
        47.800    20104364.020
  24102886.600   126661495.979 6        41.900    24102886.560    98697269.24446
        39.950    24102887.460
  25893790.720   136072792.007 6        39.250    25893788.400   106030737.04244
        34.000    25893788.760
  25255034.860   132716103.597 5        38.050    25255034.000   103415136.57044
        33.950    25255034.660
  24813492.200   130395743.296 7        42.650    24813489.960   101607041.68045
        36.400    24813490.540
  22528240.240   118386720.253 8        47.150    22528236.260    92249415.39945
        37.550
  24396091.920   128202363.464 7        44.350    24396090.160    99897942.84444
        34.950    24396091.300
  24039395.500   126327866.500 7        43.450    24039394.320    98437295.06044
        35.300    24039395.420
  21679851.320   113928403.529 9        50.450    21679846.780    88775363.79647
        42.100    21679847.720
  25797397.560   135566225.596 6        39.400    25797396.160   105636022.32044
        32.000    25797397.300
 19  9 29 16 21  0.0000000  0 11G02G05G06G07G09G12G13G15G25G29G30
  21254875.160   111695134.078 8        48.250    21254868.220    87035152.70947
        44.850
  20105667.200   105656014.508 9        50.800    20105662.820    82329364.83348
        47.550    20105663.620
  24118452.020   126743293.192 7        43.700    24118452.020    98761007.29545
        38.850    24118452.940
  25886212.520   136032968.111 6        39.850    25886210.180   105999705.37144
        32.050    25886210.580
  25273414.580   132812689.454 5        37.850    25273413.960   103490398.24643
        30.850    25273414.280
  24832102.260   130493539.267 7        43.600    24832100.000   101683246.23644
        35.250    24832100.600
  22509600.880   118288769.555 8        47.100    22509596.860    92173090.17444
        34.800
  24373340.280   128082802.936 7        44.300    24373338.500    99804778.90645
        36.900    24373339.600
  24052919.020   126398932.959 7        43.700    24052917.740    98492671.44444
        35.850    24052918.880
  21667159.000   113861704.671 9        50.300    21667154.380    88723390.65746
        41.750    21667155.320
  25785046.340   135501319.940 6        39.800    25785045.020   105585446.51744
        32.650    25785046.140
 19  9 29 16 21 30.0000000  0 11G02G05G06G07G09G12G13G15G25G29G30
  21259535.380   111719623.484 8        48.400    21259528.420    87054235.35148
        45.050
  20107045.520   105663257.626 9        50.650    20107041.160    82335008.80948
        47.500    20107041.960
  24134042.260   126825220.860 7        44.150    24134042.340    98824847.02445
        38.550    24134043.240
  25878696.240   135993469.848 6        40.200    25878693.940   105968927.49543
        31.050    25878694.320
  25291839.520   132909512.188 5        37.100    25291838.900   103565844.50943
        31.900    25291838.980
  24850703.760   130591290.336 7        43.300    24850701.460   101759415.81644
        34.800    24850702.060
  22491013.280   118191090.724 8        45.850    22491009.180    92096976.77545
        37.900
  24350595.240   127963277.012 7        43.150    24350593.460    99711641.89145
        37.650    24350594.540
  24066495.400   126470277.010 6        40.300    24066494.060    98548264.17045
        36.900    24066495.240
  21654551.340   113795450.950 9        50.100    21654546.660    88671764.39647
        42.900    21654547.620
  25772718.180   135436535.438 5        38.850    25772717.000   105534965.06844
        32.900    25772718.060
 19  9 29 16 22  0.0000000  0 11G02G05G06G07G09G12G13G15G25G29G30
  21264245.400   111744374.775 8        48.050    21264238.440    87073522.05847
        44.850
  20108502.060   105670911.819 9        50.650    20108497.700    82340973.10548
        47.250    20108498.520
  24149657.060   126907277.091 7        43.500    24149657.180    98888786.89145
        37.800    24149658.060
  25871241.900   135954297.300 6        40.900    25871239.660   105938403.42442
        27.800    25871240.040
  25310308.660   133006567.658 5        36.650    25310308.020   103641472.16544
        33.200    25310307.940
  24869295.840   130688991.829 7        42.050    24869293.460   101835546.76645
        36.600    24869294.100
  22472477.620   118093685.111 8        45.000    22472473.440    92021076.32845
        37.950
  24327856.920   127843786.705 7        43.500    24327855.220    99618532.65846
        39.600    24327856.240
  24080123.620   126541893.850 6        39.200    24080122.220    98604069.50445
        37.550    24080123.400
  21642028.580   113729643.320 9        49.800    21642023.860    88620485.73447
        42.650    21642024.820
  25760413.300   135371873.275 6        40.800    25760412.240   105484578.95041
        25.250    25760413.280
 19  9 29 16 22 30.0000000  0 11G02G05G06G07G09G12G13G15G25G29G30
  21269006.120   111769392.383 8        47.900    21268999.160    87093016.26848
        45.050
  20110037.260   105678979.452 9        50.750    20110032.900    82347259.57048
        47.200    20110033.720
  24165297.060   126989465.449 7        43.800    24165297.180    98952829.67545
        36.850    24165298.060
  25863850.760   135915456.632 6        39.550    25863848.480   105908138.00343
        31.850    25863848.880
  25328822.280   133103856.815 5        37.650    25328821.520   103717281.85444
        32.300    25328821.420
  24887878.700   130786644.945 7        43.000    24887876.260   101911640.03145
        36.500    24887876.900
  22453995.240   117996559.751 8        45.250    22453991.040    91945394.29046
        39.700
  24305126.680   127724338.700 7        44.200    24305125.080    99525456.35745
        38.000    24305126.020
  24093803.980   126613784.487 7        43.700    24093802.580    98660088.13545
        36.650    24093803.800
  21629591.880   113664287.976 9        50.050    21629587.140    88569559.49847
        43.000    21629588.100
  25748132.980   135307339.862 5        38.400    25748131.960   105434293.12044
        35.750    25748133.020
 19  9 29 16 23  0.0000000  0 11G02G05G06G07G09G12G13G15G25G29G30
  21273817.120   111794674.430 8        48.050    21273810.180    87112716.56047
        44.900
  20111650.460   105687456.986 9        50.700    20111646.100    82353865.44048
        46.850    20111646.940
  24180961.640   127071783.039 7        43.550    24180961.720    99016973.21345
        37.150    24180962.620
  25856522.640   135876947.030 5        38.650    25856520.320   105878130.50043
        30.550    25856520.740
  25347379.340   133201374.629 5        36.550    25347378.500   103793269.71443
        29.300    25347378.440
  24906451.120   130884243.505 7        43.500    24906448.640   101987690.84344
        35.900    24906449.280
  22435566.220   117899715.001 8        46.150    22435562.060    91869930.92145
        37.650
  24282404.400   127604932.581 7        44.250    24282402.880    99432412.68945
        37.950    24282403.760
  24107535.380   126685943.153 7        44.000    24107534.000    98716315.59544
        35.700    24107535.220
  21617241.260   113599384.972 9        50.000    21617236.480    88518985.74547
        43.500    21617237.460
  25735877.160   135242935.404 6        39.850    25735876.240   105384107.76444
        34.650    25735877.300
 19  9 29 16 23 30.0000000  0 11G02G05G06G07G09G12G13G15G25G29G30
  21278678.420   111820220.846 8        47.600    21278671.540    87132622.85048
        45.200
  20113341.380   105696342.880 9        50.750    20113337.020    82360789.49748
        47.400    20113337.860
  24196650.580   127154228.807 7        44.100    24196650.660    99081216.65645
        38.000    24196651.540
  25849257.840   135838770.065 5        37.950    25849255.540   105848382.19942
        27.600    25849255.980
  25365979.240   133299117.861 4        35.900    25365978.420   103869433.26743
        31.000    25365978.320
  24925012.640   130981784.478 7        42.650    24925010.120   102063696.72245
        36.900    24925010.760
  22417191.180   117803153.512 8        45.850    22417187.060    91794688.18745
        37.800
  24259690.500   127485570.423 7        43.400    24259689.020    99339403.29046
        40.350    24259689.860
  24121317.100   126758366.073 7        43.250    24121315.680    98772748.92145
        38.300    24121316.900
  21604976.980   113534935.772 9        50.150    21604972.220    88468765.60047
        43.600    21604973.180
  25723646.200   135178661.680 6        41.950    25723645.480   105334024.25444
        33.650    25723646.500
 19  9 29 16 24  0.0000000  0 11G02G05G06G07G09G12G13G15G25G29G30
  21283590.220   111846032.635 8        47.950    21283583.380    87152735.92047
        44.650
  20115109.860   105705636.373 9        50.800    20115105.500    82368031.17548
        47.500    20115106.340
  24212364.020   127236803.071 7        43.400    24212364.080    99145560.19645
        37.750    24212364.940
  25842056.780   135800928.239 6        39.350    25842054.480   105818895.01142
        26.150    25842054.960
  25384621.620   133397084.197 5        36.400    25384620.840   103945770.62344
        34.250    25384620.720
  24943562.740   131079265.404 7        42.800    24943560.160   102139655.81044
        34.500    24943560.840
  22398870.620   117706878.440 8        45.950    22398866.520    91719668.65544
        35.750
  24236985.640   127366255.523 7        44.100    24236984.180    99246430.67045
        38.150    24236984.980
  24135148.600   126831050.594 6        39.900    24135147.200    98829386.16545
        38.850    24135148.380
  21592799.660   113470943.324 9        50.600    21592794.880    88418901.34647
        43.200    21592795.840
  25711440.920   135114522.437 6        41.750    25711440.320   105284045.53844
        35.700    25711441.280
 19  9 29 16 24 30.0000000  0 11G02G05G06G07G09G12G13G15G25G29G30
  21288553.020   111872112.425 8        47.700    21288546.260    87173057.82248
        45.250
  20116955.940   105715337.603 9        50.400    20116951.580    82375590.57048
        47.650    20116952.420
  24228102.220   127319507.353 6        41.700    24228102.260    99210005.01745
        36.400    24228103.100
  25834920.160   135763425.410 6        41.900    25834917.860   105789672.07543
        30.750    25834918.320
  25403306.380   133495273.032 4        35.450    25403305.600   104022281.29143
        30.850    25403305.520
  24962101.240   131176685.296 6        41.750    24962098.600   102215567.31844
        34.550    24962099.280
  22380605.580   117610895.212 8        45.700    22380601.460    91644876.55644
        35.450
  24214290.540   127246992.004 7        44.550    24214289.060    99153498.08945
        36.750    24214289.860
  24149029.560   126903995.424 6        39.800    24149028.220    98886226.33345
        37.950    24149029.340
  21580710.040   113407411.816 9        50.050    21580705.240    88369396.28347
        42.850    21580706.200
  25699262.180   135050522.404 7        44.300    25699261.720   105234175.22845
        37.850    25699262.640
 19  9 29 16 25  0.0000000  0 11G02G05G06G07G09G12G13G15G25G29G30
  21293566.600   111898459.086 8        47.950    21293559.900    87193587.68047
        44.850
  20118879.180   105725444.297 9        50.250    20118874.820    82383465.90248
        47.650    20118875.680
  24243864.700   127402339.529 7        42.900    24243864.660    99274549.53945
        36.500    24243865.540
  25827848.160   135726261.841 6        40.250    25827845.760   105760713.51943
        31.750    25827846.240
  25422032.520   133593680.001 4        34.800    25422031.680   104098962.10744
        32.550    25422031.640
  24980627.200   131274039.471 7        42.600    24980624.480   102291427.63445
        36.000    24980625.200
  22362396.220   117515204.695 8        46.150    22362392.100    91570312.55545
        37.400
  24191605.440   127127780.928 7        44.150    24191603.940    99060606.36145
        37.600    24191604.740
  24162959.200   126977195.971 7        44.250    24162957.960    98943265.63045
        37.600    24162959.040
  21568708.340   113344342.404 9        50.100    21568703.540    88320251.27947
        42.350    21568704.480
  25687109.980   134986662.064 7        43.850    25687109.660   105184413.87446
        39.000    25687110.540
 19  9 29 16 25 30.0000000  0 11G02G05G06G07G09G12G13G15G25G29G30
  21298631.740   111925076.695 8        48.400    21298625.080    87214328.67547
        43.950
  20120880.080   105735959.184 9        50.650    20120875.760    82391659.31648
        47.350    20120876.600
  24259652.220   127485303.285 7        43.300    24259652.100    99339196.58945
        37.150    24259653.020
  25820841.820   135689443.452 6        39.000    25820839.340   105732023.94143
        31.700    25820839.860
  25440800.560   133692306.593 4        35.350    25440799.720   104175813.91642
        26.800    25440799.760
  24999140.880   131371329.130 7        43.900    24999138.080   102367237.70044
        34.750    24999138.840
  22344243.940   117419814.035 8        46.300    22344239.800    91495982.19646
        39.250
  24168931.540   127008628.900 7        43.200    24168929.980    98967760.67145
        38.450    24168930.780
  24176937.680   127050652.901 7        44.800    24176936.540    99000504.74145
        38.100    24176937.540
  21556795.660   113281740.896 9        49.850    21556790.860    88271470.88747
        42.700    21556791.780
  25674985.640   134922948.201 5        38.850    25674985.400   105134766.70844
        34.900    25674986.240
 19  9 29 16 26  0.0000000  0 11G02G05G06G07G09G12G13G15G25G29G30
  21303748.020   111951962.854 8        48.300    21303741.360    87235278.92347
        44.400
  20122957.860   105746878.036 9        50.850    20122953.560    82400167.51548
        47.300    20122954.380
  24275464.060   127568394.808 7        42.750    24275463.940    99403943.16345
        37.750    24275464.820
  25813900.920   135652969.092 5        38.200    25813898.460   105703602.43744
        32.900    25813898.960
  25459609.160   133791146.508 4        34.850    25459608.340   104252831.96243
        29.050    25459608.460
  25017641.040   131468547.746 7        43.400    25017638.200   102442992.41944
        33.200    25017638.940
  22326148.660   117324722.678 8        46.300    22326144.520    91421885.04745
        38.350
  24146268.700   126889535.096 7        44.350    24146267.140    98874960.32445
        37.400    24146267.960
  24190963.660   127124359.656 7        42.600    24190962.600    99057938.48045
        37.100    24190963.560
  21544971.880   113219606.615 9        49.700    21544967.100    88223054.56247
        43.050    21544968.020
  25662889.100   134859380.657 6        41.350    25662888.900   105085233.50545
        36.550    25662889.780
 19  9 29 16 26 30.0000000  0 11G02G05G06G07G09G12G13G15G25G29G30
  21308914.840   111979114.456 8        48.100    21308908.160    87256435.99747
        44.750
  20125111.520   105758195.601 9        50.900    20125107.200    82408986.39048
        47.250    20125108.040
  24291299.500   127651610.389 7        42.550    24291299.400    99468786.40745
        36.800    24291300.240
  25807024.960   135616836.522 6        40.250    25807022.520   105675447.34844
        34.250    25807023.020
  25478457.080   133890193.517 4        33.800    25478456.340   104330011.44943
        31.500    25478456.460
  25036126.580   131565689.323 7        43.850    25036123.760   102518687.03844
        32.300    25036124.460
  22308110.240   117229930.223 8        46.250    22308106.080    91348020.83945
        37.500
  24123616.800   126770498.531 7        43.100    24123615.260    98782204.52546
        39.950    24123616.080
  24205035.960   127198309.668 6        39.750    24205034.960    99115561.86846
        39.550    24205035.900
  21533236.740   113157938.324 9        50.000    21533232.000    88175001.37947
        43.600    21533232.900
  25650820.240   134795958.419 7        42.050    25650820.080   105035813.53745
        36.650    25650820.980
 19  9 29 16 27  0.0000000  0 11G02G05G06G07G09G12G13G15G25G29G30
  21314133.100   112006536.542 8        47.600    21314126.420    87277803.85447
        44.750
  20127341.680   105769915.153 9        50.800    20127337.360    82418118.51048
        47.150    20127338.200
  24307159.300   127734954.103 7        43.900    24307159.160    99533729.55145
        36.900    24307160.040
  25800215.360   135581052.555 6        40.400    25800212.900   105647563.92144
        32.300    25800213.380
  25497344.080   133989447.093 5        36.850    25497344.820   104407338.07144
        32.500    25497344.340
  25054597.740   131662755.532 7        44.100    25054594.880   102594323.01044
        33.000    25054595.560
  22290130.120   117135444.123 7        44.900    22290125.940    91274395.32745
        36.700
  24100977.160   126651526.664 7        43.950    24100975.640    98689499.22145
        38.600    24100976.440
  24219154.740   127272504.295 6        40.600    24219153.780    99173375.87745
        37.300    24219154.680
  21521591.660   113096743.126 9        50.050    21521586.960    88127316.80747
        43.300    21521587.860
  25638780.400   134732688.554 6        41.050    25638780.340   104986512.30645
        37.200    25638781.200
 19  9 29 16 27 30.0000000  0 11G02G05G06G07G09G12G13G15G25G29G30
  21319402.380   112034226.751 8        48.000    21319395.720    87299380.62447
        44.650
  20129647.560   105782032.542 9        50.800    20129643.240    82427560.62448
        47.600    20129644.080
  24323042.940   127818422.622 7        43.400    24323042.720    99598769.86146
        39.350    24323043.660
  25793471.920   135545615.982 5        36.300    25793469.420   105619951.09644
        35.050    25793469.900
  25516270.360   134088907.086 3        29.800    25516271.520   104484839.36943
        31.050    25516270.920
  25073053.400   131759740.018 7        44.250    25073050.500   102669895.24343
        31.700    25073051.180
  22272208.280   117041264.412 8        46.050    22272204.060    91201008.55045
        37.300
  24078349.680   126532618.502 8        46.000    24078348.200    98596843.51245
        36.750    24078348.960
  24233318.940   127346937.384 7        42.100    24233318.020    99231375.57945
        38.900    24233318.900
  21510036.420   113036020.109 9        50.150    21510031.740    88080000.16447
        43.350    21510032.660
  25626769.540   134669570.891 7        43.600    25626769.620   104937329.60745
        38.600    25626770.420
 19  9 29 16 28  0.0000000  0 11G02G05G06G07G09G12G13G15G25G29G30
  21324723.640   112062189.979 8        48.700    21324716.980    87321170.12647
        44.250
  20132029.660   105794550.504 9        50.800    20132025.340    82437314.87448
        47.850    20132026.180
  24338951.040   127902019.684 6        41.800    24338950.780    99663910.33446
        40.750    24338951.720
  25786795.700   135510532.738 5        37.250    25786793.260   105592613.60743
        31.500    25786793.720
  25535236.580   134188572.429 4        32.900
                  25535236.780
  25091493.880   131856644.583 7        44.200    25091490.880   102745405.16643
        31.350    25091491.620
  22254346.180   116947398.485 8        46.600    22254341.920    91127866.28345
        38.100
  24055735.760   126413781.143 8        45.950    24055734.300    98504242.92745
        36.500    24055735.000
  24247528.640   127421609.833 7        42.650    24247527.780    99289561.85545
        38.300    24247528.660
  21498572.300   112975775.688 9        50.650    21498567.640    88033056.46647
        43.700    21498568.540
  25614788.880   134606612.282 7        42.100    25614789.020   104888270.96144
        35.800    25614789.800
 19  9 29 16 28 30.0000000  0 11G02G05G06G07G09G12G13G15G25G29G30
  21330096.720   112090425.590 8        48.700    21330090.060    87343171.88647
        44.150
  20134487.640   105807467.334 9        50.800    20134483.320    82447379.94248
        47.300    20134484.160
  24354883.220   127985743.831 7        42.300    24354883.080    99729149.90746
        39.000    24354883.960
  25780186.860   135475803.871 6        40.050    25780184.480   105565552.28443
        28.850    25780184.940
  25554240.900   134288439.328 4        35.050    25554240.140   104640383.96343
        28.450    25554240.580
  25109918.320   131953465.025 7        43.100    25109915.200   102820849.56644
        33.250    25109916.000
  22236544.100   116853848.002 8        46.900    22236539.820    91054969.81846
        39.350
  24033135.580   126295016.054 8        45.050    24033134.120    98411698.69845
        37.500    24033134.780
  24261783.160   127496517.652 6        41.650    24261782.340    99347931.51945
        37.700    24261783.220
  21487199.520   112916011.413 9        49.850    21487194.840    87986486.90147
        43.000    21487195.760
  25602838.940   134543814.807 6        40.200    25602839.100   104839337.82145
        37.800    25602839.880
 19  9 29 16 29  0.0000000  0 11G02G05G06G07G09G12G13G15G25G29G30
  21335521.700   112118933.721 8        48.050    21335514.980    87365385.99647
        44.500
  20137021.260   105820781.479 9        50.700    20137016.920    82457754.60148
        47.700    20137017.760
  24370839.520   128069594.594 7        43.900    24370839.500    99794488.11045
        36.700    24370840.320
  25773645.860   135441431.005 6        40.600    25773643.460   105538768.31643
        30.250    25773643.920
  25573283.240   134388495.925 5        37.400    25573281.180   104718330.10142
        27.800    25573281.920
  25128326.080   132050198.296 6        40.950    25128322.860   102896226.10844
        35.750    25128323.720
  22218802.580   116760615.791 8        46.500    22218798.300    90982321.38246
        39.750
  24010549.640   126176325.962 7        44.800    24010548.180    98319212.94346
        39.250    24010548.780
  24276081.800   127571657.342 5        38.500    24276081.020    99406481.82645
        38.550    24276081.900
  21475918.460   112856728.929 9        50.150    21475913.780    87940292.76047
        43.350    21475914.700
  25590920.020   134481180.757 6        41.400    25590920.280   104790532.08645
        37.050    25590921.040
 19  9 29 16 29 30.0000000  0 10G02G05G06G07G12G13G15G25G29G30
  21340998.260   112147712.983 8        47.300    21340991.520    87387811.36447
        44.600
  20139629.860   105834489.772 9        50.600    20139625.540    82468436.37548
        47.650    20139626.380
  24386819.600   128153570.026 6        41.750    24386819.520    99859923.41645
        37.050    24386820.380
  25767172.640   135407414.175 6        39.800    25767170.180   105512261.70544
        34.100    25767170.680
  25146716.400   132146839.962 6        41.150    25146713.180   102971531.22044
        33.900    25146714.080
  22201121.880   116667703.298 8        45.600    22201117.640    90909922.07446
        39.850
  23987978.120   126057711.847 7        43.650    23987976.660    98226786.37845
        38.500    23987977.220
  24290423.640   127647024.170 5        36.550    24290422.900    99465209.23344
        35.750    24290423.800
  21464729.280   112797929.478 9        49.850    21464724.560    87894475.01847
        43.250    21464725.500
  25579032.260   134418711.189 6        39.300    25579032.560   104741854.60744
        32.600    25579033.360
 19  9 29 16 30  0.0000000  0 11G02G05G06G07G09G12G13G15G25G29G30
  21346526.740   112176765.297 8        47.500    21346519.980    87410449.51747
        44.650
  20142313.400   105848591.786 9        50.900    20142309.100    82479424.94948
        47.650    20142309.940
  24402823.420   128237670.247 7        42.400    24402823.280    99925455.99346
        40.250    24402824.180
  25760767.680   135373756.014 5        38.500    25760765.220   105486034.62342
        27.950    25760765.720
  25611476.740                          39.550    25611476.960
        34.950    25611477.380
  25165088.860   132243387.807 7        42.500    25165085.700   103046763.24844
        33.800    25165086.580
  22183502.680   116575113.893 8        46.900    22183498.420    90837774.53245
        38.850
  23965421.500   125939176.222 7        43.250    23965420.080    98134420.99745
        38.450    23965420.580
  24304808.220   127722615.592 6        39.000    24304807.520    99524111.56245
        36.200    24304808.400
  21453632.520   112739615.606 9        49.750    21453627.780    87849035.64347
        43.500    21453628.740
  25567176.500   134356409.583 6        41.700    25567176.800   104693308.02945
        38.100    25567177.600
 19  9 29 16 30 30.0000000  0 10G02G05G06G07G12G13G15G25G29G30
  21352107.140   112206090.641 8        47.550    21352100.380    87433300.43247
        43.950
  20145071.500   105863085.649 9        50.800    20145067.200    82490718.86948
        47.950    20145068.020
  24418850.840   128321894.708 7        44.000    24418850.720    99991085.37345
        38.700    24418851.620
  25754431.260   135340458.002 6        40.800    25754428.820   105460088.09942
        27.300    25754429.300
  25183443.060   132339839.256 7        42.700    25183439.980   103121920.07444
        33.850    25183440.840
  22165945.600   116482850.920 8        47.250    22165941.320    90765881.33745
        38.450
  23942880.340   125820721.966 7        43.650    23942878.960    98042119.01645
        37.200    23942879.440
  24319234.900   127798428.260 6        41.000    24319234.280    99583186.28645
        36.350    24319235.140
  21442628.540   112681789.440 9        50.000    21442623.800    87803976.28947
        42.900    21442624.780
  25555353.120   134294278.169 7        42.600    25555353.460   104644894.12345
        36.650    25555354.260
 19  9 29 16 31  0.0000000  0 10G02G05G06G07G12G13G15G25G29G30
  21357739.780   112235690.477 8        47.950    21357733.020    87456365.23347
        44.200
  20147904.140   105877971.200 9        50.750    20147899.860    82502317.99548
        47.850    20147900.680
  24434902.040   128406243.832 7        42.350    24434901.980   100056811.89745
        38.550    24434902.840
  25748163.920   135307522.838 6        41.300    25748161.480   105434424.35543
        31.100    25748161.960
  25201778.440   132436191.944 7        42.850    25201775.480   103196999.96244
        34.050    25201776.280
  22148451.280   116390917.566 8        47.850    22148446.920    90694244.96245
        37.700
  23920355.300   125702352.576 7        44.150    23920354.020    97949883.20145
        38.000    23920354.460
  24333703.220   127874459.824 7        42.550    24333702.700    99642431.61645
        37.350    24333703.520
  21431717.980   112624454.107 9        50.200    21431713.220    87759299.41447
        43.500    21431714.220
  25543562.900   134232320.707 6        41.500    25543563.240   104596615.71845
        36.350    25543564.040
 19  9 29 16 31 30.0000000  0 10G02G05G06G07G12G13G15G25G29G30
  21363424.580   112265564.358 8        47.950    21363417.820    87479643.56247
        44.450
  20150810.960   105893246.508 9        50.700    20150806.680    82514220.82848
        47.700    20150807.500
  24450976.760   128490716.564 6        41.200    24450976.740   100122634.74246
        39.900    24450977.580
  25741965.960   135274952.138 6        39.100    25741963.460   105409044.61444
        34.550    25741963.940
  25220094.300   132532442.449 7        43.250    25220091.400   103272000.33344
        34.350    25220092.180
  22131020.120   116299316.065 8        46.900    22131015.660    90622867.17746
        39.300
  23897846.780   125584070.162 7        42.800    23897845.560    97857715.15245
        38.850    23897845.980
  24348212.460   127950706.345 7        42.550    24348212.020    99701844.39144
        35.000    24348212.800
  21420901.080   112567611.114 9        49.950    21420896.340    87715006.18347
        43.950    21420897.340
  25531806.100   134170539.217 7        42.300    25531806.380   104548474.47844
        35.900    25531807.200
 19  9 29 16 32  0.0000000  0 10G02G05G06G07G12G13G15G25G29G30
  21369161.580   112295712.399 8        47.900    21369154.800    87503135.52847
        44.600
  20153791.640   105908910.024 9        50.850    20153787.400    82526426.16148
        47.700    20153788.180
  24467074.840   128575312.186 7        42.850    24467074.840   100188553.30046
        39.050    24467075.700
  25735837.480   135242746.598 5        38.750    25735834.900   105383949.38844
        32.800    25735835.400
  25238390.220   132628587.550 7        43.700    25238387.360   103346918.42444
        33.300    25238388.140
  22113652.620   116208049.234 8        45.900    22113648.080    90551750.20346
        40.500
  23875355.180   125465876.502 7        44.550    23875353.980    97765616.25845
        38.050    23875354.400
  24362761.960   128027164.423 6        41.550    24362761.640    99761422.04245
        37.700    24362762.360
  21410178.260   112511262.477 9        50.200    21410173.540    87671098.15747
        43.400    21410174.540
  25520083.240   134108935.798 7        43.850    25520083.440   104500471.98145
        37.550    25520084.280
 19  9 29 16 32 30.0000000  0 10G02G05G06G07G12G13G15G25G29G30
  21374951.280   112326137.507 8        47.350    21374944.480    87526843.40048
        45.200
  20156846.360   105924962.599 9        50.900    20156842.120    82538934.65748
        47.500    20156842.900
  24483196.660   128660032.417 6        41.750    24483196.680   100254568.96846
        40.000    24483197.540
  25729779.300   135210910.597 6        39.350    25729776.660   105359142.12344
        33.700    25729777.200
  25256665.980   132724627.068 7        42.050    25256663.060   103421754.35444
        35.500    25256663.880
  22096349.660   116117121.997 8        47.000    22096345.160    90480897.87146
        40.150
  23852881.520   125347776.840 7        44.850    23852880.320    97673590.59845
        37.100    23852880.740
  24377351.480   128103832.884 6        41.200    24377351.220    99821163.68445
        37.700    24377351.900
  21399550.400   112455412.565 9        50.450    21399545.680    87627578.73847
        43.600    21399546.680
  25508395.320   134047515.500 6        40.550    25508395.500   104452612.11845
        38.050    25508396.340
 19  9 29 16 33  0.0000000  0 10G02G05G06G07G12G13G15G25G29G30
  21380793.880   112356840.530 8        47.600    21380787.080    87550767.83348
        45.050
  20159974.900   105941403.209 9        51.000    20159970.680    82551745.51648
        47.200    20159971.460
  24499342.080   128744877.064 6        40.200    24499342.180   100320681.64545
        38.550    24499343.020
  25723791.720   135179445.878 6        39.950    25723789.080   105334624.21745
        36.800    25723789.620
  25274921.140   132820558.210 6        41.600    25274918.200   103496505.79744
        34.800    25274919.060
  22079112.000   116026537.739 8        47.200    22079107.560    90410312.76746
        40.200
  23830426.240   125229773.792 8        46.150    23830425.040    97581640.24145
        36.400    23830425.420
  24391980.520   128180708.924 6        41.900    24391980.300    99881067.08145
        38.850    24391980.940
  21389017.840   112400063.680 9        50.150    21389013.140    87584449.74347
        43.400    21389014.120
  25496742.780   133986281.399 7        43.000    25496743.000   104404897.30344
        34.900    25496743.820
 19  9 29 16 33 30.0000000  0 10G02G05G06G07G12G13G15G25G29G30
  21386688.400   112387816.492 8        47.800    21386681.640    87574904.92347
        44.750
  20163176.040   105958225.221 9        50.950    20163171.820    82564853.58448
        47.600    20163172.580
  24515510.100   128829840.472 7        42.850    24515510.320   100386886.82146
        39.000    24515511.140
  25717874.200   135148349.137 6        40.550    25717871.560   105310393.00943
        30.650    25717872.100
  25293154.100   132916372.571 7        42.250    25293151.200   103571166.19944
        32.800    25293152.080
  22061939.120   115936293.919 8        47.700    22061934.780    90339992.92346
        39.400
  23807988.840   125111864.643 7        44.800    23807987.640    97489763.01045
        38.350    23807988.020
  24406647.480   128257784.035 7        42.550    24406647.300    99941125.57145
        38.200    24406647.920
  21378580.020   112345212.629 9        50.050    21378575.340    87541708.67347
        43.250    21378576.320
  25485125.120   133925230.646 7        43.550    25485125.220   104357325.42345
        36.400    25485126.080
 19  9 29 16 34  0.0000000  0 10G02G05G06G07G12G13G15G25G29G30
  21392636.260   112419072.578 8        47.250    21392629.540    87599260.28348
        45.100
  20166450.800   105975434.098 9        50.650    20166446.580    82578263.09448
        47.600    20166447.320
  24531701.940   128914928.890 7        44.150    24531702.180   100453189.36945
        38.000    24531703.020
  25712028.260   135117628.739 5        38.550    25712025.580   105286455.12044
        33.750    25712026.140
  25311365.620   133012074.273 6        41.800    25311362.760   103645738.83944
        34.200    25311363.640
  22044832.880   115846400.100 8        46.950    22044828.620    90269945.78346
        40.150
  23785571.060   124994058.824 7        44.800    23785569.900    97397966.36045
        38.500    23785570.260
  24421352.980   128335061.712 7        43.000    24421352.860   100001341.88145
        38.200    24421353.420
  21368238.620   112290868.263 9        50.150    21368233.940    87499362.41547
        42.800    21368234.940
  25473544.320   133864372.861 5        38.750    25473544.400   104309903.74145
        37.100    25473545.260
 19  9 29 16 34 30.0000000  0 11G02G05G06G07G12G13G15G21G25G29G30
  21398637.720   112450610.366 8        47.100    21398631.040    87623835.15048
        45.000
  20169799.160   105993029.747 9        50.500    20169794.940    82591973.97948
        47.250    20169795.680
  24547917.740   129000142.995 7        42.250    24547917.960   100519589.85645
        38.500    24547918.800
  25706254.420   135087287.344 5        38.600    25706251.760   105262812.49344
        33.000    25706252.320
  25329555.340   133107661.774 6        40.250    25329552.580   103720222.54244
        34.700    25329553.420
  22027794.020   115756860.478 8        46.350    22027789.800    90200174.67046
        41.050
  23763173.660   124876360.099 7        43.900    23763172.540    97306253.12646
        39.000    23763172.860
  26081585.060   137059645.696 6        39.400    26081579.900   106799697.47944
        32.050
  24436096.680   128412539.858 7        43.250    24436096.600   100061714.31544
        34.750    24436097.100
  21357994.260   112237033.862 9        50.250    21357989.580    87457413.52747
        43.250    21357990.580
  25462000.880   133803711.737 7        43.050    25462001.080   104262635.30945
        38.300    25462001.900
 19  9 29 16 35  0.0000000  0 11G02G05G06G07G12G13G15G21G25G29G30
  21404691.460   112482423.166 8        47.100    21404684.840    87648624.33647
        44.350
  20173219.380   106011003.113 9        50.500    20173215.140    82605979.19148
        46.950    20173215.900
  24564156.040   129085475.307 6        39.850    24564156.260   100586082.47846
        39.050    24564157.100
  25700551.620   135057319.542 6        39.750    25700548.980   105239461.02744
        32.000    25700549.560
  25347721.440   133203125.226 6        40.300    25347718.800   103794609.58344
        34.600    25347719.600
  22010821.760   115667670.792 8        47.200    22010817.540    90130676.24546
        39.900
  23740795.780   124758764.072 8        45.900    23740794.680    97214619.99145
        37.900    23740794.980
  26066830.400   136982108.497 5        37.000    26066824.660   106739278.76944
        32.950
  24450876.540   128490208.192 6        39.100    24450876.440   100122235.05245
        38.600    24450876.920
  21347846.060   112183704.755 9        50.500    21347841.380    87415858.37747
        43.100    21347842.380
  25450493.900   133743242.774 6        41.050    25450494.100   104215516.77044
        34.150    25450494.900
 19  9 29 16 35 30.0000000  0 11G02G05G06G07G12G13G15G21G25G29G30
  21410798.240   112514514.672 8        47.800    21410791.660    87673630.70047
        44.350
  20176711.900   106029356.417 9        50.600    20176707.660    82620280.46348
        47.500    20176708.400
  24580417.240   129170928.495 7        42.000    24580417.540   100652669.33345
        38.000    24580418.380
  25694920.880   135027730.337 6        40.600    25694918.200   105216404.57943
        30.600    25694918.800
  25365864.040   133298465.088 6        40.900    25365861.480   103868900.28444
        35.000    25365862.260
  21993917.220   115578837.024 8        47.600    21993913.000    90061455.16046
        40.150
  23718438.580   124641276.411 8        45.100    23718437.520    97123071.19745
        37.800    23718437.800
  26052063.060   136904517.969 7        42.700    26052059.520   106678823.52344
        35.600
  24465692.580   128568066.753 5        37.700    24465692.540   100182904.05245
        37.750    24465692.980
  21337795.000   112130885.947 9        50.300    21337790.280    87374700.85247
        43.600    21337791.280
  25439024.760   133682972.231 5        37.700    25439024.940   104168552.67545
        37.550    25439025.740
 19  9 29 16 36  0.0000000  0 11G02G05G06G07G12G13G15G21G25G29G30
  21416958.240   112546885.627 8        48.550    21416951.660    87698854.80747
        44.250
  20180276.500   106048088.561 9        50.700    20180272.260    82634876.93048
        47.650    20180273.020
  24596701.420   129256502.188 7        43.250    24596701.720   100719350.07645
        37.300    24596702.580
  25689362.520   134998521.195 6        40.850    25689359.820   105193644.27044
        33.400    25689360.420
  25383982.720   133393679.081 6        41.750    25383980.200   103943092.88544
        32.450    25383981.020
  21977080.980   115490362.125 8        47.750    21977076.760    89992513.72746
        41.150
  23696102.460   124523899.644 7        44.800    23696101.380    97031608.87845
        37.900    23696101.640
  26037284.320   136826856.622 4        34.500    26037280.880   106618308.19244
        33.300
  24480544.180   128646112.191 6        39.500    24480544.140   100243718.59544
        35.850    24480544.580
  21327841.440   112078579.592 9        50.250    21327836.680    87333942.65347
        43.400    21327837.700
  25427593.800   133622902.523 7        43.850    25427594.080   104121745.14145
        38.250    25427594.860
 19  9 29 16 36 30.0000000  0 10G02G05G06G07G12G13G15G25G29G30
  21423171.120   112579534.406 8        48.050    21423164.540    87724295.39147
        44.850
  20183912.620   106067196.385 9        50.550    20183908.380    82649766.12848
        47.800    20183909.140
  24613008.140   129342194.194 6        41.800    24613008.320   100786122.94945
        37.600    24613009.240
  25683876.600   134969692.659 6        39.600    25683873.880   105171180.47743
        29.700    25683874.500
  25402076.460   133488761.935 7        42.700    25402073.940   104017183.30244
        34.250    25402074.800
  21960313.260   115402247.090 8        47.900    21960309.040    89923852.66846
        40.850
  23673787.640   124406634.734 7        43.150    23673786.540    96940233.68645
        37.750    23673786.800
  24495430.420   128724339.729 6        41.600    24495430.360   100304675.08145
        38.650    24495430.800
  21317985.500   112026786.251 9        50.200    21317980.720    87293584.21447
        43.650    21317981.740
  25416201.300   133563034.599 7        42.250    25416201.560   104075094.87544
        35.500    25416202.340
 19  9 29 16 37  0.0000000  0 10G02G05G06G07G12G13G15G25G29G30
  21429437.660   112612464.954 8        47.700    21429431.060    87749955.54047
        44.750
  20187620.560   106086681.754 9        50.500    20187616.360    82664949.52448
        47.450    20187617.100
  24629337.940   129428007.502 6        41.350    24629338.020   100852990.33845
        37.850    24629339.020
  25678463.840   134941248.626 6        40.750    25678461.120   105149016.29243
        28.700    25678461.760
  25420145.460   133583714.717 7        42.450    25420142.900   104091172.36144
        35.250    25420143.820
  21943615.240   115314498.366 8        47.500    21943611.020    89855477.05346
        39.950
  23651495.240   124289487.875 7        44.550    23651494.140    96848950.50445
        38.150    23651494.400
  24510351.420   128802749.685 6        41.850    24510351.340   100365773.68245
        36.350    24510351.820
  21308228.220   111975511.485 9        49.550    21308223.440    87253629.86747
        44.500    21308224.460
  25404848.420   133503374.870 6        39.100    25404848.580   104028606.78444
        32.950    25404849.380
 19  9 29 16 37 30.0000000  0 11G02G05G06G07G12G13G15G21G25G29G30
  21435757.980   112645678.244 8        48.050    21435751.380    87775836.00447
        44.650
  20191400.220   106106543.978 9        50.650    20191396.020    82680426.57948
        46.750    20191396.760
  24645690.820   129513942.127 7        43.150    24645690.880   100919952.32944
        35.700    24645691.920
  25673124.780   134913191.758 6        40.800    25673122.020   105127153.85043
        30.250    25673122.660
  25438189.280   133678535.205 6        39.900    25438186.700   104165058.33644
        33.550    25438187.660
  21926987.480   115227119.095 8        47.100    21926983.280    89787389.34646
        39.600
  23629225.940   124172462.177 8        45.450    23629224.840    96757761.70145
        38.400    23629225.100
  25992879.480   136593505.274 5        36.950    25992878.700   106436463.08044
        35.350
  24525306.620   128881339.258 7        43.600    24525306.500   100427012.20644
        35.550    24525307.020
  21298570.040   111924757.467 9        49.850    21298565.280    87214081.29447
        43.750    21298566.280
  25393535.680   133443926.138 7        43.700    25393535.760   103982283.14845
        37.700    25393536.600
 19  9 29 16 38  0.0000000  0 11G02G05G06G07G12G13G15G21G25G29G30
  21442130.900   112679167.868 8        47.500    21442124.300    87801931.78848
        45.250
  20195250.020   106126774.942 9        50.700    20195245.820    82696190.96748
        46.750    20195246.580
  24662065.380   129599990.564 6        41.750    24662065.480   100987002.98945
        38.000    24662066.500
  25667858.340   134885516.655 6        41.600    25667855.540   105105588.91743
        31.950    25667856.160
  25456206.040   133773213.710 6        39.200    25456203.540   104238833.68645
        38.300    25456204.480
  21910429.280   115140105.250 8        47.600    21910425.100    89719586.36746
        41.150
  23606978.820   124055553.050 8        45.550    23606977.700    96666663.76546
        39.350    23606977.960
  25978054.420   136515598.362 5        37.050    25978052.400   106375756.52244
        33.500
  24540293.980   128960098.166 7        43.600    24540293.820   100488382.70545
        36.950    24540294.380
  21289010.020   111874519.486 9        50.050    21289005.300    87174934.83447
        44.150    21289006.300
  25382262.320   133384684.127 6        40.600    25382262.360   103936120.60544
        34.350    25382263.180
 19  9 29 16 38 30.0000000  0 11G02G05G06G07G12G13G15G21G25G29G30
  21448559.220   112712948.844 8        47.800    21448552.640    87828254.61247
        44.850
  20199172.500   106147387.753 9        50.600    20199168.280    82712252.89448
        46.950    20199169.060
  24678464.360   129686167.299 6        40.400    24678464.520   101054153.60645
        38.900    24678465.520
  25662667.760   134858239.944 6        39.700    25662664.880   105084334.36844
        33.650    25662665.520
  25474198.120   133867762.587 5        38.400    25474195.740   104312508.02945
        38.750    25474196.660
  21893944.000   115053474.632 8        47.950    21893939.840    89652082.01046
        40.500
  23584757.220   123938777.941 7        44.100    23584756.060    96575670.20546
        39.300    23584756.340
  25963219.920   136437640.651 5        36.800    25963216.820   106315010.25341
        25.650
  24555315.840   129039038.132 6        41.750    24555315.700   100549894.28645
        36.650    24555316.280
  21279551.460   111824814.499 9        50.350    21279546.800    87136203.67947
        44.250    21279547.780
  25371031.640   133325666.594 6        40.750    25371031.680   103890132.93645
        36.250    25371032.500
 19  9 29 16 39  0.0000000  0 11G02G05G06G07G12G13G15G21G25G29G30
  21455040.100   112747006.143 8        47.850    21455033.560    87854792.75948
        45.050
  20203164.460   106168365.576 9        50.550    20203160.200    82728599.24548
        47.150    20203160.980
  24694884.660   129772456.156 6        41.500    24694884.840   101121391.51446
        40.050    24694885.820
  25657550.340   134831347.570 6        40.250    25657547.420   105063379.29044
        34.700    25657548.060
  25492161.980   133962163.211 6        40.250    25492159.780   104386066.84444
        35.650    25492160.640
  21877529.140   114967214.063 8        47.600    21877525.000    89584866.01246
        41.650
  23562558.680   123822123.983 8        45.850    23562557.440    96484771.11845
        38.700    23562557.740
  25948372.760   136359617.747 6        40.200    25948368.820   106254213.28143
        31.600
  24570368.500   129118140.242 6        39.300    24570368.380   100611532.23744
        35.500    24570368.960
  21270191.660   111775628.513 9        50.700    21270187.040    87097876.93447
        44.300    21270188.000
  25359841.040   133266860.191 7        43.250    25359841.040   103844309.85545
        36.150    25359841.880
 19  9 29 16 39 30.0000000  0 11G02G05G06G07G12G13G15G21G25G29G30
  21461574.960   112781346.920 8        48.300    21461568.400    87881551.78347
        44.350
  20207226.860   106189713.614 9        50.400    20207222.580    82745234.07648
        47.000    20207223.380
  24711327.440   129858863.272 7        42.700    24711327.640   101188721.62846
        39.250    24711328.660
  25652507.580   134804847.727 6        40.600    25652504.680   105042730.08844
        35.050    25652505.300
  25510098.480   134056420.089 6        41.000    25510096.420   104459513.69244
        33.900    25510097.220
  21861186.560   114881333.310 8        47.850    21861182.460    89517945.96946
        41.350
  23540385.020   123705600.622 8        46.300    23540383.700    96393973.76145
        37.050    23540384.020
  25933514.080   136281535.403 4        35.600    25933509.540   106193370.04343
        30.350
  24585452.700   129197408.056 5        37.350    24585452.600   100673299.35045
        37.700    24585453.200
  21260932.340   111726970.521 9        50.600    21260927.740    87059961.62047
        43.750    21260928.700
  25348692.560   133208274.509 6        41.100    25348692.520   103798658.68645
        37.550    25348693.400
 19  9 29 16 40  0.0000000  0 11G02G05G06G07G12G13G15G21G25G29G30
  21468164.780   112815976.563 8        47.850    21468158.220    87908535.89847
        44.000
  20211360.440   106211435.750 9        50.300    20211356.160    82762160.41148
        47.000    20211356.960
  24727793.680   129945393.393 6        41.250    24727793.920   101256147.57445
        38.050    24727794.920
  25647540.720   134778746.830 7        42.050    25647537.860   105022391.74943
        31.800    25647538.460
  25528008.160   134150535.573 6        40.350    25528006.220   104532850.29744
        32.550    25528006.960
  21844917.740   114795840.089 8        47.750    21844913.680    89451327.89646
        40.600
  23518237.640   123589215.270 8        47.100    23518236.240    96303283.92045
        37.700    23518236.580
  25918645.280   136203399.529 4        34.450    25918640.600   106132484.86443
        28.650
  24600568.780   129276843.361 6        39.600    24600568.720   100735196.99545
        37.550    24600569.320
  21251774.900   111678847.743 9        50.500    21251770.300    87022463.34847
        44.250    21251771.260
  25337587.600   133149917.285 7        42.100    25337587.620   103753185.47245
        38.200    25337588.480
 19  9 29 16 40 30.0000000  0 11G02G05G06G07G12G13G15G21G25G29G30
  21474807.580   112850884.581 8        47.700    21474800.980    87935736.92947
        43.950
  20215562.900   106233519.742 9        50.500    20215558.620    82779368.70348
        46.950    20215559.420
  24744281.060   130032035.070 6        40.100    24744281.440   101323660.48146
        39.150    24744282.420
  25642648.040   134753035.689 6        40.950    25642645.180   105002357.11043
        31.100    25642645.780
  25545888.320   134244495.891 6        41.250    25545886.400   104606065.99943
        29.650    25545887.140
  21828721.120   114710726.334 8        47.850    21828717.060    89385005.52046
        39.950
  23496115.000   123472959.886 8        47.000    23496113.500    96212695.35245
        37.500    23496113.860
  25903764.140   136125199.480 5        38.000    25903759.440   106071549.75142
        27.500
  24615714.100   129356432.271 6        40.050    24615714.080   100797214.19445
        37.800    24615714.660
  21242717.560   111631251.014 9        50.350    21242712.960    86985374.98747
        43.850    21242713.900
  25326524.440   133091780.037 7        43.950    25326524.460   103707883.71845
        36.400    25326525.320
 19  9 29 16 41  0.0000000  0 11G02G05G06G07G12G13G15G21G25G29G30
  21481505.020   112886079.863 8        47.850    21481498.380    87963161.80147
        43.300
  20219835.500   106255972.467 9        50.400    20219831.220    82796864.32648
        47.050    20219832.020
  24760791.160   130118796.405 6        41.150    24760791.720   101391266.63845
        38.200    24760792.660
  25637831.500   134727724.629 6        40.750    25637828.620   104982634.23944
        33.500    25637829.220
  25563740.080   134338306.979 5        38.900    25563738.140   104679165.40844
        35.500    25563738.920
  21812598.900   114626003.486 8        48.550    21812594.840    89318987.72246
        39.850
  23474019.260   123356845.792 7        44.850    23474017.680    96122216.87546
        39.700    23474018.040
  25888872.340   136046943.584 5        38.100    25888867.640   106010571.14544
        35.650
  24630889.620   129436180.070 7        42.550    24630889.660   100859355.27545
        38.250    24630890.220
  21233762.280   111584190.731 9        50.050    21233757.700    86948704.63947
        43.650    21233758.640
  25315505.360   133033874.171 6        41.250    25315505.360   103662762.25745
        37.150    25315506.220
 19  9 29 16 41 30.0000000  0 11G02G05G06G07G12G13G15G21G25G29G30
  21488256.640   112921559.840 8        47.850    21488249.940    87990808.52047
        43.650
  20224177.480   106278789.707 9        50.250    20224173.200    82814643.98848
        47.250    20224174.020
  24777323.400   130205673.718 6        41.650    24777324.100   101458963.17045
        36.800    24777325.020
  25633090.620   134702811.216 6        41.200    25633087.720   104963221.22943
        31.400    25633088.320
  25581562.320   134431962.972 6        39.700    25581560.360   104752143.95344
        34.150    25581561.160
  21796551.000   114541671.113 8        48.300    21796546.880    89253274.18946
        40.300
  23451950.240   123240872.348 7        44.850    23451948.560    96031848.00846
        40.550    23451948.960
  25873969.380   135968628.962 5        37.300    25873964.800   105949546.81343
        29.700
  24646094.240   129516080.338 7        42.800    24646094.360   100921615.18945
        37.850    24646094.900
  21224908.860   111537665.693 9        49.900    21224904.280    86912451.36747
        44.000    21224905.220
  25304530.240   132976199.179 6        40.200    25304530.280   103617820.61144
        35.700    25304531.140
 19  9 29 16 42  0.0000000  0 11G02G05G06G07G12G13G15G21G25G29G30
  21495062.440   112957324.565 8        47.950    21495055.700    88018677.11347
        43.300
  20228588.500   106301969.766 9        50.000    20228584.220    82832706.34948
        47.050    20228585.060
  24793877.680   130292666.471 7        42.750    24793878.480   101526749.56144
        35.300    24793879.360
  25628425.720   134678296.982 7        42.350    25628422.800   104944119.20643
        31.750    25628423.420
  25599354.560   134525461.323 5        38.800    25599352.620   104824999.64344
        32.350    25599353.440
  21780577.940   114457731.882 8        47.750    21780573.740    89187867.01246
        40.800
  23429908.420   123125041.721 8        45.800    23429906.660    95941590.43146
        39.150    23429907.080
  25859055.460   135890256.035 5        38.300    25859050.960   105888476.99244
        33.750
  24661327.180   129596129.776 6        41.800    24661327.380   100983991.26444
        35.300    24661327.900
  21216157.600   111491677.648 9        50.050    21216153.060    86876616.54147
        43.750    21216153.980
  25293599.420   132918757.416 7        42.800    25293599.480   103573060.75144
        34.900    25293600.380
 19  9 29 16 42 30.0000000  0 11G02G05G06G07G12G13G15G21G25G29G30
  21501921.760   112993370.551 8        47.800    21501914.960    88046764.88947
        43.050
  20233067.540   106325507.243 9        50.300    20233063.280    82851047.22648
        46.950    20233064.120
  24810453.060   130379770.119 7        42.050    24810453.920   101594622.38145
        37.500    24810454.800
  25623836.480   134654180.219 7        42.400    25623833.560   104925326.93543
        28.300    25623834.180
  25617115.460   134618795.254 7        42.100    25617113.560   104897727.25644
        34.200    25617114.400
  21764679.380   114374184.475 8        47.500    21764675.140    89122765.18646
        39.700
  23407893.580   123009352.943 8        46.550    23407891.780    95851443.34845
        37.500    23407892.200
  25844129.780   135811821.137 5        37.950    25844125.320   105827358.92644
        34.950
  24676587.120   129676321.142 6        40.750    24676587.340   101046477.96245
        37.550    24676587.860
  21207508.240   111446225.043 9        50.650    21207503.720    86841198.93347
        44.050    21207504.640
  25282712.780   132861547.771 7        42.000    25282712.820   103528481.80945
        37.400    25282713.740
 19  9 29 16 43  0.0000000  0 11G02G05G06G07G12G13G15G21G25G29G30
  21508836.340   113029706.838 8        47.500    21508829.480    88075078.85747
        43.550
  20237615.920   106349409.236 9        50.600    20237611.680    82869672.15148
        46.900    20237612.500
  24827051.000   130466992.470 6        39.700    24827051.880   101662587.80645
        38.550    24827052.740
  25619324.620   134630470.171 7        42.350    25619321.660   104906851.60044
        32.850    25619322.300
  25634846.280   134711970.971 6        40.850    25634844.440   104970331.59144
        34.600    25634845.260
  21748857.500   114291039.960 8        46.700    21748853.260    89057977.25946
        41.200
  23385907.820   122893816.997 8        47.100    23385905.940    95761415.36045
        37.850    23385906.400
  25829193.980   135733332.720 5        37.550    25829189.580   105766199.12544
        34.250
  24691875.140   129756659.722 6        39.650    24691875.380   101109079.41945
        37.700    24691875.940
  21198962.700   111401317.859 9        50.850    21198958.180    86806206.32447
        44.200    21198959.100
  25271872.500   132804581.274 5        38.150    25271872.540   103484092.28345
        36.900    25271873.420
 19  9 29 16 43 30.0000000  0 11G02G05G06G07G12G13G15G21G25G29G30
  21515805.900   113066332.183 8        48.000    21515798.980    88103618.08147
        43.000
  20242233.140   106373672.975 9        50.550    20242228.880    82888578.97548
        47.050    20242229.720
  24843671.120   130554331.627 6        41.800    24843672.100   101730644.21745
        36.500    24843672.920
  25614890.080   134607166.485 7        43.600    25614887.080   104888692.89044
        34.800    25614887.740
  25652546.240   134804984.392 6        41.150    25652544.500   105042809.44644
        33.700    25652545.260
  21733112.500   114208299.753 8        46.850    21733108.280    88993504.40046
        40.850
  23363951.400   122778434.976 8        47.950    23363949.420    95671507.29845
        36.950    23363949.900
  25814247.740   135654789.641 5        37.250    25814243.420   105704996.74444
        35.050
  24707190.200   129837140.777 6        39.800    24707190.420   101171791.88445
        37.700    24707191.020
  21190521.000   111356956.271 9        50.850    21190516.480    86771638.85347
        44.150    21190517.400
  25261078.600   132747858.959 7        42.400    25261078.640   103439893.06745
        36.350    25261079.520
 19  9 29 16 44  0.0000000  0 11G02G05G06G07G12G13G15G21G25G29G30
  21522829.380   113103240.654 8        47.900    21522822.380    88132377.91047
        43.500
  20246917.800   106398290.880 9        50.250    20246913.500    82907761.75048
        47.400    20246914.340
  24860312.280   130641781.153 7        43.050    24860313.340   101798786.58244
        35.600    24860314.120
  25610532.080   134584264.952 7        42.750    25610529.060   104870847.53144
        34.850    25610529.720
  25670213.700   134897826.867 6        41.100    25670212.120   105115154.06144
        34.750    25670212.780
  21717443.820   114125960.586 8        47.650    21717439.600    88929344.04146
        40.850
  23342023.660   122663203.667 8        46.550    23342021.600    95581716.67045
        38.100    23342022.080
  25799290.060   135576186.481 5        37.300    25799285.840   105643747.51045
        36.550
  24722530.620   129917755.062 6        39.850    24722530.780   101234608.12045
        37.200    24722531.400
  21182182.380   111313136.165 9        50.700    21182177.800    86737493.30347
        43.950    21182178.720
  25250330.480   132691377.405 7        42.000    25250330.480   103395881.50344
        34.850    25250331.360
 19  9 29 16 44 30.0000000  0 11G02G05G06G07G12G13G15G21G25G29G30
  21529907.860   113140438.328 8        47.900    21529900.800    88161363.11047
        43.150
  20251670.640   106423267.118 9        50.200    20251666.320    82927223.74748
        47.100    20251667.180
  24876975.380   130729345.838 6        41.000    24876976.360   101867018.69744
        35.800    24876977.160
  25606251.920   134561772.499 6        41.300    25606248.880   104853320.94644
        35.600    25606249.540
  25687849.160   134990501.230 6        41.850    25687847.680   105187367.72644
        34.100    25687848.260
  21701853.040   114044030.597 8        47.750    21701848.820    88865502.49546
        40.150
  23320126.100   122548131.178 8        46.700    23320123.960    95492049.81845
        38.850    23320124.480
  25784321.900   135497528.561 6        39.900    25784317.760   105582455.69244
        34.850
  24737896.960   129998505.017 6        40.650    24737897.100   101297530.15145
        38.750    24737897.740
  21173948.200   111269865.018 9        50.250    21173943.580    86703775.52647
        43.550    21173944.500
  25239629.760   132635144.778 5        38.950    25239629.700   103352063.91345
        36.000    25239630.580
 19  9 29 16 45  0.0000000  0 11G02G05G06G07G12G13G15G21G25G29G30
  21537042.300   113177929.914 8        47.750    21537035.180    88190577.32147
        43.650
  20256492.140   106448604.268 9        50.250    20256487.840    82946966.96948
        47.550    20256488.700
  24893660.980   130817029.171 5        37.200    24893661.880   101935343.37545
        37.400    24893662.740
  25602050.640   134539694.576 7        42.250    25602047.600   104836117.33145
        36.900    25602048.300
  25705452.900   135083008.867 5        38.600    25705451.480   105259451.48343
        30.700    25705452.020
  21686341.360   113962516.242 8        47.100    21686337.160    88801984.81246
        39.700
  23298259.940   122433223.832 8        47.550    23298257.760    95402511.67345
        38.550    23298258.280
  25769344.220   135418820.498 5        38.750    25769340.100   105521124.77744
        34.100
  24753289.180   130079391.364 6        40.300    24753289.280   101360558.39744
        35.950    24753289.940
  21165819.540   111227148.540 9        50.150    21165814.900    86670489.96347
        43.550    21165815.820
  25228977.580   132579167.620 6        40.000    25228977.540   103308445.39345
        38.150    25228978.440
 19  9 29 16 45 30.0000000  0 11G02G05G06G07G12G13G15G21G25G29G30
  21544230.160   113215702.423 8        47.300    21544223.000    88220010.45147
        43.900
  20261379.760   106474288.811 9        50.500    20261375.480    82966980.88248
        46.800    20261376.320
  24910366.740   130904818.369 7        42.400    24910367.720   102003750.44645
        37.150    24910368.580
  25597926.100   134518019.909 7        42.900    25597923.080   104819227.95844
        32.050    25597923.780
  25723022.180   135175335.153 7        43.000    25723020.820   105331393.86544
        34.200    25723021.320
  21670906.940   113881407.988 8        47.400    21670902.760    88738783.59046
        40.550
  23276423.400   122318472.047 8        46.900    23276421.180    95313094.75445
        38.250    23276421.700
  25754354.640   135340050.159 5        37.900    25754350.580   105459745.34744
        34.850
  24768704.420   130160398.516 6        40.850    24768704.480   101423680.72245
        37.550    24768705.140
  21157794.400   111184976.094 9        50.150    21157789.760    86637628.31347
        43.000    21157790.660
  25218372.140   132523436.085 6        40.600    25218372.080   103265018.34845
        37.350    25218372.980
 19  9 29 16 46  0.0000000  0 11G02G05G06G07G12G13G15G21G25G29G30
  21551473.500   113253766.489 8        47.200    21551466.340    88249670.75047
        43.850
  20266334.880   106500328.048 9        50.450    20266330.600    82987271.19748
        46.850    20266331.420
  24927094.340   130992722.201 7        43.950    24927095.420   102072246.86744
        35.350    24927096.220
  25593880.300   134496759.042 7        43.050    25593877.280   104802661.03244
        34.350    25593878.000
  25740558.200   135267486.640 7        43.700    25740556.840   105403200.06143
        29.600    25740557.340
  21655552.080   113800717.980 8        48.100    21655547.940    88675908.29646
        40.400
  23254618.740   122203887.823 8        45.950    23254616.540    95223808.34346
        39.700    23254617.040
  25739355.080   135261227.000 5        38.400    25739351.060   105398324.69445
        36.250
  24784143.880   130241532.648 7        42.350    24784143.920   101486902.11245
        36.400    24784144.620
  21149874.840   111143358.841 9        50.150    21149870.220    86605199.29347
        43.650    21149871.140
  25207815.880   132467962.320 6        39.550    25207815.900   103221791.96445
        38.200    25207816.800
 19  9 29 16 46 30.0000000  0 11G02G05G06G07G12G13G15G21G25G29G30
  21558771.760   113292119.202 8        48.000    21558764.620    88279555.96247
        43.700
  20271356.760   106526718.114 9        50.150    20271352.480    83007834.88048
        46.900    20271353.300
  24943843.140   131080737.177 6        40.550    24943844.220   102140829.89145
        37.550    24943844.980
  25589913.040   134475910.844 7        42.600    25589910.000   104786415.67344
        33.550    25589910.720
  25758060.000   135359458.505 6        40.700    25758058.600   105474866.36342
        27.850    25758059.080
  21640276.760   113720445.808 8        47.350    21640272.620    88613358.58646
        41.550
  23232845.920   122089470.900 8        47.050    23232843.660    95134652.33645
        38.000    23232844.180
  25724344.940   135182348.754 5        37.700    25724340.900   105336861.25743
        30.900
  24799606.280   130322787.728 6        40.850    24799606.320   101550217.64144
        33.600    24799607.000
  21142060.760   111102295.773 9        50.000    21142056.180    86573202.09547
        43.600    21142057.100
  25197308.460   132412745.760 7        44.200    25197308.540   103178766.09344
        35.000    25197309.440
 19  9 29 16 47  0.0000000  0 11G02G05G06G07G12G13G15G21G25G29G30
  21566125.500   113330763.390 8        47.700    21566118.360    88309668.31647
        44.500
  20276445.560   106553459.967 9        50.150    20276441.300    83028672.68248
        46.550    20276442.120
  24960613.480   131168865.370 6        40.150    24960614.440   102209501.11644
        35.150    24960615.260
  25586025.000   134455478.857 7        42.450    25586021.940   104770494.63144
        34.050    25586022.660
  25775527.660   135451250.591 6        39.550    25775526.260   105546392.50244
        32.100    25775526.720
  21625081.980   113640596.786 8        48.000    21625077.860    88551138.58846
        40.650
  23211105.960   121975226.505 8        47.400    23211103.680    95045630.76045
        37.800    23211104.180
  25709324.960   135103418.140 6        39.400    25709320.900   105275356.88443
        29.900
  24815091.560   130404163.040 5        37.250    24815091.580   101613626.81644
        35.450    24815092.240
  21134352.880   111061791.037 9        50.000    21134348.340    86541639.98447
        44.400    21134349.260
  25186850.940   132357791.558 7        42.900    25186850.880   103135944.78444
        33.600    25186851.820
 19  9 29 16 47 30.0000000  0 10G02G05G06G07G12G13G15G21G29G30
  21573534.340   113369697.152 8        48.050    21573527.260    88340006.30047
        44.750
  20281600.600   106580549.840 9        50.050    20281596.340    83049781.66448
        47.000    20281597.160
  24977404.680   131257103.779 6        41.150    24977405.540   102278258.32044
        35.500    24977406.420
  25582215.960   134435462.182 7        42.000    25582212.900   104754897.19244
        34.950    25582213.640
  25792960.180   135542858.182 6        40.300    25792958.800   105617774.87244
        35.150    25792959.260
  21609967.800   113561171.077 8        47.600    21609963.680    88489248.40846
        41.050
  23189398.800   121861154.785 8        45.950    23189396.420    94956743.72646
        39.100    23189396.960
  25694294.640   135024433.241 5        38.300    25694290.520   105213810.25144
        32.250
  21126751.180   111021844.105 9        50.250    21126746.700    86510512.50648
        45.000    21126747.620
  25176443.520   132303100.076 6        40.350    25176443.320   103093328.10645
        38.750    25176444.300
 19  9 29 16 48  0.0000000  0 10G02G05G06G07G12G13G15G21G29G30
  21580997.800   113408917.875 8        48.200    21580990.760    88370567.89747
        44.650
  20286821.040   106607983.419 9        50.200    20286816.760    83071158.47948
        46.300    20286817.600
  24994216.260   131345449.063 7        43.050    24994217.060   102347098.73944
        35.250    24994218.000
  25578485.640   134415859.195 7        42.950    25578482.580   104739622.14544
        35.000    25578483.320
  25810356.460   135634275.262 6        41.650    25810355.100   105689008.78944
        35.650    25810355.560
  21594934.120   113482168.547 8        47.250    21594930.000    88427688.00846
        41.650
  23167724.540   121747255.804 8        45.950    23167722.100    94867991.32046
        39.700    23167722.640
  25679253.520   134945391.462 6        40.300    25679249.400   105152219.25844
        33.500
  21119255.460   110982453.859 9        50.550    21119251.020    86479818.80247
        44.350    21119251.920
  25166085.980   132248670.893 7        42.700    25166085.760   103050915.81245
        36.300    25166086.760
 19  9 29 16 48 30.0000000  0 11G02G05G06G07G12G13G15G21G25G29G30
  21588516.860   113448430.502 8        47.750    21588509.860    88401356.93247
        44.750
  20292107.560   106635764.183 9        50.150    20292103.280    83092805.81748
        46.600    20292104.100
  25011049.020   131433905.201 6        40.000    25011049.820   102416025.56245
        37.250    25011050.760
  25574835.140   134396675.735 7        43.100    25574832.080   104724673.99044
        34.850    25574832.820
  25827716.920   135725504.520 6        39.500    25827715.600   105760096.41444
        33.300    25827716.040
  21579982.360   113403596.523 8        47.650    21579978.240    88366463.06246
        41.300
  23146084.420   121633536.366 8        46.950    23146081.900    94779378.84546
        39.500    23146082.460
  25664202.540   134866297.852 6        40.150    25664198.440   105090587.88644
        34.700
  24861677.920   130648946.241 5        38.350    24861677.180   101804419.83144
        32.650    24861677.620
  21111866.820   110943626.257 9        50.800    21111862.380    86449563.53647
        44.600    21111863.280
  25155779.680   132194511.124 6        39.700    25155779.440   103008713.47644
        35.700    25155780.400
 19  9 29 16 49  0.0000000  0 11G02G05G06G07G12G13G15G21G25G29G30
  21596092.740   113488241.784 8        47.300    21596085.780    88432378.67648
        45.000
  20297461.040   106663896.826 9        50.250    20297456.760    83114727.35348
        46.650    20297457.580
  25027903.960   131522478.010 6        39.300    25027904.760   102485043.28745
        36.350    25027905.640
  25571265.900   134377919.299 6        41.150    25571262.800   104710058.64544
        34.450    25571263.560
  25845042.540   135816550.327 5        38.850    25845041.300   105831040.97744
        32.300    25845041.700
  21565114.120   113325463.432 8        47.400    21565110.000    88305580.14846
        41.350
  23124480.180   121520005.691 8        47.300    23124477.600    94690913.47745
        38.600    23124478.160
  25649142.960   134787159.075 6        40.050    25649138.880   105028921.32145
        36.450
  24877246.500   130730768.174 6        40.950    24877245.300   101868177.09345
        37.550    24877246.680
  21104586.800   110905369.438 9        50.900    21104582.380    86419753.03048
        45.000    21104583.260
  25145526.360   132140629.858 5        38.550    25145526.100   102966728.17245
        37.100    25145527.060
 19  9 29 16 49 30.0000000  0 11G02G05G06G07G12G13G15G21G25G29G30
  21603724.120   113528344.794 8        46.950    21603717.220    88463627.73948
        45.250
  20302879.840   106692372.736 9        49.950    20302875.560    83136916.36148
        46.850    20302876.380
  25044779.660   131611160.104 6        39.200    25044780.420   102554146.18344
        34.300    25044781.300
  25567776.880   134359584.536 6        40.150    25567773.760   104695771.84944
        34.150    25567774.520
  25862331.320   135907402.925 4        34.500    25862330.100   105901835.08243
        30.250    25862330.500
  21550328.660   113247765.475 8        47.700    21550324.540    88245036.30646
        41.500
  23102911.160   121406659.692 8        47.000    23102908.580    94602591.94945
        38.050    23102909.140
  25634073.480   134707968.318 5        37.850    25634069.400   104967214.24845
        36.800
  24892835.680   130812693.380 6        41.850    24892835.380   101932014.85745
        38.000    24892836.420
  21097414.480   110867678.306 9        50.650    21097410.060    86390383.30647
        44.950    21097410.920
  25135325.120   132087022.647 6        39.950    25135324.860   102924956.44245
        36.600    25135325.820
 19  9 29 16 50  0.0000000  0 11G02G05G06G07G12G13G15G21G25G29G30
  21611409.020   113568729.137 8        47.800    21611402.180    88495096.03047
        44.700
  20308361.700   106721180.102 9        49.800    20308357.440    83159363.64348
        46.600    20308358.260
  25061673.940   131699939.914 6        40.750    25061674.640   102623325.19644
        35.900    25061675.560
  25564366.160   134341661.478 7        42.300    25564363.060   104681805.86145
        36.900    25564363.820
  25879580.740   135998048.884 5        38.700    25879579.560   105972468.20144
        32.850    25879579.960
  21535624.420   113170494.251 8        48.350    21535620.320    88184824.97346
        41.500
  23081375.600   121293489.839 8        46.850    23081372.960    94514407.67745
        38.600    23081373.540
  25618992.180   134628715.736 5        38.700    25618988.140   104905459.03845
        36.550
  24908442.580   130894718.717 6        40.850    24908443.000   101995918.01344
        33.150    24908442.720
  21090347.960   110830543.220 9        50.750    21090343.540    86361446.88147
        44.900    21090344.360
  25125174.420   132033681.055 5        38.200    25125174.240   102883391.71344
        35.750    25125175.180
 19  9 29 16 50 30.0000000  0 11G02G05G06G07G12G13G15G21G25G29G30
  21619150.980   113609413.506 8        47.700    21619144.220    88526798.12347
        44.700
  20313909.720   106750335.265 9        50.150    20313905.500    83182081.95848
        46.500    20313906.300
  25078590.240   131788835.310 6        39.300    25078590.980   102692594.31045
        36.650    25078591.880
  25561037.520   134324169.685 7        42.750    25561034.420   104668175.97544
        35.650    25561035.160
  25896794.060   136088504.201 5        38.600    25896792.960   106042952.57143
        31.700    25896793.340
  21521005.320   113093670.428 8        48.550    21521001.240    88124962.25646
        41.550
  23059877.600   121180517.242 8        48.100    23059874.920    94426377.11245
        38.350    23059875.520
  25603902.520   134549419.505 5        37.600    25603898.520   104843669.85144
        35.050
  24924068.780   130976837.311 6        40.700    24924070.520   102059906.37944
        34.600    24924070.120
  21083391.080   110793984.437 9        50.700    21083386.680    86332959.53247
        44.650    21083387.480
  25115078.240   131980626.098 6        40.600    25115078.040   102842050.31944
        34.350    25115079.000
 19  9 29 16 51  0.0000000  0 10G02G05G06G07G13G15G21G25G29G30
  21626947.740   113650385.583 8        47.700    21626941.000    88558724.38647
        44.500
  20319521.360   106779824.763 9        49.850    20319517.160    83205060.78048
        46.200    20319517.980
  25095525.920   131877832.752 6        39.700    25095526.700   102761942.90244
        35.550    25095527.580
  25557788.740   134307097.523 7        42.300    25557785.640   104654873.05444
        34.600    25557786.380
  21506469.460   113017283.968 8        47.500    21506465.380    88065440.34146
        41.100
  23038415.180   121067731.511 8        48.850    23038412.460    94338492.18445
        38.200    23038413.060
  25588802.240   134470067.261 5        38.600    25588798.300   104781836.98445
        37.150
  24939711.580   131059044.199 6        39.900    24939713.600   102123963.66345
        38.150    24939713.420
  21076541.760   110757990.834 9        50.000    21076537.360    86304912.56947
        44.550    21076538.140
  25105034.640   131927847.294 6        41.400    25105034.420   102800924.08144
        35.350    25105035.420
 19  9 29 16 51 30.0000000  0 10G02G05G06G07G13G15G21G25G29G30
  21634801.080   113691655.108 8        47.550    21634794.340    88590882.45847
        44.150
  20325198.100   106809656.378 9        49.950    20325193.920    83228306.19248
        45.950    20325194.740
  25112482.740   131966941.550 5        37.950    25112483.600   102831378.33144
        32.800    25112484.440
  25554621.900   134290456.013 6        41.850    25554618.820   104641905.71844
        34.600    25554619.540
  21492019.140   112941347.195 8        47.950    21492015.040    88006268.87046
        40.350
  23016990.700   120955145.484 9        49.200    23016987.920    94250762.88545
        37.650    23016988.520
  25573693.300   134390669.442 6        40.650    25573689.380   104719968.61444
        34.300
  24955372.880   131141346.102 6        40.250    24955374.940   102188095.00244
        35.350    24955374.900
  21069802.060   110722573.631 9        49.800    21069797.720    86277314.76147
        43.650    21069798.480
  25095046.020   131875357.049 6        40.650    25095045.800   102760022.71444
        35.750    25095046.780
 19  9 29 16 52  0.0000000  0 10G02G05G06G07G13G15G21G25G29G30
  21642709.800   113733215.649 8        46.850    21642703.100    88623267.25447
        44.100
  20330938.400   106839821.966 9        50.350    20330934.260    83251811.82648
        46.150    20330935.080
  25129459.340   132056154.335 6        41.850    25129460.240   102900894.73444
        33.750    25129461.100
  25551536.000   134274239.699 6        41.650    25551532.920   104629269.65344
        34.000    25551533.640
  21477653.600   112865855.830 8        48.350    21477649.480    87947444.42846
        40.300
  22995603.460   120842754.579 8        47.750    22995600.700    94163185.58545
        38.450    22995601.260
  25558574.480   134311219.596 6        41.200    25558570.560   104658059.65744
        34.050
  24971050.640   131223733.014 6        40.100    24971052.620   102252292.43245
        36.850    24971052.700
  21063170.960   110687727.197 9        50.150    21063166.680    86250161.69747
        43.500    21063167.420
  25085111.520   131823151.052 6        39.800    25085111.360   102719342.77144
        34.750    25085112.320
 19  9 29 16 52 30.0000000  0 10G02G05G06G07G13G15G21G25G29G30
  21650674.800   113775072.059 8        47.050    21650668.140    88655882.61647
        44.150
  20336742.840   106870324.517 9        50.250    20336738.700    83275580.04448
        46.100    20336739.520
  25146456.580   132145475.126 6        41.500    25146457.420   102970495.24844
        34.500    25146458.340
  25548532.000   134258453.790 7        42.350    25548528.900   104616969.01344
        35.300    25548529.620
  21463374.160   112790816.956 8        48.250    21463370.020    87888972.58646
        40.250
  22974254.720   120730566.222 8        46.100    22974251.900    94075766.09646
        39.250    22974252.460
  25543446.720   134231722.644 6        41.150    25543442.760   104596114.00343
        31.800
  24986744.820   131306206.266 6        40.650    24986746.780   102316557.22445
        36.500    24986746.900
  21056649.720   110653458.091 9        50.200    21056645.480    86223458.50847
        43.700    21056646.220
  25075232.360   131771236.283 5        38.350    25075232.160   102678889.82645
        36.550    25075233.160
 19  9 29 16 53  0.0000000  0 10G02G05G06G07G13G15G21G25G29G30
  21658695.200   113817219.724 8        47.550    21658688.580    88688724.93847
        44.350
  20342610.280   106901158.078 9        49.950    20342606.120    83299606.18948
        46.400    20342606.960
  25163473.340   132234898.339 6        40.900    25163474.140   103040175.65945
        36.200    25163475.060
  25545609.200   134243094.562 7        42.950    25545606.120   104605000.80144
        32.350    25545606.840
  21449180.320   112716227.797 8        48.900    21449176.120    87830851.16646
        41.550
  22952944.120   120618577.982 8        45.300    22952941.280    93988502.51246
        39.750    22952941.840
  25528309.160   134152174.211 6        40.600    25528305.220   104534128.19843
        31.950
  25002453.940   131388758.078 6        40.050    25002455.900   102380883.25245
        36.150    25002456.060
  21050237.700   110619762.888 9        50.500    21050233.480    86197202.51247
        43.800    21050234.220
  25065408.140   131719610.489 6        40.950    25065407.920   102638662.04744
        34.150    25065408.940
 19  9 29 16 53 30.0000000  0 10G02G05G06G07G13G15G21G25G29G30
  21666772.200   113859664.848 8        47.900    21666765.640    88721799.04047
        44.300
  20348541.520   106932326.889 9        50.050    20348537.360    83323893.55348
        46.600    20348538.200
  25180510.480   132324429.311 4        32.500    25180511.320   103109940.08644
        32.650    25180512.220
  25542769.020   134228169.389 7        42.500    25542765.920   104593370.79044
        35.050    25542766.660
  21435073.760   112642097.250 9        49.150    21435069.520    87773087.10446
        41.350
  22931673.180   120506798.696 8        47.500    22931670.280    93901401.79446
        39.300    22931670.860
  25513163.000   134072580.545 6        39.200    25513159.060   104472107.16444
        34.050
  25018178.560   131471391.083 6        39.500    25018180.480   102445272.50244
        35.300    25018180.700
  21043936.300   110586648.860 9        50.800    21043932.060    86171399.36147
        44.100    21043932.840
  25055640.600   131668282.114 6        40.550    25055640.380   102598665.98845
        38.600    25055641.400
 19  9 29 16 54  0.0000000  0 10G02G05G06G07G13G15G21G25G29G30
  21674905.400   113902405.042 8        47.600    21674898.820    88755103.08747
        44.150
  20354535.860   106963827.295 9        50.350    20354531.680    83348439.31648
        46.350    20354532.520
  25197567.500   132414065.066 5        38.750    25197568.500   103179786.08745
        36.650    25197569.380
  25540011.180   134213676.900 7        42.050    25540008.100   104582077.96044
        34.000    25540008.820
  21421054.460   112568425.345 8        48.250    21421050.180    87715680.46346
        41.950
  22910442.040   120395228.412 8        48.350    22910439.080    93814463.94645
        38.150    22910439.700
  25498007.760   133992939.492 5        36.850    25498003.860   104410049.28144
        35.550
  25033917.560   131554099.589 5        37.750    25033919.440   102509720.59544
        35.900    25033919.700
  21037745.360   110554115.216 9        50.800    21037741.080    86146048.47247
        43.850    21037741.860
  25045929.660   131617251.071 6        41.600    25045929.480   102558901.60144
        34.850    25045930.460
 19  9 29 16 54 30.0000000  0 10G02G05G06G07G13G15G21G25G29G30
  21683094.100   113945436.988 8        46.750    21683087.520    88788634.46147
        44.800
  20360592.300   106995654.015 9        50.300    20360588.120    83373239.35648
        46.200    20360588.960
  25214643.680   132503801.150 6        41.750    25214644.800   103249710.23944
        33.050    25214645.680
  25537335.120   134199614.049 7        42.050    25537332.040   104571119.88645
        36.000    25537332.740
  21407122.140   112495210.554 8        48.550    21407117.840    87658630.00547
        42.650
  22889250.440   120283865.992 8        48.700    22889247.420    93727688.07145
        38.650    22889248.080
  25482842.920   133913248.067 5        37.600    25482839.020   104347952.17144
        34.700
  25049669.600   131636876.595 5        37.050    25049671.400   102574222.09844
        32.500    25049671.660
  21031664.420   110522159.614 9        50.850    21031660.100    86121147.99847
        44.050    21031660.900
  25036275.020   131566515.982 7        42.350    25036274.840   102519367.85944
        34.050    25036275.780
 19  9 29 16 55  0.0000000  0 10G02G05G06G07G13G15G21G25G29G30
  21691339.300   113988765.806 8        46.800    21691332.740    88822397.16547
        44.850
  20366711.440   107027810.187 9        50.250    20366707.260    83398296.10348
        46.400    20366708.080
  25231739.840   132593641.853 6        40.850    25231740.940   103319715.90944
        35.150    25231741.860
  25534741.940   134185986.749 7        42.400    25534738.820   104560501.19944
        33.650    25534739.540
  21393278.200   112422460.182 8        48.650    21393273.920    87601941.41446
        41.950
  22868099.780   120172718.755 8        48.800    22868096.700    93641079.86246
        39.250    22868097.400
  25467669.520   133833511.517 5        38.900    25467665.680   104285819.79845
        37.000
  25065434.980   131719723.998 5        38.600    25065436.740   102638778.50844
        35.350    25065436.980
  21025694.680   110490788.303 9        51.050    21025690.320    86096702.81947
        44.300    21025691.140
  25026678.200   131516084.232 6        41.150    25026678.000   102480070.42245
        38.200    25026678.920
 19  9 29 16 55 30.0000000  0 10G02G05G06G07G13G15G21G25G29G30
  21699640.700   114032389.884 8        47.500    21699634.160    88856389.92047
        44.250
  20372892.700   107060292.762 9        50.200    20372888.500    83423607.19648
        46.250    20372889.300
  25248855.460   132683584.694 5        38.800    25248856.400   103389801.16344
        33.950    25248857.360
  25532231.540   134172794.355 6        41.250    25532228.360   104550221.41644
        35.700    25532229.080
  21379522.740   112350174.825 8        48.600    21379518.480    87545615.18447
        42.350
  22846990.420   120061787.867 8        47.900    22846987.260    93554640.19145
        38.700    22846988.000
  25452487.260   133753728.375 6        40.300    25452483.460   104223651.14145
        36.350
  25081212.860   131802636.896 5        36.850    25081214.600   102703385.90244
        35.900    25081214.800
  21019836.060   110460000.771 9        50.950    21019831.620    86072712.52447
        44.650    21019832.460
  25017139.240   131465956.535 6        41.200    25017139.000   102441009.88944
        34.100    25017139.920
 19  9 29 16 56  0.0000000  0  9G02G05G07G13G15G21G25G29G30
  21707998.320   114076309.450 8        47.650    21707991.820    88890612.92447
        44.350
  20379135.820   107093100.445 9        49.950    20379131.600    83449171.62248
        46.150    20379132.400
  25529804.160   134160038.098 7        42.200    25529800.940   104540281.43444
        32.850    25529801.660
  21365856.260   112278357.083 8        48.250    21365852.020    87489653.31947
        42.100
  22825922.620   119951075.634 8        47.950    22825919.380    93468370.90446
        39.600    22825920.160
  25437296.280   133673899.539 6        40.200    25437292.520   104161446.89045
        36.300
  25097002.700   131885612.319 5        37.100    25097004.380   102768041.99644
        35.500    25097004.560
  21014088.780   110429798.398 9        50.650    21014084.280    86049178.21147
        44.900    21014085.120
  25007658.600   131416135.520 7        42.100    25007658.320   102402188.32344
        35.850    25007659.260
 19  9 29 16 56 30.0000000  0 10G02G05G06G07G13G15G21G25G29G30
  21716412.280   114120524.919 8        47.700    21716405.780    88925066.51747
        43.600
  20385440.540   107126231.885 9        49.850    20385436.340    83474988.30748
        46.100    20385437.140
  25283144.820   132863812.210 6        40.250    25283147.580   103530274.39144
        34.650    25283146.700
  25527460.000   134147719.239 6        41.550    25527456.760   104530682.28643
        30.900    25527457.480
  21352279.280   112207009.616 8        48.300    21352275.060    87434057.90747
        42.300
  22804897.000   119840585.097 8        46.950    22804893.740    93382274.38046
        40.850    22804894.520
  25422096.740   133594025.267 6        39.650    25422093.020   104099207.16543
        31.150
  25112803.840   131968647.316 5        38.950    25112805.420   102832744.53745
        37.750    25112805.640
  21008453.140   110400182.870 9        50.600    21008448.600    86026101.17747
        44.900    21008449.460
  24998236.800   131366623.760 6        40.250    24998236.480   102363607.80145
        36.950    24998237.420
 19  9 29 16 57  0.0000000  0 10G02G05G06G07G13G15G21G25G29G30
  21724882.640   114165036.769 8        46.850    21724876.100    88959751.06047
        43.650
  20391806.620   107159685.919 9        50.000    20391802.440    83501056.37748
        45.350    20391803.220
  25300320.680   132954058.963 7        43.400    25300321.420   103600596.49144
        35.500    25300320.160
  25525199.220   134135838.531 7        42.500    25525195.900   104521424.52044
        32.050    25525196.640
  21338792.220   112136134.797 8        48.950    21338788.040    87378830.79047
        42.300
  22783914.060   119730318.980 8        46.700    22783910.780    93296352.74746
        41.500    22783911.560
  25406888.580   133514105.949 4        35.450    25406884.920   104036932.37844
        33.200
  25128615.700   132051738.794 6        40.400    25128617.160   102897491.12745
        36.450    25128617.440
  21002929.440   110371155.486 9        50.550    21002924.880    86003482.44047
        44.900    21002925.740
  24988874.260   131317423.717 7        42.200    24988873.940   102325270.13145
        36.250    24988874.900
 19  9 29 16 57 30.0000000  0 10G02G05G06G07G13G15G21G25G29G30
  21733409.460   114209845.269 8        46.700    21733402.880    88994666.75847
        43.350
  20398233.840   107193461.272 9        49.950    20398229.660    83527374.84048
        45.400    20398230.460
  25317515.100   133044406.016 6        40.700    25317513.480   103670996.70044
        32.750    25317512.680
  25523022.100   134124397.389 7        42.850    25523018.760   104512509.32044
        33.250    25523019.500
  21325395.660   112065735.342 9        49.200    21325391.460    87323974.08147
        42.300
  22762974.360   119620280.211 8        47.100    22762971.120    93210608.27046
        41.350    22762971.880
  25391671.940   133434142.702 5        37.600    25391668.360   103974623.44644
        33.300
  25144437.800   132134883.902 6        40.600    25144439.220   102962279.41544
        33.300    25144439.520
  20997517.940   110342717.886 9        50.400    20997513.420    85981323.26947
        44.950    20997514.280
  24979571.520   131268538.019 7        43.000    24979571.220   102287177.44945
        36.650    24979572.180
 19  9 29 16 58  0.0000000  0 11G02G05G06G07G13G15G21G25G26G29G30
  21741993.060   114254952.258 8        46.500    21741986.460    89029815.02347
        43.800
  20404722.200   107227557.900 9        49.950    20404718.020    83553943.63548
        45.750    20404718.820
  25334727.660   133134854.294 5        38.150    25334724.340   103741475.84343
        31.650    25334724.340
  25520929.100   134113398.363 7        42.850    25520925.700   104503938.63644
        33.600    25520926.460
  21312090.320   111995815.171 8        48.900    21312086.080    87269490.85047
        42.850
  22742078.720   119510473.005 8        47.750    22742075.500    93125044.24446
        41.550    22742076.240
  25376447.480   133354137.853 6        40.100    25376443.960   103912282.01845
        36.750
  25160269.800   132218081.164 6        40.800    25160271.120   103027108.39644
        35.050    25160271.440
  25671425.000   134904246.747 6        41.150    25671426.820   105120196.00745
        36.500    25671426.520
  20992219.200   110314872.908 9        49.850    20992214.700    85959625.89047
        44.800    20992215.560
  24970329.420   131219970.834 7        42.050    24970329.140   102249332.92045
        36.850    24970330.100
 19  9 29 16 58 30.0000000  0 11G02G05G06G07G13G15G21G25G26G29G30
  21750633.900   114300360.050 8        46.900    21750627.280    89065197.68847
        43.500
  20411271.880   107261976.772 9        50.100    20411267.720    83580763.53748
        45.900    20411268.500
  25351958.300   133225405.449 5        37.000    25351954.800   103812035.20944
        34.200    25351955.400
  25518920.780   134102844.428 6        41.950    25518917.340   104495714.78944
        34.900    25518918.100
  21298877.000   111926378.738 8        48.700    21298872.740    87215384.56547
        42.600
  22721228.100   119400902.271 8        47.050    22721224.940    93039664.47146
        40.400    22721225.640
  25361215.520   133274093.768 7        42.200    25361212.020   103849910.06945
        37.500
  25176111.540   132301329.623 6        41.550    25176112.720   103091977.27844
        35.300    25176113.120
  25670457.400   134899161.583 6        40.350    25670458.640   105116233.56644
        35.000    25670458.920
  20987033.880   110287624.199 9        49.850    20987029.460    85938393.14247
        44.750    20987030.320
  24961148.800   131171726.716 7        44.000    24961148.540   102211740.13145
        36.050    24961149.500
 19  9 29 16 59  0.0000000  0 11G02G05G06G07G13G15G21G25G26G29G30
  21759330.660   114346061.748 8        47.700    21759324.060    89100809.37647
        43.200
  20417881.240   107296709.151 9        50.500    20417877.080    83607827.72248
        46.050    20417877.860
  25369207.180   133316051.771 7        42.200    25369203.920   103882668.60944
        34.200    25369204.780
  25516995.980   134092729.287 7        42.200    25516992.520   104487832.83943
        29.750    25516993.280
  21285754.820   111857421.109 8        48.900    21285750.540    87161651.36247
        42.550
  22700421.540   119291563.097 8        46.950    22700418.400    92954465.12346
        40.500    22700419.100
  25345974.860   133194003.622 6        41.550    25345971.340   103787502.20845
        37.700
  25191961.100   132384619.013 6        41.450    25191962.200   103156878.00643
        31.650    25191962.640
  25669582.500   134894563.424 5        37.650    25669583.440   105112650.57544
        34.950    25669583.780
  20981960.860   110260965.667 9        50.000    20981956.520    85917620.27247
        44.250    20981957.380
  24952028.760   131123800.642 7        43.750    24952028.420   102174395.20544
        35.050    24952029.400
 19  9 29 16 59 30.0000000  0 10G02G05G06G07G13G15G21G25G29G30
  21768083.720   114392059.325 8        47.350    21768077.120    89136651.63647
        42.850
  20424550.320   107331755.345 9        50.300    20424546.160    83635136.44348
        46.250    20424546.920
  25386474.700   133406794.297 6        41.700    25386471.600   103953376.97444
        33.050    25386472.460
  25515155.180   134083055.862 6        41.950    25515151.660   104480295.12943
        31.950    25515152.420
  21272724.580   111788946.746 9        49.350    21272720.280    87108294.74047
        42.800
  22679659.900   119182460.037 8        47.500    22679656.760    92869449.78546
        40.500    22679657.440
  25330725.920   133113869.852 6        39.350    25330722.380   103725060.34445
        36.850
  25207818.180   132467947.932 5        38.700    25207819.220   103221809.53245
        36.100    25207819.680
  20977000.720   110234900.354 9        50.050    20976996.480    85897309.64747
        44.500    20976997.300
  24942970.080   131076196.934 7        42.550    24942969.640   102137301.46145
        36.050    24942970.640
                            4  1
RINEX FILE SPLICE; other post-header comments skipped       COMMENT
 19  9 29 17  0  0.0000000  0 10G02G05G06G07G13G15G21G25G29G30
  21776894.200   114438358.537 8        46.650    21776887.580    89172728.91547
        43.050
  20431279.960   107367119.661 9        49.850    20431275.800    83662693.03648
        46.400    20431276.560
  25403761.700   133497638.161 6        39.750    25403758.660   104024164.25945
        36.400    25403759.520
  25513399.600   134073830.256 6        41.750    25513396.060   104473106.38144
        32.550    25513396.820
  21259787.740   111720963.130 9        49.200    21259783.420    87055320.51447
        43.100
  22658944.740   119073601.362 8        48.700    22658941.600    92784624.89246
        40.650    22658942.280
  25315469.880   133033698.815 5        36.450    25315466.320   103662589.44544
        35.000
  25223683.220   132551319.027 5        38.050    25223684.200   103286774.00644
        35.300    25223684.680
  20972154.720   110209434.868 9        49.950    20972150.560    85877466.42147
        44.150    20972151.380
  24933974.280   131028923.654 7        43.150    24933973.760   102100465.20144
        35.700    24933974.780
 19  9 29 17  0 30.0000000  0 10G02G05G06G07G13G15G21G25G29G30
  21785761.660   114484957.233 8        46.650    21785755.020    89209039.55947
        42.900
  20438069.420   107402798.493 9        49.700    20438065.300    83690494.70348
        46.150    20438066.060
  25421067.020   133588579.997 5        36.100    25421064.140   104095028.07444
        35.800    25421065.080
  25511728.980   134065051.157 6        41.650    25511725.400   104466265.53943
        30.800    25511726.160
  21246944.300   111653470.279 9        49.250    21246939.940    87002728.69947
        42.100
  22638276.160   118964987.343 8        48.600    22638272.960    92699990.63546
        41.200    22638273.660
  25300206.360   132953488.655 6        39.450    25300202.800   103600088.05044
        32.150
  25239555.280   132634726.890 6        39.500    25239556.220   103351767.08444
        33.800    25239556.740
  20967422.720   110184568.339 9        50.200    20967418.620    85858089.90947
        43.950    20967419.420
  24925041.280   130981980.696 7        42.600    24925040.700   102063886.33644
        35.900    24925041.700
 19  9 29 17  1  0.0000000  0 11G02G05G06G07G13G15G21G25G26G29G30
  21794685.360   114531851.619 8        47.300    21794678.720    89245580.60847
        43.300
  20444917.660   107438786.300 9        50.050    20444913.600    83718537.14248
        46.000    20444914.320
  25438390.040   133679615.646 6        40.900    25438387.540   104165964.94845
        38.300    25438388.580
  25510142.780   134056715.703 6        41.000    25510139.200   104459770.41444
        33.900    25510139.960
  21234193.960   111586466.690 9        49.050    21234189.560    86950518.13247
        42.400
  22617653.960   118856616.709 8        48.200    22617650.720    92615546.01646
        40.250    22617651.420
  25284934.780   132873235.863 7        42.200    25284931.200   103537553.40144
        32.000
  25255433.060   132718164.704 6        40.800    25255433.920   103416783.50344
        35.650    25255434.460
  25667015.820   134881071.241 6        39.250    25667016.980   105102131.72145
        36.000    25667016.980
  20962804.220   110160298.221 9        50.500    20962800.160    85839178.12947
        43.850    20962800.960
  24916170.920   130935366.794 6        41.950    24916170.380   102027563.83045
        36.700    24916171.340
 19  9 29 17  1 30.0000000  0 11G02G05G06G07G13G15G21G25G26G29G30
  21803665.460   114579042.363 8        47.200    21803658.820    89282352.61447
        44.100
  20451824.620   107475082.769 9        50.300    20451820.580    83746820.10948
        45.650    20451821.320
  25455731.160   133770745.139 7        43.450    25455728.960   104236974.84945
        37.300    25455730.060
  25508641.220   134048825.139 6        40.200    25508637.660   104453621.96744
        32.000    25508638.400
  21221537.260   111519955.388 9        49.000    21221532.840    86898691.17847
        42.300
  22597078.620   118748492.560 8        48.800    22597075.320    92531293.47145
        38.300    22597076.040
  25269655.340   132792941.767 7        43.100    25269651.740   103474986.56044
        35.200
  25271316.060   132801629.846 6        40.100    25271316.840   103481821.20145
        37.300    25271317.420
  25666606.720   134878919.215 6        41.600    25666607.320   105100454.81545
        37.300    25666607.360
  20958299.500   110136625.947 9        50.550    20958295.460    85820732.20947
        44.150    20958296.240
  24907363.720   130889084.751 7        42.900    24907363.260   101991499.91046
        39.650    24907364.200
 19  9 29 17  2  0.0000000  0 11G02G05G06G07G13G15G21G25G26G29G30
  21812703.160   114626535.679 8        46.300    21812696.560    89319360.36047
        44.650
  20458791.080   107511691.837 9        50.250    20458787.020    83775346.66248
        45.450    20458787.780
  25473091.300   133861973.601 7        43.150    25473089.300   104308061.83445
        38.050    25473090.420
  25507225.640   134041386.347 6        40.500    25507222.120   104447825.54143
        31.950    25507222.840
  21208975.800   111453944.551 8        48.900    21208971.380    86847254.18447
        42.550
  22576551.940   118640623.834 9        49.000    22576548.540    92447239.94145
        38.300    22576549.300
  25254369.260   132712612.966 7        42.000    25254365.600   103412392.74345
        38.300
  25287204.780   132885125.281 6        40.800    25287205.540   103546882.50944
        35.150    25287206.140
  25666290.960   134877259.383 6        41.200    25666291.360   105099161.43645
        36.400    25666291.500
  20953909.960   110113558.813 9        50.500    20953905.900    85802757.81547
        43.900    20953906.680
  24898621.220   130843142.879 7        42.700    24898620.840   101955701.09645
        36.400    24898621.740
 19  9 29 17  2 30.0000000  0 11G02G05G06G07G13G15G21G25G26G29G30
  21821797.360   114674325.923 8        46.500    21821790.840    89356599.46447
        43.350
  20465815.620   107548605.989 9        50.350    20465811.520    83804110.92848
        45.650    20465812.300
  25490469.060   133953294.270 6        41.000    25490467.200   104379220.70344
        34.600    25490468.320
  25505895.000   134034394.068 6        41.650    25505891.500   104442377.03443
        31.600    25505892.220
  21196508.820   111388430.247 8        48.650    21196504.400    86796204.09547
        42.700
  22556073.140   118533006.848 8        48.900    22556069.660    92363382.58046
        39.800    22556070.420
  25239075.420   132632243.423 6        39.650    25239071.740   103349767.18745
        37.100
  25303097.620   132968641.941 6        40.550    25303098.360   103611960.26445
        36.350    25303099.000
  25666067.580   134876085.227 7        43.800    25666067.880   105098246.46846
        39.300    25666068.020
  20949634.620   110091091.640 9        50.650    20949630.520    85785250.92347
        44.250    20949631.300
  24889942.760   130797537.524 7        42.400    24889942.380   101920164.53644
        35.550    24889943.260
 19  9 29 17  3  0.0000000  0 11G02G05G06G07G13G15G21G25G26G29G30
  21830948.820   114722417.201 8        47.100    21830942.360    89394073.15347
        42.300
  20472898.800   107585828.215 9        50.050    20472894.640    83833115.25547
        44.900    20472895.440
  25507865.100   134044711.132 6        40.750    25507863.440   104450454.55246
        40.500    25507864.520
  25504650.280   134027853.167 6        41.550    25504646.780   104437280.27143
        30.800    25504647.500
  21184137.520   111323418.632 8        48.850    21184133.100    86745545.70247
        42.850
  22535643.520   118425648.400 8        48.550    22535639.960    92279726.66046
        41.500    22535640.720
  25223774.860   132551838.727 5        38.750    25223771.160   103287114.26645
        36.600
  25318994.620   133052180.943 6        40.200    25318995.360   103677055.55245
        36.800    25318995.980
  25665937.260   134875400.406 7        44.650    25665937.460   105097712.83346
        39.600    25665937.680
  20945474.480   110069229.846 9        50.650    20945470.320    85768215.76747
        44.000    20945471.120
  24881329.600   130752275.247 7        44.000    24881329.140   101884895.26944
        35.250    24881330.080
 19  9 29 17  3 30.0000000  0 11G02G05G06G07G13G15G21G25G26G29G30
  21840157.140   114770807.370 8        47.300    21840150.700    89431779.77847
        42.850
  20480039.840   107623354.665 9        49.850    20480035.640    83862356.64548
        45.100    20480036.460
  25525278.620   134136220.454 4        35.000    25525277.280   104521760.47745
        36.000    25525278.280
  25503491.120   134021761.835 6        41.350    25503487.600   104432533.79943
        30.850    25503488.320
  21171861.860   111258909.596 9        49.100    21171857.420    86695278.92847
        42.550
  22515263.060   118318548.425 8        48.400    22515259.460    92196272.19446
        40.700    22515260.220
  25208467.240   132471396.541 6        40.800    25208463.520   103224432.06444
        34.850
  25334894.820   133135736.690 5        38.850    25334895.560   103742163.87545
        36.800    25334896.200
  25665899.460   134875201.842 7        42.600    25665899.600   105097558.10845
        36.150    25665899.840
  20941429.280   110047971.924 9        50.800    20941425.040    85751651.14947
        44.100    20941425.860
  24872781.740   130707355.761 6        41.500    24872781.220   101849893.10145
        36.700    24872782.200
 19  9 29 17  4  0.0000000  0 11G02G05G06G07G13G15G21G25G26G29G30
  21849422.640   114819497.849 8        47.200    21849416.180    89469720.39847
        42.800
  20487238.720   107661184.979 9        49.900    20487234.480    83891834.81248
        45.100    20487235.300
  25542709.920   134227823.502 6        40.200    25542708.920   104593139.44544
        35.700    25542709.860
  25502417.940   134016122.281 6        40.050    25502414.420   104428139.36844
        32.200    25502415.160
  21159682.520   111194906.790 8        48.600    21159678.060    86645406.63347
        43.000
  22494932.560   118211711.168 8        47.650    22494928.960    92113022.44346
        39.900    22494929.700
  25193152.940   132390918.978 7        42.400    25193149.180   103161722.21844
        34.750
  25350797.940   133219307.674 6        40.050    25350798.740   103807284.03645
        36.650    25350799.320
  25665954.320   134875490.344 6        40.550    25665954.440   105097782.90044
        34.050    25665954.740
  20937499.400   110027320.174 9        50.700    20937495.100    85735558.87747
        43.900    20937495.940
  24864299.740   130662782.726 6        41.750    24864299.180   101815160.90544
        34.300    24864300.180
 19  9 29 17  4 30.0000000  0 11G02G05G06G07G13G15G21G25G26G29G30
  21858745.340   114868488.865 8        47.900    21858738.900    89507895.18847
        43.100
  20494495.280   107699318.585 9        50.050    20494491.020    83921549.30048
        45.250    20494491.880
  25560159.180   134319520.098 6        41.500    25560158.420   104664591.17644
        33.500    25560159.340
  25501431.040   134010935.958 6        41.000    25501427.520   104424098.06044
        32.500    25501428.280
  21147600.080   111131413.163 9        49.100    21147595.620    86595931.09947
        42.850
  22474652.700   118105139.885 8        48.550    22474649.080    92029979.91946
        39.000    22474649.820
  25177832.120   132310407.357 7        42.000    25177828.320   103098985.88644
        35.950
  25366703.540   133302891.491 6        40.550    25366704.360   103872414.15644
        34.150    25366704.940
  25666101.940   134876266.124 6        40.200    25666102.020   105098387.39644
        34.650    25666102.360
  20933685.220   110007276.341 9        50.800    20933680.860    85719940.30247
        44.600    20933681.720
  24855884.180   130618559.162 7        42.750    24855883.540   101780701.09745
        37.700    24855884.560
 19  9 29 17  5  0.0000000  0 11G02G05G06G07G13G15G21G25G26G29G30
  21868124.520   114917776.560 8        47.600    21868118.060    89546301.14747
        42.850
  20501808.440   107737749.598 9        50.150    20501804.160    83951495.54848
        45.050    20501805.040
  25577625.280   134411305.207 6        41.650    25577624.600   104736111.96044
        35.700    25577625.540
  25500529.600   134006198.840 6        41.100    25500526.100   104420406.76544
        32.700    25500526.860
  21135614.040   111068426.150 8        48.800    21135609.600    86546850.33147
        42.450
  22454423.100   117998832.695 8        47.950    22454419.480    91947143.14845
        38.800    22454420.200
  25162503.980   132229857.711 6        39.900    25162500.140   103036220.00845
        36.800
  25382610.120   133386480.710 5        37.600    25382610.920   103937548.54944
        32.500    25382611.500
  25666341.300   134877524.121 6        39.900    25666341.400   105099367.65444
        34.600    25666341.740
  20929986.060   109987837.014 9        50.750    20929981.660    85704792.78347
        44.400    20929982.500
  24847534.760   130574682.929 6        41.200    24847534.080   101746511.90745
        38.400    24847535.120
 19  9 29 17  5 30.0000000  0 11G02G05G06G07G13G15G21G25G26G29G30
  21877561.200   114967366.349 8        47.950    21877554.680    89584942.51047
        43.100
  20509178.920   107776481.653 9        50.200    20509174.620    83981676.35948
        45.600    20509175.500
  25595109.140   134503183.257 6        40.200    25595108.440   104807705.14544
        33.350    25595109.460
  25499714.800   134001917.095 7        42.200    25499711.320   104417070.35144
        34.200    25499712.080
  21123725.800   111005953.208 8        48.550    21123721.400    86498170.13347
        43.000
  22434245.180   117892797.333 8        47.150    22434241.560    91864518.22146
        40.500    22434242.280
  25147169.660   132149275.731 6        39.550    25147165.840   102973428.95045
        38.100
  25398518.160   133470077.544 6        39.200    25398518.920   104002688.86944
        32.950    25398519.520
  25666673.280   134879268.893 5        38.700    25666673.400   105100727.24744
        35.000    25666673.720
  20926403.140   109969008.463 9        50.450    20926398.700    85690121.18347
        44.650    20926399.560
  24839252.860   130531161.521 7        42.100    24839252.280   101712599.15045
        37.750    24839253.280
 19  9 29 17  6  0.0000000  0 11G02G05G06G07G13G15G21G25G26G29G30
  21887055.220   115017257.498 8        47.050    21887048.600    89623818.70647
        43.150
  20516606.440   107815513.389 9        50.250    20516602.140    84012090.68748
        45.950    20516603.020
  25612610.400   134595152.988 5        38.550    25612609.740   104879369.78744
        33.900    25612610.780
  25498986.640   133998090.496 6        41.500    25498983.160   104414088.59844
        35.050    25498983.940
  21111935.660   110943995.715 8        48.800    21111931.280    86449891.58147
        42.650
  22414119.340   117787035.596 8        46.200    22414115.720    91782106.51546
        41.650    22414116.440
  25131829.140   132068661.091 6        41.850    25131825.380   102910612.40545
        36.350
  25414426.960   133553678.274 6        40.900    25414427.720   104067832.20144
        35.300    25414428.300
  25667097.740   134881499.093 6        40.150    25667097.880   105102464.96545
        36.400    25667098.220
  20922936.460   109950790.732 9        50.750    20922931.960    85675925.54047
        44.400    20922932.840
  24831038.740   130487996.394 7        42.750    24831038.320   101678964.05445
        38.200    24831039.260
 19  9 29 17  6 30.0000000  0 11G02G05G06G07G13G15G21G25G26G29G30
  21896606.060   115067447.291 8        46.700    21896599.360    89662927.62347
        43.750
  20524090.140   107854840.406 9        50.250    20524085.860    84042735.10248
        45.750    20524086.720
  25630128.460   134687211.154 6        40.250    25630127.900   104951103.36145
        37.900    25630128.920
  25498344.660   133994716.892 6        40.750    25498341.200   104411459.81544
        32.500    25498341.980
  21100243.440   110882552.944 9        49.000    21100239.120    86402014.11047
        42.900
  22394045.540   117681547.587 8        46.800    22394041.960    91699908.14346
        41.600    22394042.680
  25116482.200   131988012.553 7        42.050    25116478.500   102847769.42544
        35.700
  25430335.420   133637277.154 6        40.300    25430336.220   104132974.08445
        36.600    25430336.760
  25667613.860   134884211.275 6        41.750    25667614.000   105104578.33745
        36.400    25667614.340
  20919585.660   109933182.057 9        50.800    20919581.120    85662204.50147
        44.800    20919582.000
  24822892.300   130445187.126 7        42.900    24822891.960   101645606.26245
        36.050    24822892.860
 19  9 29 17  7  0.0000000  0 11G02G05G06G07G13G15G21G25G26G29G30
  21906214.060   115117937.574 8        46.300    21906207.360    89702270.66847
        43.800
  20531630.020   107894462.496 9        49.850    20531625.760    84073609.43548
        45.800    20531626.600
  25647663.500   134779358.737 6        40.050    25647663.080   105022906.65445
        36.850    25647664.060
  25497789.380   133991798.797 6        39.550    25497785.960   104409185.91044
        33.500    25497786.740
  21088649.900   110821628.638 8        48.750    21088645.600    86354540.63647
        43.350
  22374024.560   117576337.234 8        47.700    22374021.000    91617926.09846
        40.800    22374021.760
  25101129.240   131907332.056 6        41.500    25101125.600   102784901.47344
        34.350
  25446243.200   133720872.740 6        40.000    25446244.040   104198113.48045
        37.050    25446244.520
  25668221.840   134887406.473 6        40.250    25668221.940   105107068.13445
        38.100    25668222.320
  20916351.220   109916184.973 9        50.850    20916346.680    85648960.02247
        44.600    20916347.560
  24814814.360   130402737.598 7        42.100    24814814.060   101612528.75645
        38.400    24814814.960
 19  9 29 17  7 30.0000000  0 11G02G05G06G07G13G15G21G25G26G29G30
  21915879.400   115168729.260 8        46.950    21915872.700    89741848.58347
        43.500
  20539225.940   107934379.249 9        49.650    20539221.700    84104713.38048
        45.900    20539222.540
  25665215.640   134871596.047 5        37.850    25665215.380   105094779.84043
        31.950    25665216.300
  25497321.040   133989337.607 6        39.500    25497317.700   104407268.03744
        32.850    25497318.460
  21077155.560   110761225.684 8        48.700    21077151.300    86307473.39747
        42.950
  22354057.220   117471408.294 8        47.600    22354053.660    91536163.29246
        39.800    22354054.440
  25085770.480   131826621.088 6        40.300    25085766.860   102722009.77944
        32.600
  25462150.080   133804463.178 5        38.700    25462151.020   104263248.75645
        36.550    25462151.420
  25668921.840   134891085.006 6        39.050    25668921.940   105109934.50944
        34.850    25668922.340
  20913233.560   109899801.412 9        50.500    20913229.000    85636193.60047
        44.150    20913229.880
  24806805.500   130360651.007 7        43.700    24806805.160   101579734.04444
        35.150    24806806.100
 19  9 29 17  8  0.0000000  0 11G02G05G06G07G13G15G21G25G26G29G30
  21925601.440   115219818.907 8        47.200    21925594.760    89781658.68147
        44.300
  20546877.020   107974586.025 9        50.000    20546872.840    84136043.32748
        46.600    20546873.660
  25682784.060   134963919.038 5        37.550    25682783.920   105166719.81244
        32.000    25682784.800
  25496939.140   133987330.653 6        40.500    25496935.880   104405704.14144
        35.750    25496936.620
  21065760.260   110701343.057 9        49.100    21065756.020    86260811.62047
        43.550
  22334143.320   117366760.093 8        47.600    22334139.720    91454619.24946
        40.550    22334140.520
  25070405.300   131745876.890 5        38.250    25070401.680   102659092.28345
        36.800
  25478054.720   133888042.100 6        39.850    25478055.740   104328375.11945
        36.350    25478056.080
  25669713.040   134895242.708 5        37.450    25669713.180   105113174.22644
        32.250    25669713.600
  20910232.100   109884028.599 9        49.850    20910227.540    85623903.09348
        45.050    20910228.420
  24798865.480   130318926.151 7        43.300    24798865.020   101547221.23545
        37.200    24798866.020
 19  9 29 17  8 30.0000000  0 11G02G05G06G07G13G15G21G25G26G29G30
  21935380.980   115271210.605 8        47.050    21935374.320    89821704.12347
        43.800
  20554583.780   108015085.340 9        50.600    20554579.640    84167601.23348
        45.800    20554580.460
  25700369.440   135056331.091 5        37.850    25700369.420   105238729.13545
        36.750    25700370.300
  25496644.520   133985782.386 6        41.300    25496641.340   104404497.66644
        35.100    25496642.060
  21054465.040   110641986.341 9        49.200    21054460.780    86214559.64647
        43.100
  22314283.980   117262398.762 8        48.550    22314280.300    91373298.77846
        40.250    22314281.140
  25055034.600   131665103.916 6        39.600    25055031.000   102596152.38345
        38.600
  25493957.300   133971610.273 5        38.700    25493958.380   104393493.12245
        36.350    25493958.660
  25670595.980   134899882.603 6        41.000    25670596.120   105116789.73045
        36.250    25670596.540
  20907347.740   109868871.366 9        50.100    20907343.220    85612092.26647
        44.650    20907344.100
  24790995.480   130277569.106 7        43.500    24790994.940   101514994.98545
        36.650    24790995.960
 19  9 29 17  9  0.0000000  0 11G02G05G06G07G13G15G21G25G26G29G30
  21945217.820   115322903.441 8        46.300    21945211.180    89861984.23047
        43.700
  20562345.740   108055874.610 9        50.700    20562341.600    84199385.08648
        45.450    20562342.400
  25717971.320   135148830.233 4        35.100    25717971.340   105310806.44644
        33.500    25717972.260
  25496437.080   133984692.237 6        41.500    25496433.940   104403648.17544
        35.300    25496434.640
  21043270.080   110583156.513 8        48.900    21043265.800    86168718.25347
        42.950
  22294479.500   117158325.837 8        48.800    22294475.780    91292203.05146
        40.950    22294476.640
  25039658.340   131584301.668 6        41.500    25039654.760   102533189.65845
        37.800
  25509857.100   134055163.779 6        40.350    25509858.220   104458599.66445
        37.050    25509858.480
  25671570.320   134905003.046 6        40.550    25671570.440   105120779.72945
        36.550    25671570.880
  20904580.460   109854329.488 9        49.900    20904576.020    85600760.93248
        45.050    20904576.880
  24783195.680   130236580.991 7        43.200    24783195.080   101483056.21644
        35.750    24783196.120
 19  9 29 17  9 30.0000000  0 11G02G05G06G07G13G15G21G25G26G29G30
  21955111.900   115374897.240 8        46.600    21955105.300    89902498.86247
        44.200
  20570162.680   108096952.789 9        50.900    20570158.520    84231394.06448
        45.300    20570159.320
  25735589.860   135241416.483 5        38.300    25735589.940   105382951.53043
        31.950    25735590.900
  25496316.940   133984060.658 6        41.550    25496313.840   104403156.01944
        32.900    25496314.500
  21032175.820   110524855.828 9        49.050    21032171.520    86123289.16247
        42.300
  22274730.500   117054544.255 8        48.700    22274726.760    91211334.34746
        41.200    22274727.620
  25024276.780   131503471.230 7        42.550    25024273.180   102470204.91745
        36.950
  25525753.580   134138699.919 6        40.650    25525754.740   104523692.70144
        34.050    25525754.960
  25672636.020   134910603.301 6        39.650    25672636.120   105125143.55144
        34.850    25672636.560
  20901930.400   109840403.652 9        49.950    20901926.060    85589909.63547
        44.900    20901926.900
  24775466.600   130195964.226 6        41.850    24775465.940   101451406.81744
        35.900    24775466.980
 19  9 29 17 10  0.0000000  0 11G02G05G06G07G13G15G21G25G26G29G30
  21965063.700   115427194.286 8        47.350    21965057.140    89943249.77247
        44.100
  20578034.720   108138320.336 9        50.750    20578030.500    84263628.50648
        45.300    20578031.300
  25753225.160   135334090.849 5        37.500    25753225.300   105455165.30445
        36.550    25753226.280
  25496284.560   133983890.221 6        40.950    25496281.480   104403023.16444
        32.250    25496282.120
  21021182.960   110467088.003 8        48.700    21021178.640    86078275.26647
        42.850
  22255037.780   116951058.373 8        48.750    22255034.040    91130696.04646
        39.900    22255034.900
  25008890.420   131422615.422 6        41.500    25008886.760   102407200.40944
        33.650
  25541646.520   134222217.417 6        39.100    25541647.680   104588771.20044
        34.600    25541647.900
  25673793.200   134916684.425 4        35.750    25673793.300   105129882.10044
        34.600    25673793.760
  20899398.080   109827096.538 9        49.400    20899393.880    85579540.45248
        45.400    20899394.680
  24767808.880   130155722.824 6        41.200    24767808.180   101420049.90845
        38.300    24767809.240
 19  9 29 17 10 30.0000000  0 11G02G05G06G07G13G15G21G25G26G29G30
  21975072.480   115479790.772 8        46.750    21975065.980    89984234.02147
        44.500
  20585960.920   108179972.451 9        50.600    20585956.640    84296084.69648
        45.750    20585957.440
  25770876.340   135426848.828 5        38.750    25770876.580   105527444.25044
        34.600    25770877.560
  25496339.280   133984177.737 6        40.500    25496336.240   104403247.19844
        33.950    25496336.860
  21010291.140   110409851.190 9        49.050    21010286.800    86033675.16247
        43.550
  22235401.080   116847866.805 8        48.050    22235397.340    91050287.04446
        39.450    22235398.180
  24993498.600   131341730.923 6        41.250    24993494.820   102344173.57144
        34.650
  25557534.700   134305709.784 5        37.300    25557535.880   104653830.10045
        37.100    25557536.080
  25675041.060   134923242.005 5        36.300    25675041.140   105134991.90745
        36.950    25675041.620
  20896982.940   109814405.365 9        49.700    20896978.880    85569651.24048
        45.550    20896979.660
  24760222.260   130115855.167 6        41.950    24760221.600   101388984.25445
        37.400    24760222.660
 19  9 29 17 11  0.0000000  0 11G02G05G06G07G13G15G21G25G26G29G30
  21985139.260   115532691.856 8        46.000    21985132.760    90025455.60547
        44.650
  20593941.860   108221912.106 9        50.550    20593937.520    84328764.91648
        45.850    20593938.340
  25788544.440   135519695.276 5        37.350    25788544.800   105599792.04744
        34.750    25788545.760
  25496482.280   133984928.995 6        40.200    25496479.280   104403832.51245
        36.150    25496479.880
  20999501.800   110353152.723 8        48.950    20999497.440    85989494.54047
        43.350
  22215821.920   116744977.651 8        47.950    22215818.180    90970113.70046
        40.200    22215819.040
  24978102.420   131260823.569 6        40.600    24978098.580   102281128.89444
        34.600
  25573418.420   134389179.183 5        37.050    25573419.620   104718871.14544
        34.350    25573419.840
  25676380.400   134930280.287 5        37.200    25676380.440   105140476.30945
        36.500    25676380.940
  20894686.100   109802335.731 9        49.550    20894682.160    85560246.32848
        45.350    20894682.920
  24752708.200   130076368.639 7        42.000    24752707.620   101358215.54545
        38.250    24752708.660
 19  9 29 17 11 30.0000000  0 11G02G05G06G07G13G15G21G25G26G29G30
  21995262.860   115585891.643 8        46.550    21995256.360    90066909.96147
        43.500
  20601976.100   108264131.978 9        50.600    20601971.720    84361663.50348
        45.850    20601972.520
  25806228.060   135612623.959 5        36.500    25806228.500   105672204.07844
        34.000    25806229.440
  25496712.420   133986138.199 6        40.000    25496709.460   104404774.71644
        33.950    25496710.040
  20988814.060   110296988.294 8        48.450    20988809.700    85945730.06547
        43.250
  22196299.540   116642387.009 9        49.000    22196295.780    90890172.96546
        41.000    22196296.620
  24962700.920   131179887.996 6        41.350    24962696.980   102218062.20544
        34.300
  25589296.060   134472616.505 5        36.600    25589297.280   104783887.16344
        34.400    25589297.500
  25677809.860   134937792.189 4        35.250    25677809.900   105146329.73744
        32.550    25677810.400
  20892506.460   109790882.123 9        49.700    20892502.660    85551321.45648
        45.350    20892503.380
  24745265.900   130037259.170 6        41.850    24745265.380   101327740.63245
        38.000    24745266.400
 19  9 29 17 12  0.0000000  0 10G02G05G07G13G15G21G25G26G29G30
  22005441.880   115639382.747 8        47.650    22005435.380    90108591.29946
        41.950
  20610062.180   108306624.382 9        50.650    20610057.800    84394774.46348
        45.300    20610058.580
  25497028.380   133987798.730 6        40.650    25497025.460   104406068.64944
        32.950    25497026.040
  20978226.980   110241352.923 8        48.450    20978222.640    85902377.83647
        43.500
  22176833.120   116540090.608 9        49.200    22176829.360    90810461.53246
        41.300    22176830.220
  24947292.780   131098917.902 7        42.000    24947288.780   102154968.68145
        36.800
  25605165.700   134556011.973 5        38.350    25605166.920   104848870.58344
        35.200    25605167.200
  25679327.960   134945769.890 4        33.950    25679328.000   105152546.13043
        29.850    25679328.520
  20890442.920   109780038.426 9        49.650    20890439.200    85542871.83248
        45.200    20890439.920
  24737894.380   129998521.983 7        43.200    24737893.840   101297555.86445
        36.050    24737894.880
 19  9 29 17 12 30.0000000  0  9G02G05G07G13G15G21G25G29G30
  22015680.040   115693184.525 8        47.100    22015673.500    90150514.74447
        42.950
  20618203.340   108349406.479 9        50.500    20618199.000    84428111.16648
        45.400    20618199.760
  25497434.060   133989930.348 6        40.600    25497431.160   104407729.61744
        32.550    25497431.720
  20967744.500   110186267.437 8        48.750    20967740.220    85859454.09347
        43.600
  22157426.780   116438109.997 8        48.350    22157423.080    90730996.17546
        41.850    22157423.940
  24931881.940   131017933.531 7        42.700    24931877.940   102091864.00745
        36.200
  25621030.520   134639382.002 5        36.750    25621031.740   104913834.16444
        35.850    25621032.040
  20888499.180   109769824.290 9        49.850    20888495.540    85534912.76347
        44.850    20888496.260
  24730597.800   129960178.414 6        41.950    24730597.220   101267677.82245
        37.150    24730598.280
 19  9 29 17 13  0.0000000  0  9G02G05G07G13G15G21G25G29G30
  22025975.340   115747286.468 8        47.400    22025968.740    90192672.07847
        42.550
  20626397.360   108392466.350 9        50.250    20626393.020    84461664.33348
        45.300    20626393.760
  25497927.380   133992522.705 6        40.500    25497924.500   104409749.64744
        33.300    25497925.040
  20957365.000   110131723.043 9        49.350    20957360.760    85816951.98847
        43.750
  22138079.040   116336437.300 8        47.800    22138075.380    90651770.74546
        40.950    22138076.260
  24916466.500   130936924.865 7        43.250    24916462.480   102028740.42445
        38.000
  25636887.860   134722712.955 5        37.150    25636889.060   104978767.32743
        28.050    25636889.440
  20886673.380   109760229.835 9        50.400    20886669.780    85527436.56647
        44.550    20886670.500
  24723374.540   129922219.951 7        42.550    24723373.940   101238099.79045
        36.400    24723375.020
 19  9 29 17 13 30.0000000  0  9G02G05G07G13G15G21G25G29G30
  22036327.940   115801689.457 8        47.050    22036321.320    90235063.97447
        43.000
  20634644.200   108435803.779 9        50.050    20634639.860    84495433.74848
        45.400    20634640.600
  25498508.700   133995577.530 6        40.700    25498505.840   104412129.99843
        31.800    25498506.380
  20947089.080   110077722.596 9        49.700    20947084.860    85774873.71147
        43.800
  22118790.580   116235076.031 8        48.450    22118787.000    90572787.95546
        39.050    22118787.860
  24901046.760   130855893.524 7        42.400    24901042.740   101965599.13444
        35.850
  25652737.440   134806002.978 5        37.800    25652738.620   105043668.57544
        34.800    25652739.040
  20884965.780   109751256.460 9        50.000    20884962.220    85520444.31847
        44.700    20884962.940
  24716225.120   129884649.597 7        44.150    24716224.500   101208824.20945
        36.750    24716225.580
 19  9 29 17 14  0.0000000  0 10G02G05G07G13G15G21G25G26G29G30
  22046737.420   115856391.496 8        47.150    22046730.800    90277688.93047
        42.750
  20642943.200   108479415.366 9        50.050    20642938.900    84529416.79048
        45.850    20642939.640
  25499177.600   133999092.697 6        40.550    25499174.740   104414869.12043
        31.850    25499175.280
  20936916.700   110024266.252 9        49.600    20936912.460    85733219.42447
        43.150
  22099561.520   116134026.755 9        49.150    22099557.940    90494048.24546
        40.100    22099558.820
  24885622.440   130774838.167 7        42.250    24885618.420   101902439.14145
        36.350
  25668578.300   134889247.104 4        34.900    25668579.500   105108534.02743
        31.150    25668579.940
  25686307.940   134982453.719 4        34.800    25686307.040   105181148.64244
        32.050    25686309.060
  20883376.200   109742903.124 9        49.450    20883372.620    85513935.22348
        45.300    20883373.360
  24709149.580   129847467.570 7        44.550    24709148.920   101179851.22944
        33.250    24709150.000
 19  9 29 17 14 30.0000000  0  9G02G05G07G13G15G21G25G29G30
  22057205.360   115911400.732 8        46.950    22057198.760    90320553.26347
        43.350
  20651295.760   108523308.375 9        50.100    20651291.480    84563619.11548
        45.900    20651292.220
  25499935.760   134003077.002 6        40.650    25499932.880   104417973.79843
        31.700    25499933.440
  20926849.680   109971363.568 9        49.350    20926845.400    85691996.57647
        42.850
  22080393.860   116033300.085 9        49.300    22080390.260    90415559.94746
        41.050    22080391.120
  24870195.300   130693767.942 6        41.900    24870191.220   101839267.54444
        32.050
  25684411.460   134972450.956 5        37.350    25684412.640   105173368.16844
        34.550    25684413.120
  20881906.140   109735178.106 9        49.800    20881902.560    85507915.74547
        44.550    20881903.320
  24702149.920   129810684.017 7        42.050    24702149.180   101151188.76145
        37.350    24702150.260
 19  9 29 17 15  0.0000000  0  9G02G05G07G13G15G21G25G29G30
  22067730.000   115966708.033 8        47.300    22067723.440    90363649.86647
        42.550
  20659699.760   108567471.730 9        50.550    20659695.520    84598032.11048
        45.050    20659696.260
  25500781.480   134007521.530 6        41.100    25500778.540   104421437.07444
        33.300    25500779.140
  20916886.680   109919007.571 9        49.050    20916882.360    85651199.71547
        42.400
  22061286.300   115932889.337 9        49.150    22061282.660    90337317.84446
        41.850    22061283.520
  24854763.680   130612674.442 7        42.100    24854759.540   101776077.85344
        35.150
  25700234.660   135055601.926 4        35.300    25700235.840   105238160.98343
        30.400    25700236.360
  20880554.020   109728072.862 9        49.650    20880550.480    85502379.18547
        44.350    20880551.240
  24695224.720   129774291.753 7        42.850    24695223.960   101122831.15745
        37.250    24695225.040
 19  9 29 17 15 30.0000000  0  9G02G05G07G13G15G21G25G29G30
  22078311.840   116022315.823 8        46.750    22078305.320    90406980.58846
        41.900
  20668155.500   108611906.857 9        50.600    20668151.280    84632656.86648
        45.100    20668152.020
  25501715.360   134012429.218 6        39.850    25501712.400   104425261.28043
        30.350    25501713.020
  20907028.460   109867202.304 8        47.950    20907024.120    85610831.98147
        43.000
  22042239.860   115832799.729 8        48.850    22042236.180    90259326.00247
        42.350    22042237.040
  24839328.260   130531560.985 7        42.500    24839324.060   101712872.59744
        34.850
  25716047.820   135138700.503 6        39.000    25716049.040   105302913.02544
        34.350    25716049.560
  20879320.460   109721590.447 9        49.950    20879316.900    85497327.93647
        44.100    20879317.680
  24688374.840   129738295.506 7        43.500    24688374.140   101094782.13445
        37.850    24688375.180
 19  9 29 17 16  0.0000000  0  9G02G05G07G13G15G21G25G29G30
  22088951.040   116078225.049 8        46.500    22088944.560    90450546.18447
        42.100
  20676662.840   108656613.089 9        50.500    20676658.600    84667492.89147
        44.900    20676659.320
  25502737.620   134017801.346 6        39.200    25502734.660   104429447.32543
        31.750    25502735.280
  20897275.460   109815950.143 8        48.450    20897271.120    85570895.24247
        43.300
  22023255.180   115733034.594 9        49.000    22023251.460    90181586.96646
        41.050    22023252.340
  24823889.420   130450429.486 7        43.200    24823885.180   101649653.25944
        35.250
  25731850.540   135221744.271 5        36.250    25731851.780   105367622.40543
        31.800    25731852.280
  20878205.600   109715731.997 9        50.050    20878202.040    85492762.91447
        44.100    20878202.840
  24681600.920   129702698.172 7        42.750    24681600.260   101067043.94145
        36.200    24681601.260
 19  9 29 17 16 30.0000000  0 10G02G05G07G13G15G21G25G26G29G30
  22099647.340   116134434.551 8        47.900    22099640.880    90494345.79446
        41.250
  20685221.340   108701588.171 9        50.400    20685217.060    84702538.40947
        44.900    20685217.780
  25503848.080   134023637.029 5        38.250    25503845.120   104433994.62244
        35.450    25503845.760
  20887627.860   109765251.849 8        48.950    20887623.520    85531390.09047
        43.650
  22004332.540   115633595.410 9        49.500    22004328.820    90104101.90446
        39.550    22004329.700
  24808447.020   130369279.305 7        43.050    24808442.720   101586419.40145
        37.250
  25747642.200   135304729.576 5        37.400    25747643.500   105432286.14244
        34.900    25747644.000
  25697049.200   135038908.197 5        37.650    25697051.100   105225105.05543
        31.950    25697050.180
  20877209.340   109710496.723 9        50.350    20877205.800    85488683.48247
        44.500    20877206.580
  24674903.020   129667500.635 6        41.600    24674902.420   101039617.32844
        35.850    24674903.400
 19  9 29 17 17  0.0000000  0 10G02G05G07G13G15G21G25G26G29G30
  22110401.100   116190945.886 8        46.800    22110394.660    90538380.58646
        41.750
  20693831.120   108746832.846 9        49.900    20693826.820    84737794.00148
        45.100    20693827.560
  25505047.120   134029938.182 5        38.300    25505044.200   104438904.60544
        32.550    25505044.840
  20878086.360   109715111.133 9        49.050    20878082.020    85492319.42147
        43.700
  21985472.700   115534486.216 8        48.600    21985468.920    90026873.95346
        40.800    21985469.840
  24793001.580   130288113.114 7        42.450    24792997.240   101523173.06045
        36.600
  25763422.500   135387655.318 5        37.250    25763423.820   105496903.50344
        35.450    25763424.360
  25699464.360   135051598.819 5        37.350    25699465.820   105234993.82244
        35.650    25699465.020
  20876332.240   109705887.400 9        50.550    20876328.660    85485091.79647
        44.900    20876329.440
  24668281.960   129632706.796 6        41.600    24668281.380   101012505.23545
        37.150    24668282.360
 19  9 29 17 17 30.0000000  0 10G02G05G07G13G15G21G25G26G29G30
  22121212.320   116247759.025 8        47.700    22121205.860    90582650.52846
        41.950
  20702491.800   108792345.056 9        49.850    20702487.500    84773258.05648
        45.200    20702488.240
  25506334.780   134036705.070 5        38.800    25506331.880   104444177.47043
        31.750    25506332.540
  20868651.280   109665529.579 9        49.350    20868646.940    85453684.46947
        43.700
  21966676.160   115435709.829 8        47.750    21966672.340    89949905.35247
        42.950    21966673.260
  24777553.240   130206931.695 6        41.100    24777548.880   101459914.86045
        37.250
  25779190.920   135470518.648 4        35.450    25779192.280   105561472.23343
        30.300    25779192.820
  25701967.940   135064755.210 5        37.050    25701969.100   105245245.55944
        34.350    25701968.540
  20875574.260   109701903.981 9        50.700    20875570.640    85481987.81447
        44.950    20875571.420
  24661738.080   129598318.490 7        42.600    24661737.540   100985709.11844
        35.200    24661738.500
 19  9 29 17 18  0.0000000  0 10G02G05G07G13G15G21G25G26G29G30
  22132080.800   116304873.184 8        47.200    22132074.340    90627155.05347
        42.100
  20711203.120   108838123.522 9        49.650    20711198.840    84808929.59248
        45.100    20711199.580
  25507711.000   134043937.402 6        39.800    25507708.120   104449813.05643
        31.300    25507708.800
  20859322.800   109616508.031 9        49.400    20859318.440    85415485.87047
        43.700
  21947943.220   115337267.846 8        47.700    21947939.400    89873197.36647
        43.600    21947940.340
  24762102.060   130125735.398 7        42.800    24762097.680   101396645.09044
        35.250
  25794946.880   135553316.320 5        38.000    25794948.220   105625989.79744
        34.900    25794948.820
  25704559.840   135078375.631 4        35.350    25704560.980   105255858.79344
        33.200    25704560.500
  20874935.340   109698546.074 9        50.850    20874931.640    85479371.25948
        45.200    20874932.420
  24655271.660   129564337.119 7        43.100    24655271.140   100959230.12944
        35.950    24655272.080
 19  9 29 17 18 30.0000000  0  9G02G05G07G13G15G21G26G29G30
  22143006.380   116362287.242 8        47.400    22142999.880    90671893.25346
        41.550
  20719964.560   108884165.431 9        49.950    20719960.320    84844806.39848
        45.050    20719961.060
  25509175.640   134051634.139 6        39.900    25509172.800   104455810.47743
        31.450    25509173.480
  20850101.000   109568047.047 9        49.450    20850096.620    85377724.07347
        43.700
  21929274.160   115239161.573 9        49.000    21929270.400    89796750.94547
        43.200    21929271.340
  24746648.040   130044523.935 7        43.300    24746643.660   101333363.42944
        34.750
  25707239.500   135092457.752 5        36.150    25707240.460   105266831.91344
        34.600    25707240.160
  20874415.340   109695813.101 9        51.050    20874411.580    85477241.65948
        45.250    20874412.360
  24648882.780   129530763.417 7        42.900    24648882.240   100933068.82244
        35.100    24648883.200
 19  9 29 17 19  0.0000000  0 10G02G05G07G13G15G21G25G26G29G30
  22153990.040   116420006.476 8        46.600    22153983.460    90716869.25547
        42.000
  20728776.900   108930474.785 9        49.900    20728772.680    84880891.61748
        45.400    20728773.420
  25510729.700   134059800.845 6        39.000    25510726.900   104462174.11943
        30.050    25510727.600
  20840987.180   109520153.595 9        49.000    20840982.800    85340404.51647
        43.700
  21910670.540   115141399.048 9        49.200    21910666.840    89720572.37847
        42.200    21910667.760
  24731192.260   129963303.250 7        42.700    24731187.860   101270074.59844
        35.050
  25826418.580   135718745.932 4        34.550    25826419.740   105754874.88843
        29.150    25826421.220
  25710007.880   135107005.753 4        35.250    25710008.820   105278168.00544
        32.650    25710008.560
  20874015.340   109693710.737 9        50.800    20874011.520    85475603.45048
        45.300    20874012.300
  24642572.920   129497604.813 7        42.550    24642572.320   100907230.99644
        35.050    24642573.280
 19  9 29 17 19 30.0000000  0  9G02G05G07G13G15G21G25G29G30
  22165029.580   116478019.474 8        47.300    22165022.940    90762074.16246
        41.250
  20737637.740   108977038.863 9        49.700    20737633.540    84917175.30848
        45.450    20737634.280
  25512371.080   134068426.390 5        38.150    25512368.300   104468895.24944
        32.200    25512369.020
  20831979.540   109472818.177 8        48.800    20831975.140    85303519.79747
        43.800
  21892130.660   115043971.366 9        49.350    21892126.960    89644654.71046
        39.950    21892127.900
  24715732.780   129882063.085 7        42.800    24715728.340   101206770.60545
        36.800
  25842133.520   135801325.816 5        36.800    25842134.440   105819222.71644
        35.100    25842135.740
  20873733.240   109692227.908 9        50.750    20873729.360    85474447.99247
        44.850    20873730.120
  24636340.260   129464851.938 7        42.700    24636339.580   100881709.27845
        37.300    24636340.560
 19  9 29 17 20  0.0000000  0  9G02G05G07G13G15G21G25G29G30
  22176127.300   116536338.147 8        46.650    22176120.600    90807517.25347
        42.750
  20746549.180   109023868.820 9        49.850    20746545.000    84953666.17447
        44.650    20746545.740
  25514102.180   134077523.366 5        38.600    25514099.420   104475983.77745
        36.050    25514100.140
  20823080.700   109426054.520 9        49.400    20823076.280    85267080.61747
        43.650
  21873657.340   114946893.304 9        49.800    21873653.560    89569009.46846
        39.800    21873654.520
  24700272.020   129800816.232 7        42.200    24700267.540   101143461.39045
        36.350
  25857834.660   135883834.054 5        38.100    25857835.620   105883514.75944
        33.500    25857836.560
  20873571.340   109691376.823 9        50.750    20873567.400    85473784.81347
        44.850    20873568.160
  24630187.460   129432518.881 7        43.200    24630186.740   100856514.71245
        36.950    24630187.720
 19  9 29 17 20 30.0000000  0 10G02G05G07G13G15G21G25G26G29G30
  22187281.820   116594955.459 8        46.050    22187275.100    90853193.05047
        42.900
  20755509.640   109070956.471 9        50.050    20755505.500    84990357.83547
        44.700    20755506.220
  25515921.620   134087084.677 5        38.850    25515918.900   104483434.15844
        33.650    25515919.620
  20814289.580   109379856.949 9        49.250    20814285.140    85231082.51747
        43.500
  21855249.700   114850160.376 9        50.000    21855245.820    89493633.17246
        40.900    21855246.800
  24684808.860   129719556.954 7        42.200    24684804.340   101080142.54345
        36.200
  25873520.360   135966260.499 3        31.150
                  25873521.800
  25718836.220   135153387.358 4        34.150    25718835.160   105314337.44544
        32.250    25718836.740
  20873528.340   109691150.625 9        50.800    20873524.340    85473608.56048
        45.250    20873525.120
  24624113.600   129400600.466 7        42.750    24624112.820   100831643.25444
        35.650    24624113.820
 19  9 29 17 21  0.0000000  0 10G02G05G07G13G15G21G25G26G29G30
  22198494.160   116653876.708 8        45.650    22198487.460    90899105.66747
        42.550
  20764519.780   109118304.961 9        50.250    20764515.640    85027252.75647
        44.650    20764516.360
  25517830.400   134097115.549 5        38.150    25517827.720   104491250.44643
        29.850    25517828.420
  20805607.460   109334232.169 8        48.950    20805603.000    85195530.77547
        43.350
  21836909.060   114753779.610 9        49.700    21836905.080    89418531.30547
        42.200    21836906.100
  24669344.460   129638291.191 7        42.450    24669339.940   101016818.60545
        36.250
  25889189.800   136048618.403 4        34.950    25889193.200   106011907.26844
        34.150    25889191.240
  25721953.680   135169770.383 4        33.850    25721953.540   105327103.37544
        33.050    25721954.160
  20873605.320   109691554.993 9        50.750    20873601.280    85473923.65348
        45.200    20873602.060
  24618120.000   129369103.857 6        41.800    24618119.180   100807100.46844
        35.800    24618120.200
 19  9 29 17 21 30.0000000  0 10G02G05G07G13G15G21G25G26G29G30
  22209763.680   116713098.501 8        46.350    22209757.020    90945252.49447
        42.350
  20773578.900   109165910.808 9        50.250    20773574.740    85064348.20548
        45.200    20773575.480
  25519828.060   134107613.255 6        39.100    25519825.400   104499430.39544
        33.900    25519826.120
  20797034.060   109289178.716 8        48.600    20797029.600    85160424.20147
        43.200
  21818635.440   114657750.860 9        49.300    21818631.400    89343703.73046
        41.750    21818632.400
  24653878.460   129557016.923 7        43.000    24653873.920   100953488.02544
        35.550
  25904843.680   136130882.255 4        32.550    25904846.940   106076009.03043
        29.100    25904845.420
  25725157.900   135186609.634 4        33.950    25725158.080   105340224.93744
        33.800    25725158.500
  20873801.720   109692586.866 9        50.650    20873797.640    85474727.70848
        45.000    20873798.420
  24612206.460   129338027.889 7        43.050    24612205.620   100782885.41645
        36.750    24612206.660
 19  9 29 17 22  0.0000000  0  9G02G05G07G13G15G21G25G29G30
  22221089.200   116772614.445 8        46.700    22221082.540    90991628.52547
        42.650
  20782685.500   109213766.148 9        50.150    20782681.360    85101638.06447
        44.900    20782682.080
  25521913.320   134118571.609 6        39.200    25521910.720   104507969.41544
        32.650    25521911.400
  20788568.500   109244692.106 8        48.550    20788564.040    85125759.33747
        43.800
  21800428.120   114562070.635 8        48.700    21800424.020    89269147.74346
        41.700    21800425.000
  24638409.820   129475728.776 7        42.200    24638405.240   100890146.63644
        35.050
  25920480.360   136213052.693 4        34.650    25920483.160   106140037.75944
        34.100    25920482.160
  20874116.440   109694240.529 9        50.550    20874112.300    85476016.28248
        45.200    20874113.080
  24606372.160   129307368.352 7        42.800    24606371.320   100758994.89845
        36.750    24606372.340
 19  9 29 17 22 30.0000000  0  9G02G05G07G13G15G21G25G29G30
  22232472.860   116832435.861 8        45.900    22232466.260    91038242.57747
        43.800
  20791841.480   109261881.019 9        50.150    20791837.340    85139130.15748
        45.100    20791838.080
  25524088.480   134130002.021 6        39.000    25524085.880   104516876.23644
        32.950    25524086.560
  20780213.140   109200784.603 8        48.750    20780208.680    85091545.72047
        44.200
  21782289.620   114466752.287 8        48.350    21782285.500    89194873.74246
        41.450    21782286.480
  24622940.860   129394438.798 6        41.100    24622936.220   100826803.75143
        31.300
  25936100.700   136295137.968 4        32.200    25936103.280   106204000.24142
        26.000    25936102.520
  20874551.540   109696526.926 9        50.550    20874547.380    85477797.89947
        44.700    20874548.160
  24600619.520   129277138.158 6        41.900    24600618.680   100735438.94045
        37.500    24600619.700
 19  9 29 17 23  0.0000000  0 10G02G05G07G13G15G21G25G26G29G30
  22243911.780   116892547.689 8        46.700    22243905.200    91085082.93847
        42.650
  20801043.800   109310239.311 9        49.850    20801039.640    85176811.93347
        44.300    20801040.380
  25526350.620   134141889.665 6        39.350    25526348.040   104526139.31743
        29.350    25526348.700
  20771965.520   109157443.322 8        48.600    20771961.100    85057773.30847
        43.700
  21764217.620   114371783.441 8        48.450    21764213.460    89120872.07946
        41.150    21764214.440
  24607468.880   129313133.249 6        40.950    24607464.140   100763448.78445
        37.150
  25951702.740   136377105.72513        30.050    25951704.360   106267873.62653
        30.600    25951703.760
  25735285.480   135239842.818 4        35.650    25735286.980   105381676.28744
        32.350    25735286.920
  20875104.300   109699431.702 9        50.800    20875100.140    85480061.35547
        44.500    20875100.920
  24594946.160   129247324.477 7        42.800    24594945.360   100712207.49645
        36.900    24594946.360
 19  9 29 17 23 30.0000000  0 10G02G05G07G13G15G21G25G26G29G30
  22255409.320   116952967.504 8        45.700    22255402.740    91132163.31147
        44.000
  20810295.620   109358857.964 9        49.650    20810291.460    85214696.59347
        43.900    20810292.200
  25528703.180   134154252.307 6        39.650    25528700.600   104535772.54044
        32.150    25528701.260
  20763829.280   109114687.226 9        49.200    20763824.840    85024456.88047
        43.250
  21746216.020   114277184.628 8        48.050    21746211.840    89047158.74546
        41.950    21746212.820
  24591997.440   129231830.774 6        41.900    24591992.640   100700096.26844
        35.500
  25967286.420   136459009.641 4        33.200    25967286.440   106331715.94044
        33.050    25967289.280
  25738834.340   135258491.391 4        34.950    25738834.780   105396207.67944
        34.800    25738835.360
  20875778.100   109702972.485 9        50.800    20875773.920    85482820.40647
        44.800    20875774.700
  24589355.780   129217946.826 7        42.050    24589355.000   100689315.81246
        39.950    24589355.980
 19  9 29 17 24  0.0000000  0  9G02G05G07G13G15G21G25G29G30
  22266963.220   117013683.645 8        46.100    22266956.640    91179474.57547
        43.050
  20819594.420   109407723.496 9        49.500    20819590.220    85252773.62347
        42.800    20819591.000
  25531143.840   134167078.062 6        40.200    25531141.280   104545766.68043
        31.350    25531141.900
  20755802.480   109072506.084 9        49.150    20755798.000    84991588.47047
        43.200
  21728283.020   114182946.364 8        48.600    21728278.820    88973726.35046
        41.450    21728279.820
  24576524.540   129150520.714 7        43.200    24576519.740   100636737.83145
        38.500
  25982850.660   136540796.023 4        35.450    25982851.320   106395435.66643
        28.650    25982854.220
  20876570.720   109707137.502 9        50.800    20876566.500    85486065.86847
        44.350    20876567.280
  24583846.500   129188995.380 7        42.750    24583845.740   100666756.26244
        35.100    24583846.720
 19  9 29 17 24 30.0000000  0  8G02G05G07G13G15G21G29G30
  22278573.060   117074693.503 8        46.600    22278566.480    91227014.65747
        42.900
  20828939.460   109456832.257 9        49.100    20828935.260    85291040.17447
        44.000    20828936.060
  25533672.300   134180365.083 6        39.850    25533669.760   104556120.19043
        30.600    25533670.360
  20747884.920   109030899.025 8        48.950    20747880.400    84959167.39747
        43.800
  21710418.580   114089068.618 9        49.650    21710414.380    88900574.90946
        41.200    21710415.400
  24561049.940   129069201.518 7        43.150    24561045.140   100573372.28745
        38.050
  20877481.720   109711924.863 9        50.600    20877477.500    85489796.29247
        44.900    20877478.260
  24578418.200   129160469.579 7        42.250    24578417.440   100644528.38144
        35.450    24578418.420
 19  9 29 17 25  0.0000000  0  8G02G05G07G13G15G21G29G30
  22290240.620   117136007.019 8        46.650    22290234.080    91274791.40447
        42.650
  20838332.580   109506193.598 9        49.450    20838328.380    85329503.54447
        44.050    20838329.200
  25536290.460   134194123.467 6        40.400    25536287.960   104566840.95643
        31.900    25536288.540
  20740078.740   108989877.364 8        48.650    20740074.180    84927202.49147
        44.250
  21692625.220   113995564.154 9        50.200    21692620.980    88827714.32647
        42.100    21692622.020
  24545575.820   128987884.715 6        41.300    24545571.000   100510008.59845
        36.850
  20878513.080   109717344.528 9        50.950    20878508.840    85494019.39747
        44.700    20878509.600
  24573073.240   129132381.585 7        42.700    24573072.440   100622641.64344
        35.250    24573073.420
 19  9 29 17 25 30.0000000  0  8G02G05G07G13G15G21G29G30
  22301965.280   117197620.436 8        46.350    22301958.700    91322801.84747
        42.350
  20847772.860   109555802.799 9        49.900    20847768.660    85368160.05647
        44.200    20847769.500
  25538997.580   134208349.557 6        39.950    25538995.100   104577926.24443
        29.150    25538995.660
  20732383.600   108949439.115 8        48.100    20732379.040    84895692.16547
        43.900
  21674902.740   113902432.003 9        50.250    21674898.460    88755143.85146
        41.550    21674899.520
  24530101.660   128906567.640 5        38.900    24530096.820   100446644.67643
        29.750
  20879664.060   109723392.859 9        50.750    20879659.800    85498732.37247
        44.850    20879660.540
  24567811.240   129104729.546 6        41.900    24567810.380   100601094.59644
        32.700    24567811.400
 19  9 29 17 26  0.0000000  0  9G02G05G07G13G15G20G21G29G30
  22313747.080   117259534.276 8        45.900    22313740.480    91371046.38947
        43.150
  20857260.080   109605658.516 9        50.000    20857255.860    85407008.66547
        44.150    20857256.720
  25541793.780   134223043.569 6        39.650    25541791.320   104589376.13144
        34.900    25541791.860
  20724799.760   108909586.008 8        48.300    20724795.220    84864637.81747
        43.850
  21657251.640   113809674.930 9        49.750    21657247.320    88682865.65446
        41.600    21657248.380
  25675378.680   134925030.491 5        36.350    25675382.720   105136398.96554
        32.200
  24514627.700   128825251.478 6        41.000    24514622.760   100383281.44343
        30.000
  20880934.800   109730070.306 9        50.900    20880930.500    85503935.56547
        44.650    20880931.220
  24562632.600   129077515.657 7        42.300    24562631.660   100579888.95944
        34.950    24562632.720
 19  9 29 17 26 30.0000000  0  8G02G05G07G13G15G21G29G30
  22325585.880   117321747.353 8        46.650    22325579.280    91419524.04847
        43.200
  20866793.860   109655758.860 9        49.750    20866789.620    85446047.89447
        44.650    20866790.480
  25544678.880   134238204.783 6        39.950    25544676.420   104601190.05244
        33.750    25544676.920
  20717327.300   108870318.237 8        48.250    20717322.780    84834039.58247
        44.650
  21639672.160   113717294.171 9        50.400    21639667.780    88610880.69046
        40.850    21639668.860
  24499153.940   128743936.463 7        43.150    24499148.900   100319919.09144
        35.850
  20882325.000   109737375.631 9        50.700    20882320.700    85509628.00347
        44.800    20882321.380
  24557537.440   129050740.636 7        42.700    24557536.440   100559025.36245
        36.100    24557537.540
 19  9 29 17 27  0.0000000  0  9G02G05G07G13G15G20G21G29G30
  22337481.000   117384256.597 8        46.250    22337474.440    91468232.53147
        43.650
  20876373.560   109706100.371 9        49.600    20876369.280    85485275.02547
        44.500    20876370.160
  25547652.400   134253830.573 6        39.350    25547649.920   104613366.00944
        33.750    25547650.440
  20709966.120   108831635.080 8        48.700    20709961.640    84803896.86447
        44.250
  21622164.340   113625289.817 9        51.000    21622159.900    88539189.00646
        40.800    21622160.980
  25641619.900   134747619.666 4        33.700    25641618.460   104998136.43943
        29.050
  24483680.140   128662621.111 7        44.400    24483675.020   100256556.49645
        37.800
  20883834.280   109745306.714 9        50.400    20883829.980    85515808.06247
        44.750    20883830.640
  24552525.720   129024403.943 6        40.500    24552524.680   100538503.24845
        37.050    24552525.780
 19  9 29 17 27 30.0000000  0  9G02G05G07G13G15G20G21G29G30
  22349433.680   117447068.357 8        46.300    22349427.220    91517176.76047
        42.900
  20886000.080   109756687.981 9        49.900    20885995.800    85524693.93147
        44.350    20885996.660
  25550715.520   134269927.209 5        37.750    25550713.000   104625908.84043
        31.150    25550713.520
  20702717.600   108793543.947 8        48.950    20702713.120    84774215.47547
        44.250
  21604729.860   113533670.848 9        50.800    21604725.340    88467797.60846
        40.600    21604726.440
  25624749.460   134658963.665 4        32.600    25624747.960   104929053.88243
        30.600
  24468207.740   128581313.039 7        43.400    24468202.580   100193199.58646
        40.300
  20885463.780   109753869.755 9        50.400    20885459.500    85522480.54747
        44.650    20885460.140
  24547598.940   128998513.689 6        40.550    24547597.960   100518329.01246
        39.200    24547599.040
 19  9 29 17 28  0.0000000  0  8G02G05G07G13G15G21G29G30
  22361441.520   117510169.908 8        46.800    22361435.140    91566346.77747
        43.000
  20895670.740   109807507.705 9        50.500    20895666.460    85564293.71847
        43.950    20895667.320
  25553865.720   134286481.569 5        38.500    25553863.200   104638808.30043
        31.850    25553863.740
  20695579.500   108756033.039 8        48.850    20695575.040    84744986.19847
        44.200
  21587366.660   113442426.375 9        50.550    21587362.020    88396698.04746
        41.050    21587363.140
  24452734.340   128499999.908 6        40.850    24452729.180   100129838.77145
        38.150
  20887210.980   109763051.337 9        50.350    20887206.720    85529635.01047
        44.750    20887207.360
  24542754.900   128973058.453 7        42.900    24542753.960   100498493.78745
        36.750    24542755.040
 19  9 29 17 28 30.0000000  0  9G02G05G07G13G15G20G21G29G30
  22373507.560   117573577.245 8        46.500    22373501.220    91615755.07347
        43.100
  20905388.480   109858574.676 9        50.700    20905384.160    85604086.16647
        44.500    20905385.020
  25557106.140   134303510.139 5        38.750    25557103.600   104652077.31544
        33.950    25557104.160
  20688555.200   108719120.159 8        48.850    20688550.740    84716222.92747
        44.600
  21570078.260   113351575.280 9        50.150    21570073.580    88325905.03746
        41.700    21570074.700
  25591023.340   134481734.178 6        40.350    25591021.040   104790967.11744
        35.250
  24437263.280   128418699.467 6        39.500    24437258.140   100066487.91644
        35.200
  20889079.020   109772868.145 9        50.100    20889074.780    85537284.47747
        44.850    20889075.420
  24537997.100   128948056.507 7        42.700    24537996.200   100479011.80145
        36.850    24537997.260
 19  9 29 17 29  0.0000000  0 10G02G05G07G13G15G20G21G26G29G30
  22385629.340   117637277.445 8        45.700    22385623.100    91665391.53946
        41.900
  20915150.740   109909875.402 9        50.650    20915146.360    85644060.76347
        44.100    20915147.200
  25560434.380   134321000.095 5        38.600    25560431.820   104665705.83645
        37.050    25560432.420
  20681642.520   108682793.788 8        48.750    20681638.080    84687916.67447
        44.850
  21552862.740   113261107.359 9        50.250    21552858.060    88255410.59447
        42.600    21552859.200
  25574168.180   134393160.870 4        35.400    25574166.920   104721949.03544
        34.150
  24421792.480   128337400.148 7        43.300    24421787.420   100003137.82344
        32.100
  25783453.500   135492959.090 5        37.500    25783453.540   105578930.57845
        36.150    25783454.820
  20891065.480   109783307.095 9        50.150    20891061.280    85545418.70747
        44.900    20891061.920
  24533323.580   128923496.918 6        40.300    24533322.700   100459874.44244
        35.500    24533323.720
 19  9 29 17 29 30.0000000  0  9G02G05G07G13G15G20G21G29G30
  22397807.860   117701275.960 8        46.000    22397801.700    91715260.49246
        41.600
  20924958.280   109961414.125 9        50.350    20924953.860    85684220.81247
        44.300    20924954.680
  25563851.500   134338957.161 5        38.200    25563848.940   104679698.31244
        35.150    25563849.560
  20674842.800   108647061.034 9        49.050    20674838.380    84660072.98647
        44.350
  21535721.680   113171030.685 9        50.250    21535717.080    88185221.00347
        43.200    21535718.180
  25557318.960   134304618.767 5        38.250    25557318.260   104652955.18643
        31.750
  24406323.300   128256108.696 8        45.400    24406318.300    99939793.71243
        31.850
  20893171.340   109794373.763 9        50.500    20893167.200    85554042.07948
        45.550    20893167.860
  24528735.640   128899387.207 7        42.800    24528734.860   100441087.62145
        37.550    24528735.840
 19  9 29 17 30  0.0000000  0  9G02G05G07G13G15G20G21G29G30
  22410041.960   117765566.703 8        45.650    22410035.900    91765357.15446
        40.800
  20934809.800   110013183.876 9        50.300    20934805.340    85724560.87147
        44.150    20934806.160
  25567356.340   134357375.201 6        40.600    25567353.780   104694050.00343
        30.500    25567354.420
  20668155.080   108611916.865 8        48.750    20668150.680    84632687.93447
        43.750
  21518654.420   113081341.781 9        50.050    21518649.860    88115333.57246
        41.800    21518650.960
  25540474.560   134216102.148 5        37.200    25540474.080   104583981.25144
        34.750
  24390854.720   128174820.431 7        44.850    24390849.660    99876452.15845
        36.200
  20895395.520   109806062.003 9        50.750    20895391.440    85563149.79448
        45.650    20895392.080
  24524232.480   128875722.941 7        43.800    24524231.720   100422647.94245
        37.200    24524232.680
 19  9 29 17 30 30.0000000  0 10G02G05G07G13G15G20G21G26G29G30
  22422333.340   117830158.340 8        45.100    22422327.320    91815688.27646
        40.900
  20944706.760   110065192.481 9        50.200    20944702.280    85765087.05547
        44.250    20944703.060
  25570950.540   134376262.828 6        39.850    25570947.960   104708767.64943
        31.650    25570948.600
  20661581.300   108577371.558 8        48.700    20661576.920    84605769.53347
        44.150
  21501663.060   112992051.847 9        49.750    21501658.560    88045757.02446
        41.800    21501659.640
  25523636.700   134127619.745 5        37.750    25523636.220   104515034.06144
        33.750
  24375388.600   128093545.369 6        41.900    24375383.520    99813120.96946
        39.950
  25797371.780   135566106.498 4        33.800    25797373.440   105635930.40543
        28.200    25797372.740
  20897739.600   109818380.242 9        50.550    20897735.560    85572748.41648
        45.700    20897736.200
  24519816.140   128852514.676 7        42.750    24519815.320   100404563.57145
        37.550    24519816.300
 19  9 29 17 31  0.0000000  0 10G02G05G07G13G15G20G21G26G29G30
  22434680.640   117895043.798 8        45.600    22434674.600    91866248.35246
        41.300
  20954647.500   110117431.267 9        49.950    20954643.020    85805792.60247
        44.400    20954643.800
  25574632.700   134395612.883 5        38.950    25574630.080   104723845.65143
        30.100    25574630.760
  20655120.320   108543419.105 8        48.850    20655115.960    84579313.11047
        44.350
  21484746.720   112903156.267 9        49.900    21484742.300    87976487.76947
        43.150    21484743.360
  25506804.360   134039165.417 6        41.350    25506803.840   104446108.57544
        32.450
  24359923.720   128012277.441 5        37.700    24359918.660    99749795.47345
        36.950
  25802174.860   135591347.776 5        36.600    25802176.680   105655598.95644
        34.900    25802176.220
  20900202.220   109831321.450 9        50.350    20900198.220    85582832.47848
        45.850    20900198.860
  24515485.560   128829757.101 6        41.500    24515484.700   100386830.38645
        38.700    24515485.700
 19  9 29 17 31 30.0000000  0 10G02G05G07G13G15G20G21G26G29G30
  22447084.660   117960227.365 8        45.750    22447078.580    91917040.75246
        40.800
  20964632.800   110169904.297 9        49.700    20964628.380    85846680.66147
        44.550    20964629.120
  25578403.780   134415429.866 6        40.100    25578401.160   104739287.46843
        28.500    25578401.820
  20648773.300   108510065.492 9        49.050    20648768.980    84553323.29747
        44.250
  21467906.800   112814662.171 9        49.900    21467902.460    87907531.35647
        44.200    21467903.500
  25489978.200   133950743.588 6        40.200    25489977.580   104377208.50643
        30.300
  24344461.240   127931022.530 7        42.350    24344456.320    99686480.09746
        40.100
  25807059.860   135617019.239 5        36.500    25807061.600   105675602.69544
        34.500    25807061.380
  20902784.220   109844889.988 9        50.300    20902780.260    85593405.36948
        46.050    20902780.900
  24511241.940   128807456.583 6        41.150    24511241.080   100369453.33845
        38.700    24511242.080
 19  9 29 17 32  0.0000000  0 10G02G05G07G13G15G20G21G26G29G30
  22459544.220   118025702.648 8        45.650    22459538.080    91968060.42446
        41.600
  20974661.300   110222604.328 9        49.800    20974656.920    85887745.61047
        44.200    20974657.640
  25582262.440   134435707.133 6        40.700    25582259.820   104755087.89644
        34.950    25582260.480
  20642539.200   108477305.072 9        49.450    20642534.880    84527795.70947
        44.450
  21451142.520   112726565.421 9        50.200    21451138.260    87838884.56347
        44.300    21451139.260
  25473157.180   133862348.424 6        39.550    25473156.320   104308329.19244
        35.700
  24329000.340   127849775.433 8        45.600    24328995.560    99623170.73245
        38.050
  25812025.300   135643112.918 4        34.900    25812026.960   105695935.41844
        34.300    25812026.880
  20905484.280   109859078.973 9        50.300    20905480.380    85604461.72348
        45.950    20905481.000
  24507084.320   128785608.182 7        42.350    24507083.500   100352428.56946
        39.050    24507084.520
 19  9 29 17 32 30.0000000  0 10G02G05G07G13G15G20G21G26G29G30
  22472060.080   118091473.794 8        45.950    22472053.900    92019310.64647
        42.000
  20984733.540   110275534.401 9        49.650    20984729.240    85928989.81547
        43.850    20984729.940
  25586209.540   134456449.249 6        41.500    25586206.940   104771250.56244
        35.600    25586207.580
  20636419.160   108445143.924 9        49.150    20636414.840    84502735.08347
        43.900
  21434455.160   112638873.063 9        50.600    21434451.020    87770552.90047
        43.350    21434451.960
  25456342.300   133773985.426 5        37.800    25456341.120   104239475.00043
        31.200
  24313542.200   127768542.130 8        45.750    24313537.500    99559872.00843
        30.000
  25817071.800   135669632.252 4        35.000    25817073.300   105716599.84044
        32.300    25817073.340
  20908303.340   109873893.259 9        50.250    20908299.500    85616005.31748
        45.850    20908300.120
  24503014.000   128764218.422 6        41.850    24503013.200   100335761.20745
        38.950    24503014.220
 19  9 29 17 33  0.0000000  0  9G02G05G07G13G15G20G21G29G30
  22484631.040   118157534.396 7        44.550    22484624.840    92070786.40947
        42.400
  20994848.200   110328687.377 9        49.250    20994843.960    85970407.70847
        43.750    20994844.660
  25590243.880   134477649.565 7        42.400    25590241.260   104787770.23344
        32.800    25590241.920
  20630412.160   108413576.842 9        49.150    20630407.800    84478137.37147
        44.200
  21417844.100   112551581.472 9        50.500    21417840.040    87702533.49647
        42.550    21417840.940
  25439532.400   133685648.600 6        39.500    25439530.920   104170641.22443
        30.500
  24298085.800   127687317.409 7        44.050    24298081.040    99496579.86643
        30.400
  20911240.020   109889325.790 9        50.100    20911236.300    85628030.66048
        45.750    20911236.880
  24499030.020   128743282.605 7        42.550    24499029.240   100319447.59645
        37.700    24499030.240
 19  9 29 17 33 30.0000000  0 10G02G05G07G13G15G20G21G26G29G30
  22497259.780   118223898.699 8        45.100    22497253.620    92122498.80846
        40.850
  21005007.800   110382076.580 8        48.800    21005003.640    86012009.67047
        44.150    21005004.320
  25594368.180   134499322.629 7        43.500    25594365.560   104804658.27044
        32.300    25594366.220
  20624521.160   108382619.412 8        48.550    20624516.800    84454014.70047
        44.600
  21401312.400   112464706.894 9        50.350    21401308.380    87634839.03446
        41.900    21401309.260
  25422730.340   133597352.808 6        39.750    25422728.580   104101839.40744
        32.650
  24282633.860   127606116.974 6        39.900    24282628.980    99433306.86145
        37.800
  25827406.720   135723941.231 4        35.000    25827406.460   105758906.33243
        28.900    25827407.040
  20914297.060   109905390.841 9        49.850    20914293.440    85640548.87948
        45.950    20914294.000
  24495135.520   128722816.853 7        42.500    24495134.760   100303500.23045
        38.350    24495135.760
 19  9 29 17 34  0.0000000  0  9G02G05G07G13G15G20G21G29G30
  22509943.020   118290549.536 8        46.250    22509936.860    92174434.50046
        41.650
  21015208.900   110435684.024 8        48.750    21015204.860    86053781.68247
        44.250    21015205.520
  25598579.120   134521450.861 7        42.050    25598576.480   104821900.97244
        33.600    25598577.140
  20618743.140   108352255.699 8        48.300    20618738.780    84430354.66647
        44.700
  21384857.360   112378234.936 9        50.350    21384853.320    87567458.29447
        42.800    21384854.200
  25405932.840   133509080.958 5        36.900    25405930.840   104033056.21944
        34.900
  24267183.400   127524924.739 7        42.750    24267178.460    99370040.32446
        41.500
  20917471.160   109922071.015 9        50.250    20917467.620    85653546.40648
        45.650    20917468.180
  24491327.520   128702805.647 7        42.350    24491326.780   100287907.08046
        39.500    24491327.760
 19  9 29 17 34 30.0000000  0  9G02G05G07G13G15G20G21G29G30
  22522682.680   118357496.741 8        46.900    22522676.460    92226601.14146
        41.250
  21025453.320   110489519.188 9        49.250    21025449.380    86095731.15247
        43.600    21025450.040
  25602878.580   134544044.405 6        41.600    25602875.920   104839506.28844
        33.000    25602876.600
  20613080.140   108322496.615 8        48.750    20613075.800    84407165.78747
        44.550
  21368481.320   112292178.157 9        50.400    21368477.260    87500401.07847
        43.500    21368478.140
  25389141.920   133420844.028 5        37.450    25389139.800   103964300.21744
        35.850
  24251736.860   127443752.713 8        45.200    24251731.900    99306789.44346
        41.100
  20920764.160   109939376.078 9        50.250    20920760.720    85667030.86748
        45.300    20920761.260
  24487608.220   128683260.664 7        42.500    24487607.520   100272677.22645
        38.100    24487608.480
 19  9 29 17 35  0.0000000  0  9G02G05G07G13G15G20G21G29G30
  22535478.360   118424737.973 8        45.650    22535472.100    92278996.85947
        43.100
  21035740.400   110543578.353 9        49.700    21035736.540    86137855.16647
        43.950    21035737.200
  25607266.160   134567100.981 7        42.600    25607263.500   104857472.40844
        34.200    25607264.160
  20607531.960   108293340.976 9        49.100    20607527.660    84384447.12047
        44.250
  21352184.300   112206536.710 9        50.400    21352180.260    87433667.50847
        44.250    21352181.100
  25372357.200   133332640.024 5        38.900    25372355.080   103895569.88545
        36.550
  24236293.960   127362599.618 8        45.550    24236288.980    99243553.29645
        38.750
  20924175.580   109957303.248 9        50.300    20924172.220    85681000.06648
        45.550    20924172.720
  24483977.560   128664181.404 6        41.400    24483976.880   100257810.29045
        38.100    24483977.820
 19  9 29 17 35 30.0000000  0  9G02G05G07G13G15G20G21G29G30
  22548330.120   118492273.962 7        44.800    22548323.860    92331622.26646
        41.900
  21046070.120   110597861.545 9        49.950    21046066.300    86180153.74947
        44.250    21046066.960
  25611741.880   134590620.883 7        43.550    25611739.180   104875799.56444
        33.300    25611739.880
  20602099.020   108264790.797 8        48.900    20602094.700    84362200.24247
        44.500
  21335967.000   112121314.110 9        50.500    21335962.960    87367260.31847
        44.050    21335963.780
  25355578.980   133244470.463 6        39.350    25355576.900   103826866.41745
        36.750
  24220855.060   127281467.543 7        42.450    24220850.060    99180333.52844
        35.500
  20927705.500   109975853.102 9        50.150    20927702.160    85695454.49448
        45.600    20927702.660
  24480435.960   128645570.457 6        41.600    24480435.320   100243308.27245
        38.350    24480436.240
 19  9 29 17 36  0.0000000  0  9G02G05G07G13G15G20G21G29G30
  22561237.320   118560101.651 7        44.550    22561231.080    92384475.00546
        40.800
  21056441.820   110652365.215 9        49.900    21056438.020    86222624.14947
        44.400    21056438.660
  25616305.240   134614601.383 7        42.550    25616302.540   104894485.68645
        36.600    25616303.220
  20596781.020   108236844.579 8        48.900    20596776.680    84340423.97847
        44.550
  21319829.280   112036509.719 9        50.200    21319825.220    87301179.01347
        43.550    21319826.020
  25338806.860   133156332.614 6        39.200    25338804.820   103758187.59744
        34.500
  24205419.920   127200355.309 6        39.350    24205414.900    99117129.19844
        35.750
  20931353.300   109995022.555 9        50.450    20931349.980    85710391.73248
        45.200    20931350.480
  24476983.240   128627426.630 7        42.900    24476982.600   100229170.28245
        37.750    24476983.520
 19  9 29 17 36 30.0000000  0  9G02G05G07G13G15G20G21G29G30
  22574200.120   118628221.391 8        45.550    22574193.940    92437555.24846
        40.350
  21066855.340   110707088.503 9        49.950    21066851.540    86265265.65847
        44.150    21066852.180
  25620956.300   134639042.524 7        42.250    25620953.580   104913530.68644
        35.350    25620954.260
  20591578.260   108209503.809 9        49.300    20591573.900    84319119.48247
        44.400
  21303771.680   111952126.278 9        49.950    21303767.620    87235425.69047
        42.950    21303768.400
  25322041.100   133068228.353 6        39.600    25322039.140   103689534.96444
        32.950
  24189988.840   127119264.715 7        42.200    24189983.780    99053941.72045
        36.050
  20935119.080   110014811.694 9        50.600    20935115.740    85725811.83048
        45.000    20935116.240
  24473619.840   128609751.930 7        43.750    24473619.200   100215397.81845
        38.500    24473620.120
 19  9 29 17 37  0.0000000  0  9G02G05G07G13G15G20G21G29G30
  22587218.140   118696631.584 8        45.000    22587212.000    92490861.87046
        41.850
  21077310.220   110762029.215 9        49.550    21077306.420    86308076.60147
        43.700    21077307.060
  25625694.640   134663942.606 6        41.000    25625691.920   104932933.36044
        33.150    25625692.620
  20586490.520   108182767.586 9        49.200    20586486.160    84298286.08047
        44.250
  21287794.420   111868164.997 9        50.200    21287790.320    87170001.34047
        43.150    21287791.100
  25305281.400   132980156.029 5        37.550    25305279.480   103620907.26744
        32.450
  24174561.780   127038195.459 7        44.050    24174556.720    98990770.91445
        38.950
  20939002.320   110035218.234 9        50.350    20938998.940    85741713.03848
        45.100    20938999.460
  24470345.700   128592546.303 7        43.750    24470345.060   100201990.89345
        37.800    24470345.960
 19  9 29 17 37 30.0000000  0  9G02G05G07G13G15G20G21G29G30
  22600291.540   118765332.692 8        45.900    22600285.440    92544395.16346
        40.350
  21087806.520   110817187.607 9        49.650    21087802.720    86351057.14847
        43.600    21087803.360
  25630520.380   134689302.049 6        40.900    25630517.660   104952693.96844
        35.250    25630518.340
  20581518.140   108156637.527 9        49.300    20581513.760    84277925.01147
        44.550
  21271898.000   111784628.525 9        50.050    21271893.860    87104907.98647
        44.250    21271894.640
  25288528.060   132892116.943 5        37.050    25288526.200   103552305.39944
        32.100
  24159139.180   126957149.432 7        44.950    24159134.140    98927618.20746
        39.400
  20943003.200   110056242.854 9        50.700    20942999.800    85758095.84847
        44.600    20943000.320
  24467161.280   128575812.092 7        42.050    24467160.640   100188951.28145
        38.950    24467161.520
 19  9 29 17 38  0.0000000  0  9G02G05G07G13G15G20G21G29G30
  22613420.560   118834326.226 7        44.850    22613414.460    92598156.37146
        41.150
  21098344.340   110872564.286 9        49.550    21098340.520    86394207.80447
        43.800    21098341.180
  25635433.840   134715122.510 5        38.750    25635431.140   104972813.82944
        33.550    25635431.820
  20576661.720   108131116.831 9        49.400    20576657.320    84258038.78347
        44.400
  21256083.280   111701521.377 9        49.650    21256079.100    87040149.18148
        45.050    21256079.880
  25271781.440   132804113.423 5        37.250    25271779.580   103483731.30343
        31.000
  24143721.720   126876130.425 7        43.350    24143716.720    98864486.57146
        39.900
  20947121.900   110077886.579 9        50.550    20947118.420    85774961.09347
        44.700    20947118.960
  24464067.200   128559552.697 7        42.800    24464066.540   100176281.63445
        37.600    24464067.420
 19  9 29 17 38 30.0000000  0  9G02G05G07G13G15G20G21G29G30
  22626604.000   118903605.618 8        45.200    22626597.880    92652140.27447
        42.350
  21108922.260   110928151.560 9        49.650    21108918.420    86437522.54747
        43.800    21108919.080
  25640433.760   134741397.373 6        39.600    25640431.080   104993287.75644
        33.400    25640431.760
  20571920.220   108106199.830 9        49.050    20571915.760    84238622.94347
        44.600
  21240349.520   111618839.855 9        49.650    21240345.320    86975722.04147
        44.800    21240346.080
  25255040.460   132716139.584 5        38.650    25255038.560   103415180.35443
        29.250
  24128308.360   126795133.045 7        43.400    24128303.420    98801371.79845
        38.850
  20951357.120   110100142.745 9        50.600    20951353.560    85792303.56247
        44.750    20951354.140
  24461062.560   128543763.286 7        42.950    24461061.900   100163978.21845
        37.450    24461062.780
 19  9 29 17 39  0.0000000  0  9G02G05G07G13G15G20G21G29G30
  22639842.820   118973176.021 8        45.950    22639836.720    92706350.93846
        41.250
  21119541.180   110983954.361 9        49.800    21119537.320    86481005.23547
        44.000    21119538.020
  25645521.160   134768131.869 5        38.050    25645518.520   105014119.79443
        29.250    25645519.200
  20567294.780   108081892.900 9        49.100    20567290.280    84219682.49647
        44.450
  21224698.100   111536591.072 9        49.700    21224693.880    86911632.11847
        44.950    21224694.640
  25238306.340   132628201.744 6        39.950    25238304.400   103346657.45444
        35.550
  24112900.480   126714164.307 7        42.650    24112895.620    98738279.31844
        34.750
  20955709.820   110123016.161 9        50.850    20955706.200    85810126.99947
        44.650    20955706.780
  24458148.700   128528450.806 7        42.350    24458148.040   100152046.43645
        38.150    24458148.920
 19  9 29 17 39 30.0000000  0  9G02G05G07G13G15G20G21G29G30
  22653136.480   119043034.578 8        45.050    22653130.380    92760786.14746
        41.150
  21130200.380   111039968.759 9        49.700    21130196.480    86524652.81147
        43.900    21130197.180
  25650695.400   134795322.437 6        39.600    25650692.800   105035307.24544
        33.350    25650693.460
  20562785.060   108058194.128 9        49.100    20562780.540    84201215.93747
        44.700
  21209128.980   111454774.736 9        50.150    21209124.760    86847879.15547
        44.250    21209125.520
  25221578.620   132540297.150 6        39.950    25221576.660   103278160.38644
        34.450
  24097497.800   126633222.853 7        43.900    24097493.000    98675208.06044
        33.400
  20960179.360   110146503.380 9        50.950    20960175.640    85828428.71347
        44.550    20960176.260
  24455325.340   128513613.889 7        42.600    24455324.720   100140485.18746
        39.300    24455325.580
 19  9 29 17 40  0.0000000  0  9G02G05G07G13G15G20G21G29G30
  22666485.280   119113183.030 7        44.550    22666479.200    92815447.26446
        41.200
  21140900.160   111096196.332 9        49.300    21140896.220    86568466.49147
        44.200    21140896.940
  25655956.800   134822971.267 6        41.650    25655954.260   105056851.76843
        31.650    25655954.900
  20558391.620   108035106.471 9        49.000    20558387.100    84183225.57148
        45.000
  21193643.080   111373395.649 9        50.400    21193638.820    86784466.89647
        43.950    21193639.580
  25204857.720   132452428.532 6        40.350    25204855.740   103209691.39345
        36.400
  24082101.060   126552312.512 7        44.650    24082096.200    98612161.03944
        34.550
  20964766.020   110170606.136 9        50.850    20964762.220    85847210.05547
        44.750    20964762.860
  24452593.160   128499256.252 7        42.850    24452592.540   100129297.42045
        38.850    24452593.400
 19  9 29 17 40 30.0000000  0  9G02G05G07G13G15G20G21G29G30
  22679888.600   119183617.952 8        45.100    22679882.580    92870331.57846
        41.250
  21151639.580   111152632.265 9        49.250    21151635.600    86612442.53847
        43.650    21151636.340
  25661304.600   134851074.424 7        43.000    25661302.100   105078750.33643
        31.000    25661302.740
  20554113.940   108012627.145 9        49.250    20554109.400    84165709.22847
        44.900
  21178240.080   111292452.385 9        50.600    21178235.820    86721394.24347
        43.350    21178236.580
  25188143.180   132364593.126 6        40.000    25188141.180   103141248.25044
        32.450
  24066709.800   126471430.997 8        45.700    24066704.840    98549136.50845
        36.050
  20969469.020   110195320.336 9        50.800    20969465.140    85866467.85547
        44.900    20969465.800
  24449951.780   128485375.859 7        43.200    24449951.140   100118481.56245
        37.950    24449952.000
 19  9 29 17 41  0.0000000  0  9G02G05G07G13G15G20G21G29G30
  22693347.280   119254343.740 8        45.650    22693341.300    92925442.55347
        42.650
  21162419.480   111209281.051 9        49.250    21162415.480    86656584.42347
        43.950    21162416.240
  25666739.680   134879636.028 6        39.350    25666737.140   105101006.18344
        32.300    25666737.780
  20549953.240   107990762.511 9        49.000    20549948.700    84148671.86948
        45.000
  21162921.400   111211952.107 9        50.800    21162917.080    86658666.77447
        42.900    21162917.860
  25171435.980   132276796.505 5        38.850    25171433.960   103072835.38244
        35.200
  24051325.260   126390584.526 8        45.800    24051320.220    98486139.26445
        38.800
  20974289.180   110220650.193 9        50.550    20974285.220    85886205.40647
        44.950    20974285.880
  24447402.500   128471979.170 7        42.900    24447401.820   100108042.59245
        37.400    24447402.700
 19  9 29 17 41 30.0000000  0  9G02G05G07G13G15G20G21G29G30
  22706860.860   119325357.970 8        45.650    22706854.940    92980778.26146
        40.150
  21173239.280   111266139.460 9        49.750    21173235.260    86700889.67247
        43.950    21173236.040
  25672261.560   134908653.693 5        37.650    25672259.000   105123617.42843
        28.750    25672259.640
  20545909.060   107969510.215 9        49.000    20545904.520    84132111.64248
        45.250
  21147686.980   111131894.808 9        50.900    21147682.640    86596284.48447
        44.200    21147683.420
  25154735.800   132189036.725 5        36.250    25154733.760   103004451.20144
        33.150
  24035947.180   126309772.038 7        43.700    24035942.060    98423168.52346
        39.200
  20979225.840   110246592.330 9        50.350    20979221.860    85906420.04248
        45.000    20979222.520
  24444945.040   128459065.089 7        42.950    24444944.360   100097979.65745
        38.150    24444945.240
 19  9 29 17 42  0.0000000  0  9G02G05G07G13G15G20G21G29G30
  22720429.140   119396659.686 8        46.000    22720423.220    93036338.03246
        40.550
  21184098.720   111323206.124 9        50.100    21184094.680    86745357.20047
        43.700    21184095.480
  25677870.060   134938126.381 5        38.200    25677867.080   105146572.05741
        25.300    25677868.120
  20541981.460   107948870.514 8        48.900    20541976.920    84116028.76048
        45.200
  21132537.160   111052282.108 9        50.900    21132532.800    86534248.65147
        44.000    21132533.580
  25138042.500   132101313.424 5        38.350    25138040.440   102936095.49944
        33.500
  24020575.700   126228994.636 7        42.550    24020570.520    98360225.19145
        36.350
  20984278.780   110273145.709 9        50.100    20984274.800    85927110.97847
        44.600    20984275.460
  24442579.540   128446634.452 7        42.600    24442578.880   100088293.46545
        37.350    24442579.760
 19  9 29 17 42 30.0000000  0  9G02G05G07G13G15G20G21G29G30
  22734051.360   119468244.644 7        44.600    22734045.380    93092118.47546
        41.100
  21194996.840   111380475.923 9        50.050    21194992.760    86789983.00447
        43.450    21194993.560
  25683564.280   134968049.551 6        40.150    25683561.180   105169888.80743
        29.700    25683562.360
  20538169.880   107928840.505 8        48.950    20538165.340    84100420.96147
        44.500
  21117471.640   110973112.550 9        50.700    21117467.320    86472558.13347
        44.800    21117468.080
  25121355.600   132013623.346 6        39.250    25121353.520   102867765.58544
        33.200
  24005210.420   126148249.776 7        44.200    24005205.260    98297307.17645
        38.500
  20989447.140   110300305.742 9        50.200    20989443.160    85948274.63147
        44.650    20989443.840
  24440305.540   128434684.743 7        42.300    24440304.900   100078982.00445
        37.650    24440305.780
 19  9 29 17 43  0.0000000  0  9G02G05G07G13G15G20G21G29G30
  22747728.460   119540118.016 8        45.450    22747722.480    93148123.62346
        41.400
  21205934.580   111437953.928 9        49.700    21205930.460    86834771.05347
        43.100    21205931.240
  25689345.200   134998428.309 5        37.850    25689342.200   105193560.56943
        29.350    25689343.280
  20534475.500   107909426.425 8        48.650    20534470.920    84085293.10747
        44.900
  21102491.920   110894393.834 9        50.400    21102487.660    86411218.91547
        44.800    21102488.400
  25104676.160   131925972.857 6        39.800    25104674.060   102799466.58244
        33.500
  23989852.780   126067544.710 8        45.950    23989847.640    98234420.09745
        37.000
  20994731.860   110328077.278 9        50.200    20994727.900    85969914.77847
        44.650    20994728.580
  24438124.400   128423222.914 6        41.950    24438123.760   100070050.72145
        38.300    24438124.660
 19  9 29 17 43 30.0000000  0  9G02G05G07G13G15G20G21G29G30
  22761458.900   119612271.708 8        46.650    22761452.840    93204347.25246
        40.050
  21216910.100   111495630.530 9        49.300    21216905.940    86879713.85647
        42.900    21216906.720
  25695211.200   135029254.061 5        37.100    25695208.360   105217580.57644
        33.250    25695209.260
  20530896.860   107890620.671 9        49.550    20530892.260    84070639.28347
        44.300
  21087596.820   110816119.800 9        50.150    21087592.640    86350226.17547
        44.050    21087593.340
  25088002.740   131838353.872 6        40.400    25088000.580   102731192.13644
        32.500
  23974501.440   125986872.595 8        46.250    23974496.280    98171558.67044
        35.550
  21000131.200   110356451.151 9        50.200    21000127.240    85992024.29147
        44.900    21000127.940
  24436034.780   128412241.977 7        42.250    24436034.180   100061494.14445
        38.900    24436035.080
 19  9 29 17 44  0.0000000  0  9G02G05G07G13G15G20G21G29G30
  22775243.120   119684707.923 8        45.250    22775236.960    93260791.04446
        41.600
  21227923.960   111553508.534 9        49.100    21227919.760    86924813.58347
        43.150    21227920.540
  25701162.720   135060529.331 5        36.300    25701159.920   105241950.90043
        31.500    25701160.740
  20527434.680   107872426.700 9        49.450    20527430.040    84056462.16747
        44.650
  21072787.360   110738295.689 9        49.400    21072783.200    86289584.01947
        44.400    21072783.920
  25071336.080   131750770.253 6        40.600    25071333.880   102662945.22044
        33.950
  23959157.200   125906237.833 7        43.150    23959152.000    98108726.35145
        36.750
  21005645.600   110385429.666 9        50.350    21005641.640    86014604.94847
        44.550    21005642.360
  24434037.480   128401746.278 7        42.550    24434036.920   100053315.68845
        36.950    24434037.800
 19  9 29 17 44 30.0000000  0  9G02G05G07G13G15G20G21G29G30
  22789082.760   119757435.341 7        44.400    22789076.540    93317461.71647
        42.800
  21238977.540   111611595.408 9        49.350    21238973.360    86970076.05547
        43.550    21238974.120
  25707201.480   135092262.908 5        37.500    25707198.680   105266678.36144
        34.050    25707199.460
  20524090.740   107854854.064 9        49.200    20524086.040    84042769.20648
        45.000
  21058065.700   110660932.909 9        49.100    21058061.540    86229301.32947
        44.700    21058062.260
  25054677.960   131663231.292 5        38.850    25054675.720   102594733.07744
        34.100
  23943821.900   125825650.771 6        41.400    23943816.700    98045931.33246
        40.750
  21011276.620   110415020.878 9        50.300    21011272.660    86037663.02848
        45.200    21011273.400
  24432134.480   128391746.164 7        42.850    24432133.960   100045523.40545
        38.000    24432134.820
 19  9 29 17 45  0.0000000  0  9G02G05G07G13G15G20G21G29G30
  22802975.820   119830443.665 8        45.300    22802969.600    93374351.27446
        41.000
  21250068.920   111669880.795 9        49.350    21250064.740    87015493.21047
        43.400    21250065.480
  25713325.340   135124443.726 5        36.550    25713322.540   105291754.25744
        33.750    25713323.300
  20520863.260   107837893.474 9        49.350    20520858.540    84029553.16147
        44.700
  21043430.200   110584023.252 9        49.400    21043426.080    86169371.74748
        45.000    21043426.820
  25038026.520   131575727.497 5        38.350    25038024.240   102526548.34944
        35.150
  23928494.020   125745102.912 7        44.150    23928488.900    97983166.85846
        41.100
  21017022.160   110445214.039 9        50.400    21017018.220    86061190.16647
        44.800    21017018.960
  24430324.120   128382232.645 7        42.000    24430323.620   100038110.29645
        38.550    24430324.460
 19  9 29 17 45 30.0000000  0  9G02G05G07G13G15G20G21G29G30
  22816921.840   119903730.192 8        45.800    22816915.620    93431457.62046
        40.300
  21261197.360   111728361.053 9        49.500    21261193.180    87061062.22147
        43.400    21261193.920
  25719533.800   135157069.046 4        35.800    25719531.020   105317176.57043
        30.150    25719531.740
  20517751.840   107821542.767 9        49.150    20517747.060    84016812.36347
        44.900
  21028880.940   110507566.680 9        50.100    21028876.860    86109795.21748
        45.250    21028877.580
  25021381.300   131488256.767 5        37.900    25021379.000   102458389.41644
        34.550
  23913173.540   125664593.617 8        46.200    23913168.520    97920432.39046
        40.550
  21022881.560   110476005.399 9        50.250    21022877.620    86085183.42147
        44.700    21022878.380
  24428606.140   128373204.667 7        42.200    24428605.660   100031075.51345
        38.700    24428606.480
 19  9 29 17 46  0.0000000  0  9G02G05G07G13G15G20G21G29G30
  22830921.900   119977300.749 8        46.700    22830915.680    93488785.29246
        40.000
  21272363.980   111787041.914 9        49.550    21272359.780    87106787.55547
        43.000    21272360.520
  25725827.880   135190144.397 6        39.200    25725825.080   105342949.52843
        29.750    25725825.820
  20514757.820   107805808.986 9        49.100    20514753.000    84004552.27847
        44.800
  21014419.520   110431571.738 9        50.650    21014415.480    86050578.40748
        45.100    21014416.220
  25004743.700   131400825.899 5        37.850    25004741.400   102390261.52244
        34.450
  23897861.880   125584130.447 8        45.800    23897856.920    97857733.83945
        37.200
  21028855.840   110507400.597 9        50.300    21028851.920    86109647.22247
        44.900    21028852.680
  24426982.000   128364669.859 7        42.300    24426981.540   100024425.03345
        37.150    24426982.360
 19  9 29 17 46 30.0000000  0  9G02G05G07G13G15G20G21G29G30
  22844975.840   120051154.316 8        45.550    22844969.580    93546333.48546
        41.350
  21283568.400   111845921.493 9        49.650    21283564.200    87152667.72947
        43.200    21283564.940
  25732207.340   135223668.539 6        40.000    25732204.540   105369072.18043
        30.700    25732205.260
  20511881.140   107790691.842 9        49.250    20511876.300    83992772.68747
        44.850
  21000046.140   110356039.524 9        50.500    21000042.180    85991722.17747
        44.950    21000042.900
  24988113.700   131313435.021 5        38.800    24988111.400   102322164.78044
        33.050
  23882559.200   125503714.166 7        44.050    23882554.220    97795071.79544
        34.300
  21034944.760   110539398.111 9        50.250    21034940.860    86134580.35047
        44.850    21034941.600
  24425451.800   128356628.530 7        42.600    24425451.360   100018159.06345
        36.900    24425452.160
 19  9 29 17 47  0.0000000  0  9G02G05G07G13G15G20G21G29G30
  22859083.220   120125288.949 7        43.750    22859076.960    93604100.71946
        41.650
  21294810.260   111904997.864 9        49.750    21294806.040    87198701.25647
        43.600    21294806.780
  25738671.800   135257639.298 5        38.200    25738668.940   105395542.86343
        30.600    25738669.680
  20509121.600   107776190.301 9        49.250    20509116.760    83981472.78348
        45.300
  20985760.940   110280970.486 9        50.300    20985757.020    85933226.85347
        44.700    20985757.740
  24971491.060   131226082.787 6        40.600    24971488.740   102254098.15944
        34.550
  23867265.360   125423344.410 7        43.350    23867260.320    97732445.97945
        36.300
  21041147.800   110571995.367 9        50.200    21041143.920    86159980.80548
        45.350    21041144.660
  24424015.400   128349080.289 7        42.450    24424014.960   100012277.34145
        37.500    24424015.740
 19  9 29 17 47 30.0000000  0  9G02G05G07G13G15G20G21G29G30
  22873243.880   120199703.588 7        43.250    22873237.620    93662086.11146
        40.750
  21306089.200   111964269.138 9        49.750    21306084.940    87244886.67047
        43.000    21306085.700
  25745220.980   135292055.255 5        37.850    25745218.060   105422360.48843
        29.650    25745218.800
  20506479.160   107762304.300 9        49.150    20506474.360    83970652.53947
        44.600
  20971564.160   110206366.095 9        50.150    20971560.300    85875093.59247
        43.850    20971560.980
  24954875.820   131138769.416 6        39.900    24954873.500   102186061.82044
        35.050
  23851980.580   125343022.594 7        44.800    23851975.500    97669857.58945
        38.800
  21047464.680   110605190.703 9        50.250    21047460.820    86185847.29547
        44.700    21047461.540
  24422672.940   128342025.646 7        42.400    24422672.500   100006780.25345
        38.300    24422673.260
 19  9 29 17 48  0.0000000  0  9G02G05G07G13G15G20G21G29G30
  22887458.460   120274401.697 7        44.950    22887452.260    93720292.36646
        41.100
  21317405.820   112023738.354 9        49.550    21317401.520    87291226.31747
        43.300    21317402.300
  25751855.480   135326919.704 6        39.250    25751852.500   105449527.50143
        30.150    25751853.280
  20503954.600   107749037.661 8        48.700    20503949.800    83960314.91147
        44.900
  20957457.020   110132232.755 9        49.400    20957453.200    85817327.36847
        43.750    20957453.880
  24938268.700   131051498.732 6        40.300    24938266.400   102118058.76745
        36.500
  23836705.880   125262753.819 8        45.700    23836700.820    97607310.53746
        41.000
  21053895.820   110638986.591 9        50.000    21053891.960    86212181.75047
        44.700    21053892.680
  24421425.360   128335469.674 7        42.250    24421424.940   100001671.71846
        39.650    24421425.680
 19  9 29 17 48 30.0000000  0  9G02G05G07G13G15G20G21G29G30
  22901724.540   120349370.577 8        45.650    22901718.400    93778709.65546
        40.950
  21328757.800   112083393.338 9        49.250    21328753.460    87337710.71247
        43.650    21328754.260
  25758572.900   135362220.126 4        34.100    25758569.920   105477034.45844
        32.850    25758570.680
  20501545.760   107736379.290 8        48.950    20501541.000    83950451.25148
        45.050
  20943437.540   110058560.269 9        49.600    20943433.740    85759920.25247
        44.100    20943434.400
  24921667.620   130964259.599 6        40.650    24921665.340   102050080.26944
        33.850
  23821439.400   125182528.025 8        45.850    23821434.360    97544796.98446
        40.750
  21060438.840   110673370.303 9        49.900    21060435.000    86238974.23747
        44.650    21060435.720
  24420270.620   128329401.566 7        42.900    24420270.200    99996943.34545
        38.800    24420270.940
 19  9 29 17 49  0.0000000  0  9G02G05G07G13G15G20G21G29G30
  22916044.220   120424620.861 8        45.300    22916038.080    93837346.20745
        38.950
  21340146.920   112143243.473 9        49.150    21340142.560    87384347.17147
        43.600    21340143.360
  25765375.280   135397966.578 5        38.200    25765372.320   105504888.61744
        33.350    25765373.060
  20499254.740   107724340.066 8        48.950    20499250.000    83941070.05247
        44.800
  20929508.220   109985361.550 9        50.050    20929504.400    85702882.31647
        44.400    20929505.080
  24905074.660   130877063.148 6        39.850    24905072.380   101982135.03145
        37.550
  23806183.400   125102357.214 8        45.800    23806178.380    97482326.26046
        39.600
  21067095.560   110708351.663 9        49.850    21067091.740    86266232.41747
        44.350    21067092.460
  24419210.980   128323833.094 7        43.350    24419210.580    99992604.29845
        38.900    24419211.300
 19  9 29 17 49 30.0000000  0  9G02G05G07G13G15G20G21G29G30
  22930417.180   120500151.215 8        45.350    22930410.980    93896201.00445
        38.800
  21351572.780   112203286.754 9        49.550    21351568.420    87431134.11847
        43.650    21351569.220
  25772262.180   135434157.397 6        40.650    25772259.320   105533089.27444
        33.250    25772259.980
  20497081.440   107712919.245 9        49.100    20497076.700    83932170.70348
        45.000
  20915669.320   109912637.753 9        50.550    20915665.440    85646214.44947
        44.650    20915666.140
  24888489.740   130789908.947 5        37.300    24888487.460   101914222.69845
        36.700
  23790937.980   125022241.905 7        44.650    23790932.980    97419898.75245
        37.050
  21073865.580   110743928.359 9        50.100    21073861.760    86293954.50347
        44.650    21073862.480
  24418246.420   128318764.313 7        43.600    24418246.040    99988654.62345
        38.800    24418246.740
 19  9 29 17 50  0.0000000  0  9G02G05G07G13G15G20G21G29G30
  22944842.740   120575957.858 7        43.550    22944836.460    93955271.09746
        40.650
  21363034.740   112263519.739 9        49.700    21363030.380    87478068.90447
        43.700    21363031.200
  25779232.740   135470788.232 4        35.600
                  25779230.560
  20495025.200   107702113.847 9        49.100    20495020.480    83923750.93247
        44.850
  20901920.560   109840387.650 9        50.900    20901916.660    85589915.68747
        44.650    20901917.380
  24871912.300   130702794.282 5        38.900    24871910.020   101846341.19844
        34.800
  23775702.780   124942180.349 7        43.700    23775697.780    97357513.13245
        37.050
  21080748.000   110780095.854 9        50.300    21080744.200    86322136.95747
        44.700    21080744.940
  24417376.580   128314193.060 7        42.350    24417376.180    99985092.60445
        38.800    24417376.880
 19  9 29 17 50 30.0000000  0  9G02G05G07G13G15G20G21G29G30
  22959319.580   120652033.958 7        44.300    22959313.300    94014551.08946
        40.050
  21374531.440   112323935.258 9        49.350    21374527.080    87525145.92447
        43.550    21374527.900
  25786285.820   135507852.354 6        40.400    25786283.260   105590518.87743
        29.250    25786283.680
  20493085.000   107691918.084 9        49.300    20493080.280    83915806.19747
        44.650
  20888261.040   109768606.417 9        50.650    20888257.100    85533982.29247
        44.450    20888257.820
  24855341.280   130615713.363 6        39.450    24855339.000   101778485.97944
        35.200
  23760476.920   124862167.983 8        45.050    23760471.900    97295165.83444
        35.500
  21087741.460   110816846.813 9        50.500    21087737.700    86350774.05447
        44.600    21087738.400
  24416600.360   128310114.015 7        43.150    24416599.980    99981914.15545
        38.050    24416600.660
 19  9 29 17 51  0.0000000  0  9G02G05G07G13G15G20G21G29G30
  22973852.480   120728404.813 8        45.700    22973846.220    94074060.80546
        39.550
  21386067.620   112384558.299 9        49.500    21386063.260    87572384.64047
        43.400    21386064.100
  25793426.060   135545374.650 5        37.700    25793423.460   105619757.09744
        33.300    25793423.940
  20491265.800   107682358.053 9        49.150    20491261.040    83908356.81547
        44.850
  20874696.060   109697322.013 9        50.600    20874692.080    85478436.05647
        44.150    20874692.800
  24838781.720   130528692.627 6        40.250    24838779.440   101710677.67544
        34.700
  23745265.600   124782232.075 8        46.300    23745260.520    97232878.11845
        37.500
  21094850.700   110854206.029 9        50.550    21094846.920    86379885.11947
        44.150    21094847.640
  24415922.900   128306554.064 7        42.900    24415922.520    99979140.19145
        36.550    24415923.200
 19  9 29 17 51 30.0000000  0  9G02G05G07G13G15G20G21G29G30
  22988434.140   120805031.946 7        44.550    22988427.880    94133770.23746
        39.700
  21397635.820   112445349.574 9        49.300    21397631.440    87619754.46547
        43.600    21397632.280
  25800646.140   135583316.450 4        34.800    25800640.500   105649308.88353
        31.700    25800644.060
  20489560.280   107673395.590 8        48.900    20489555.520    83901373.09048
        45.200
  20861218.800   109626498.704 9        50.300    20861214.820    85423249.10247
        44.450    20861215.540
  24822226.460   130441694.521 6        40.900    24822224.180   101642886.99945
        36.600
  23730061.880   124702336.071 8        45.900    23730056.760    97170621.50846
        39.500
  21102068.200   110892134.235 9        50.650    21102064.400    86409439.56747
        44.550    21102065.120
  24415337.200   128303476.130 7        42.950    24415336.800    99976741.82545
        37.800    24415337.500
 19  9 29 17 52  0.0000000  0  9G02G05G07G13G15G20G21G29G30
  23003069.060   120881938.754 8        45.700    23003062.820    94193697.55445
        38.850
  21409240.560   112506332.910 9        49.200    21409236.160    87667273.94747
        43.500    21409237.020
  25807950.520   135621701.229 4        33.400
                  25807948.480
  20487973.240   107665055.560 9        49.150    20487968.460    83894874.38047
        44.750
  20847834.240   109556162.338 9        50.650    20847830.260    85368441.54747
        44.100    20847830.960
  24805680.160   130354743.307 6        41.200    24805677.840   101575132.87544
        33.800
  23714870.720   124622505.902 7        44.850    23714865.540    97108416.21046
        40.600
  21109398.300   110930654.007 9        50.750    21109394.440    86439454.97047
        44.550    21109395.180
  24414848.000   128300905.253 7        43.000    24414847.580    99974738.54945
        38.150    24414848.280
 19  9 29 17 52 30.0000000  0  9G02G05G07G13G15G20G21G29G30
  23017755.060   120959114.076 8        45.700    23017748.800    94253834.15345
        38.450
  21420879.600   112567496.441 8        48.850    21420875.200    87714933.84247
        43.950    21420876.060
  25815336.960   135660517.138 5        37.000    25815335.180   105709467.42843
        30.550    25815334.940
  20486502.500   107657326.816 8        48.900    20486497.740    83888851.97647
        44.550
  20834540.640   109486304.062 9        50.650    20834536.640    85314006.54347
        44.350    20834537.360
  24789140.880   130267828.848 5        38.600    24789138.540   101507407.35044
        34.500
  23699690.200   124542732.076 7        43.550    23699685.060    97046254.85046
        41.300
  21116838.720   110969753.442 9        50.650    21116834.820    86469922.05147
        44.400    21116835.560
  24414453.380   128298831.456 7        43.650    24414452.960    99973122.61145
        38.750    24414453.660
 19  9 29 17 53  0.0000000  0  9G02G05G07G13G15G20G21G29G30
  23032494.060   121036567.802 8        45.700    23032487.720    94314187.69345
        38.450
  21432554.700   112628849.629 8        48.650    21432550.360    87762741.51947
        43.700    21432551.200
  25822807.280   135699773.717 4        34.850    25822804.640   105740067.84541
        25.150    25822805.260
  20485150.100   107650219.890 9        49.050    20485145.300    83883314.12847
        44.650
  20821340.360   109416936.146 9        50.700    20821336.320    85259953.65447
        44.250    20821337.020
  24772610.680   130180962.148 5        38.500    24772608.340   101439719.04444
        32.750
  23684522.660   124463026.659 7        44.800    23684517.580    96984146.82145
        38.350
  21124391.160   111009441.593 9        50.350    21124387.220    86500847.87547
        44.900    21124387.960
  24414155.520   128297266.089 7        43.400    24414155.100    99971902.85645
        37.850    24414155.800
 19  9 29 17 53 30.0000000  0  9G02G05G07G13G15G20G21G29G30
  23047284.540   121114291.818 8        46.150    23047278.120    94374751.80846
        39.950
  21444264.360   112690384.413 8        48.750    21444260.080    87810690.68947
        43.500    21444260.920
  25830359.880   135739462.572 4        34.900    25830357.700   105770995.28044
        34.550    25830357.860
  20483914.580   107643727.289 9        49.650    20483909.760    83878254.97247
        44.750
  20808232.220   109348052.494 9        50.850    20808228.140    85206278.10247
        44.650    20808228.860
  24756088.140   130094135.787 6        40.750    24756085.800   101372062.19144
        34.950
  23669367.020   124383383.464 8        45.950    23669362.040    96922087.18744
        35.950
  21132053.900   111049709.366 9        50.350    21132049.920    86532225.35347
        44.800    21132050.680
  24413953.140   128296202.330 7        42.700    24413952.680    99971073.96445
        37.000    24413953.380
 19  9 29 17 54  0.0000000  0  9G02G05G07G13G15G20G21G29G30
  23062126.440   121192286.022 8        45.550    23062119.940    94435526.47446
        40.350
  21456008.540   112752100.656 9        49.100    21456004.340    87858781.26347
        43.050    21456005.160
  25837994.580   135779582.957 5        37.300    25837991.580   105802255.84243
        29.100    25837992.540
  20482796.100   107637849.579 9        49.150    20482791.260    83873674.94148
        45.000
  20795216.780   109279655.882 9        50.600    20795212.660    85152982.07248
        45.300    20795213.400
  24739573.480   130007350.889 6        40.800    24739571.160   101304437.61844
        35.250
  23654223.720   124303804.857 8        46.450    23654218.780    96860077.83344
        35.200
  21139826.880   111090556.544 9        50.250    21139822.900    86564054.30247
        44.800    21139823.660
  24413846.460   128295641.705 7        42.750    24413846.000    99970637.11545
        37.500    24413846.700
 19  9 29 17 54 30.0000000  0  8G02G05G13G15G20G21G29G30
  23077020.040   121270551.972 7        44.850    23077013.460    94496512.90145
        38.650
  21467787.360   112813998.935 9        49.400    21467783.180    87907013.69147
        42.300    21467784.020
  20481795.000   107632588.800 9        49.000    20481790.140    83869575.64147
        44.300
  20782294.780   109211750.348 9        50.250    20782290.660    85100068.70348
        45.250    20782291.360
  24723067.200   129920610.015 6        40.400    24723064.900   101236847.34744
        35.800
  23639093.400   124224294.499 8        46.850    23639088.440    96798121.70845
        37.850
  21147710.140   111131983.310 9        50.100    21147706.180    86596334.88747
        44.350    21147706.940
  24413836.060   128295587.010 7        43.800    24413835.580    99970594.50445
        36.400    24413836.280
 19  9 29 17 55  0.0000000  0  8G02G05G13G15G20G21G29G30
  23091965.080   121349088.359 8        45.250    23091958.440    94557710.03545
        38.600
  21479600.640   112876078.256 9        49.350    21479596.480    87955387.18247
        42.550    21479597.320
  20480911.220   107627944.441 9        49.150    20480906.340    83865956.66047
        44.950
  20769466.420   109144336.906 9        50.150    20769462.300    85047538.76747
        44.750    20769463.000
  24706569.280   129833913.134 6        40.400    24706567.000   101169291.38445
        37.000
  23623976.240   124144853.298 8        45.750    23623971.260    96736219.48646
        40.100
  21155703.260   111173987.416 9        50.200    21155699.320    86629065.34647
        44.400    21155700.080
  24413921.980   128296038.447 7        43.750    24413921.480    99970946.26045
        37.400    24413922.180
 19  9 29 17 55 30.0000000  0  8G02G05G13G15G20G21G29G30
  23106961.140   121427892.955 7        42.100    23106954.460    94619116.18947
        42.100
  21491448.040   112938336.798 9        49.650    21491443.860    88003900.32947
        43.200    21491444.720
  20480144.480   107623915.182 9        49.200    20480139.600    83862816.97447
        44.950
  20756731.720   109077415.816 9        50.300    20756727.660    84995392.48647
        44.900    20756728.340
  24690079.460   129747259.110 5        38.750    24690077.180   101101768.87744
        35.900
  23608872.180   124065480.992 7        44.550    23608867.180    96674370.99146
        40.700
  21163805.680   111216566.060 9        49.950    21163801.820    86662243.48448
        45.250    21163802.560
  24414104.120   128296995.331 7        42.400    24414103.600    99971691.86845
        36.200    24414104.300
 19  9 29 17 56  0.0000000  0  8G02G05G13G15G20G21G29G30
  23122008.520   121506967.339 7        42.500    23122001.900    94680732.51846
        40.100
  21503329.620   113000774.948 9        49.850    21503325.440    88052553.43347
        43.500    21503326.320
  20479495.120   107620502.696 9        49.400    20479490.200    83860157.89448
        45.200
  20744091.360   109010990.549 9        50.550    20744087.320    84943632.56247
        44.600    20744088.000
  24673598.240   129660650.213 5        38.100    24673595.960   101034281.49543
        30.400
  23593781.900   123986181.301 7        44.850    23593776.940    96612579.08446
        40.650
  21172017.620   111259720.101 9        50.500    21172013.820    86695869.99547
        44.800    21172014.520
  24414382.860   128298460.077 7        42.250    24414382.340    99972833.20045
        37.100    24414383.040
 19  9 29 17 56 30.0000000  0  9G02G05G07G13G15G20G21G29G30
  23137105.880   121586304.661 7        43.650    23137099.380    94742553.76046
        39.150
  21515244.120   113063386.071 9        50.050    21515239.940    88101341.32547
        43.600    21515240.800
  25877398.040   135986632.072 5        36.800    25877395.140   105963614.40143
        30.000    25877395.660
  20478961.940   107617700.662 9        49.050    20478957.000    83857974.48247
        44.950
  20731544.560   108945056.870 9        50.450    20731540.540    84892255.68947
        44.300    20731541.200
  24657124.600   129574080.866 6        40.000    24657122.340   100966824.87145
        37.250
  23578704.640   123906949.846 8        45.650    23578699.700    96550840.32146
        39.850
  21180337.440   111303441.129 9        50.250    21180333.700    86729938.32247
        44.750    21180334.380
  24414757.240   128300427.494 7        42.850    24414756.700    99974366.25045
        36.900    24414757.400
 19  9 29 17 57  0.0000000  0  9G02G05G07G13G15G20G21G29G30
  23152253.620   121665906.898 6        40.250    23152247.240    94804581.44446
        39.700
  21527191.960   113126172.276 9        50.050    21527187.780    88150265.64547
        43.600    21527188.620
  25885522.300   136029323.426 4        34.600    25885520.440   105996880.39543
        28.200    25885519.960
  20478545.460   107615511.816 8        48.800    20478540.460    83856268.89248
        45.250
  20719092.200   108879619.276 9        50.550    20719088.160    84841265.37547
        44.600    20719088.820
  24640659.080   129487554.277 6        40.250    24640656.840   100899401.57744
        35.350
  23563641.200   123827790.948 8        45.950    23563636.280    96489158.07845
        38.800
  21188765.520   111347730.936 9        50.200    21188761.800    86764449.85847
        44.750    21188762.480
  24415227.920   128302901.042 7        43.100    24415227.360    99976293.70345
        37.850    24415228.080
 19  9 29 17 57 30.0000000  0  9G02G05G07G13G15G20G21G29G30
  23167452.500   121745777.728 6        41.750    23167446.280    94866818.36246
        40.750
  21539173.700   113189136.639 9        50.100    21539169.540    88199328.77547
        43.750    21539170.380
  25893727.660   136072442.710 6        41.150    25893724.040   106030479.72043
        29.750    25893725.140
  20478246.380   107613940.095 9        49.050    20478241.360    83855044.17448
        45.050
  20706735.420   108814683.999 9        50.650    20706731.340    84790666.47447
        44.850    20706732.000
  24624202.580   129401075.119 5        38.950    24624200.380   100832015.27045
        38.500
  23548592.700   123748710.310 8        45.650    23548587.720    96427536.79245
        36.700
  21197302.340   111392592.065 9        50.400    21197298.640    86799406.57447
        44.100    21197299.280
  24415795.860   128305885.408 7        42.600    24415795.240    99978619.17246
        39.350    24415795.980
 19  9 29 17 58  0.0000000  0  9G02G05G07G13G15G20G21G29G30
  23182701.640   121825913.054 7        43.600    23182695.560    94929261.48346
        39.600
  21551188.620   113252275.276 9        49.800    21551184.480    88248527.70447
        42.850    21551185.280
  25902013.460   136115985.288 6        39.800    25902009.360   106064408.98943
        31.150    25902010.660
  20478064.120   107612982.349 8        48.900    20478059.140    83854297.87948
        45.650
  20694473.880   108750249.168 9        50.550    20694469.740    84740457.53448
        45.000    20694470.420
  24607754.560   129314640.792 5        36.950    24607752.380   100764663.93845
        36.250
  23533558.740   123669706.170 7        44.650    23533553.700    96365975.10844
        35.400
  21205946.980   111438019.773 9        50.300    21205943.300    86834804.76247
        44.350    21205943.920
  24416460.540   128309378.168 7        42.250    24416459.940    99981340.77646
        39.200    24416460.660
 19  9 29 17 58 30.0000000  0  8G02G05G13G15G20G21G29G30
  23198001.620   121906315.075 7        43.150    23197995.580    94991912.39946
        39.350
  21563237.120   113315590.397 9        49.300    21563232.980    88297864.15047
        42.950    21563233.760
  20477999.140   107612640.895 9        49.100    20477994.220    83854031.80747
        44.900
  20682308.400   108686319.137 9        50.400    20682304.220    84690641.95147
        44.750    20682304.900
  24591315.620   129228254.058 5        38.800    24591313.540   100697349.60645
        36.400
  23518540.180   123590783.157 7        44.850    23518535.060    96304476.67145
        38.700
  21214699.600   111484014.907 9        50.250    21214695.920    86870645.11847
        44.350    21214696.500
  24417222.560   128313382.570 7        42.900    24417221.980    99984461.08644
        35.500    24417222.700
 19  9 29 17 59  0.0000000  0  8G02G05G13G15G20G21G29G30
  23213350.840   121986975.582 7        44.400    23213344.820    95054764.67046
        39.900
  21575317.620   113379073.661 9        49.300    21575313.480    88347331.60447
        42.800    21575314.240
  20478049.980   107612908.203 9        49.450    20478045.120    83854240.11548
        45.050
  20670237.940   108622888.413 9        50.450    20670233.720    84641215.43148
        45.350    20670234.420
  24574884.440   129141908.074 6        39.800    24574882.400   100630067.06144
        35.300
  23503535.900   123511935.388 8        45.200    23503530.760    96243036.90046
        40.800
  21223558.540   111530568.788 9        49.850    21223554.860    86906920.85347
        44.700    21223555.440
  24418080.680   128317891.961 7        43.400    24418080.100    99987974.88345
        37.600    24418080.820
 19  9 29 17 59 30.0000000  0  9G02G05G07G13G15G20G21G29G30
  23228748.900   122067892.636 7        44.750    23228742.880    95117816.88946
        40.000
  21587429.800   113442723.547 9        49.300    21587425.660    88396928.89947
        42.850    21587426.420
  25927350.420   136249147.390 4        33.200    25927349.640   106168195.96343
        30.750    25927348.740
  20478216.360   107613782.607 8        48.600    20478211.500    83854921.49348
        45.250
  20658262.460   108559957.009 9        50.200    20658258.240    84592178.00647
        44.950    20658258.940
  24558460.860   129055601.828 6        41.250    24558458.800   100562815.46443
        31.850
  23488545.960   123433162.932 8        45.650    23488540.860    96181655.80046
        40.350
  21232523.160   111577678.137 9        49.900    21232519.520    86943629.40947
        44.550    21232520.080
  24419034.680   128322905.386 7        42.900    24419034.080    99991881.46845
        37.550    24419034.800
                            4  1
RINEX FILE SPLICE; other post-header comments skipped       COMMENT
 19  9 29 18  0  0.0000000  0  9G02G05G07G13G15G20G21G29G30
  23244197.440   122149074.807 7        42.600    23244191.420    95181075.67946
        41.250
  21599575.060   113506547.211 9        49.450    21599570.960    88446661.59647
        43.100    21599571.700
  25935955.580   136294368.058 5        37.250    25935954.160   106203432.77744
        32.650    25935954.120
  20478499.960   107615273.024 8        48.650    20478495.140    83856082.86348
        45.300
  20646384.080   108497535.811 9        50.300    20646379.860    84543538.12447
        44.650    20646380.580
  24542046.760   128969345.174 6        41.200    24542044.560   100495602.51544
        33.800
  23473572.460   123354476.822 8        46.250    23473567.420    96120341.96846
        40.300
  21241594.920   111625350.539 9        50.100    21241591.320    86980776.71747
        44.550    21241591.880
  24420086.500   128328432.677 7        42.650    24420085.880    99996188.43645
        37.400    24420086.600
 19  9 29 18  0 30.0000000  0  9G02G05G07G13G15G20G21G29G30
  23259695.820   122230518.853 7        43.900    23259689.820    95244538.51046
        40.150
  21611752.920   113570542.271 9        49.450    21611748.860    88496527.86047
        43.000    21611749.560
  25944639.740   136339994.604 5        37.500    25944639.080   106238929.04744
        33.750    25944639.760
  20478900.240   107617376.581 8        48.900    20478895.420    83857722.01548
        45.050
  20634602.600   108435623.863 9        50.400    20634598.380    84495295.05847
        44.600    20634599.120
  24525641.720   128883136.130 6        41.100    24525639.380   100428426.68244
        34.550
  23458615.240   123275876.116 8        45.100    23458610.240    96059094.66946
        39.200
  21250773.080   111673582.193 9        49.850    21250769.520    87018359.81447
        44.300    21250770.080
  24421235.720   128334471.866 7        43.000    24421235.100   100000894.30846
        39.400    24421235.820
 19  9 29 18  1  0.0000000  0  8G02G05G13G15G20G21G29G30
  23275243.880   122312223.871 7        43.750    23275237.940    95308204.67446
        40.350
  21623963.340   113634708.356 9        49.600    21623959.300    88546527.37447
        43.100    21623960.000
  20479417.180   107620093.279 9        49.150    20479412.420    83859838.91848
        45.050
  20622918.400   108374223.093 9        50.250    20622914.180    84447450.30247
        44.300    20622914.940
  24509245.860   128796975.152 6        40.150    24509243.360   100361288.29545
        36.500
  23443674.600   123197362.565 7        43.150    23443669.620    95997915.29345
        38.300
  21260057.280   111722370.961 9        50.150    21260053.720    87056377.01647
        44.100    21260054.300
  24422482.480   128341023.634 7        42.800    24422481.840   100005999.55745
        37.350    24422482.580
 19  9 29 18  1 30.0000000  0  8G02G05G13G15G20G21G29G30
  23290841.440   122394189.208 7        43.600    23290835.580    95372073.70246
        40.700
  21636206.000   113699043.998 9        49.250    21636201.980    88596659.02047
        43.100    21636202.680
  20480050.700   107623422.468 8        48.800    20480045.940    83862433.10347
        44.750
  20611331.740   108313334.973 9        50.250    20611327.520    84400005.03947
        44.500    20611328.260
  24492859.200   128710862.746 6        39.850    24492856.620   100294187.75545
        36.550
  23428750.740   123118937.613 7        43.850    23428745.820    95936804.97645
        37.650
  21269447.140   111771715.093 9        50.500    21269443.600    87094826.98047
        43.700    21269444.180
  24423826.820   128348088.251 7        42.000    24423826.200   100011504.44746
        39.150    24423826.920
 19  9 29 18  2  0.0000000  0  9G02G05G07G13G15G20G21G29G30
  23306486.740   122476405.541 7        43.950    23306480.920    95436138.35546
        40.050
  21648479.200   113763539.999 9        49.050    21648475.180    88646915.62647
        42.550    21648475.880
  25971170.300   136479422.697 4        35.100
                  25971167.600
  20480799.020   107627355.055 8        48.800    20480794.260    83865497.46847
        44.700
  20599841.240   108252952.179 9        50.350    20599837.020    84352953.52647
        44.650    20599837.760
  24476480.160   128624790.454 6        41.500    24476477.540   100227118.48044
        33.950
  23413842.480   123040594.620 8        45.850    23413837.600    95875758.49045
        38.500
  21278940.740   111821604.306 9        50.300    21278937.200    87133701.68147
        43.650    21278937.760
  24425267.220   128355657.594 6        41.850    24425266.580   100017402.64545
        36.150    24425267.320
 19  9 29 18  2 30.0000000  0  8G02G05G13G15G20G21G29G30
  23322181.580   122558882.111 7        43.050    23322175.780    95500405.76745
        38.600
  21660784.720   113828205.859 8        48.800    21660780.720    88697304.58547
        43.200    21660781.400
  20481664.020   107631900.850 8        48.600    20481659.300    83869039.65148
        45.050
  20588449.100   108193086.172 9        50.200    20588444.880    84306304.70548
        45.200    20588445.620
  24460110.780   128538768.937 6        41.900    24460108.140   100160088.76544
        34.250
  23398952.080   122962345.153 8        46.400    23398947.200    95814784.86746
        39.350
  21288539.620   111872046.647 9        50.400    21288536.040    87173007.40047
        44.000    21288536.620
  24426805.660   128363742.090 7        42.550    24426805.020   100023702.22545
        37.400    24426805.760
 19  9 29 18  3  0.0000000  0  9G02G05G13G15G20G21G24G29G30
  23337926.920   122641624.132 7        43.200    23337921.140    95564879.99345
        37.050
  21673123.560   113893046.788 8        48.900    21673119.540    88747829.96047
        43.000    21673120.240
  20482646.780   107637065.391 9        49.050    20482642.060    83873063.97947
        44.850
  20577156.720   108133744.514 9        50.150    20577152.500    84260064.47348
        45.550    20577153.240
  24443752.300   128452804.560 6        40.500    24443749.640   100093103.56145
        37.150
  23384080.900   122884196.527 8        45.800    23384075.980    95753889.85246
        40.550
  25719969.720   135159335.196 5        37.600    25719970.220   105318959.85044
        34.000    25719970.920
  21298244.600   111923046.549 9        50.300    21298240.980    87212747.58147
        44.050    21298241.560
  24428443.360   128372348.078 7        42.800    24428442.700   100030408.18445
        37.550    24428443.420
 19  9 29 18  3 30.0000000  0  8G02G05G13G15G20G21G29G30
  23353719.860   122724616.536 7        43.500    23353714.060    95629549.36745
        36.550
  21685492.740   113958047.144 9        49.000    21685488.740    88798479.55347
        42.200    21685489.440
  20483744.400   107642833.607 9        49.350    20483739.720    83877558.69947
        44.500
  20565961.620   108074913.987 9        50.400    20565957.400    84214222.52048
        45.400    20565958.140
  24427401.960   128366883.093 6        40.900    24427399.300   100026151.81644
        34.850
  23369226.480   122806136.165 8        45.050    23369221.560    95693063.63946
        40.100
  21308052.560   111974587.492 9        49.950    21308048.900    87252909.33047
        43.600    21308049.480
  24430177.620   128381461.521 7        43.000    24430176.960   100037509.53545
        36.900    24430177.700
 19  9 29 18  4  0.0000000  0 10G02G05G07G13G15G20G21G24G29G30
  23369559.740   122807855.539 7        43.050    23369553.840    95694410.88445
        37.750
  21697891.780   114023204.442 8        48.950    21697887.820    88849251.43147
        43.000    21697888.520
  26007641.260   136671077.992 5        38.150    26007638.880   106496930.72344
        34.900    26007638.760
  20484956.380   107649202.665 9        49.250    20484951.700    83882521.61447
        44.700
  20554863.740   108016594.345 9        50.500    20554859.540    84168778.65948
        45.550    20554860.280
  24411059.500   128281003.091 6        41.550    24411056.820    99959232.39544
        32.200
  23354388.780   122728163.549 7        44.950    23354383.860    95632305.78746
        39.700
  25681849.240   134959033.392 4        35.550    25681850.120   105162865.12944
        33.500    25681850.280
  21317962.740   112026665.640 9        49.950    21317959.060    87293489.68147
        43.850    21317959.640
  24432008.120   128391080.548 7        42.350    24432007.440   100045004.84645
        38.100    24432008.180
 19  9 29 18  4 30.0000000  0  9G02G05G13G15G20G21G24G29G30
  23385447.480   122891346.168 7        43.500    23385441.500    95759468.48245
        38.550
  21710321.520   114088523.033 9        49.300    21710317.560    88900149.00547
        43.300    21710318.260
  20486283.660   107656177.613 8        48.600    20486278.960    83887956.65547
        44.900
  20543864.320   107958792.097 9        50.150    20543860.140    84123737.96148
        45.750    20543860.860
  24394726.020   128195170.054 7        42.900    24394723.280    99892349.53544
        34.900
  23339569.080   122650285.649 7        44.850    23339564.180    95571621.72646
        39.000
  25662732.980   134858577.109 6        39.400    25662733.520   105084587.53145
        37.550    25662734.040
  21327975.680   112079283.879 9        50.100    21327971.980    87334490.88247
        43.650    21327972.580
  24433935.900   128401210.816 7        42.550    24433935.200   100052898.52945
        37.900    24433935.960
 19  9 29 18  5  0.0000000  0 10G02G05G07G13G15G20G21G24G29G30
  23401383.180   122975088.795 7        43.750    23401377.140    95824722.41845
        38.250
  21722782.140   114154003.893 9        50.000    21722778.200    88951173.03647
        42.750    21722778.900
  26026339.160   136769339.126 5        37.900    26026336.780   106573518.98643
        29.750    26026337.120
  20487726.400   107663759.224 9        49.100    20487721.680    83893864.39947
        44.750
  20532963.900   107901510.119 9        50.300    20532959.740    84079102.66648
        45.300    20532960.480
  24378401.880   128109385.877 7        43.450    24378399.020    99825504.75945
        36.350
  23324768.020   122572505.541 8        45.900    23324763.120    95511013.85145
        37.550
  25643580.380   134757929.803 5        36.050    25643580.740   105006161.15144
        34.100    25643581.320
  21338091.380   112132442.136 9        50.350    21338087.660    87375912.88247
        43.650    21338088.260
  24435961.240   128411853.966 7        43.150    24435960.540   100061191.87044
        35.700    24435961.300
 19  9 29 18  5 30.0000000  0 10G02G05G07G13G15G20G21G24G29G30
  23417366.880   123059083.514 7        44.500    23417360.740    95890172.78945
        37.900
  21735273.520   114219646.362 9        49.800    21735269.580    89002323.01047
        42.300    21735270.260
  26035804.080   136819076.702 5        36.650    26035802.440   106612253.60543
        30.650    26035802.480
  20489284.580   107671947.505 8        48.700    20489279.860    83900244.88448
        45.400
  20522162.820   107844750.247 9        50.150    20522158.700    84034874.21247
        44.850    20522159.420
  24362087.140   128023651.208 7        42.400    24362084.180    99758698.59644
        33.900
  23309985.960   122494825.336 8        45.400    23309981.060    95450483.80545
        38.900
  25624392.280   134657080.715 3        29.800
                  25624392.460
  21348309.540   112186138.943 9        50.200    21348305.800    87417754.54547
        44.200    21348306.420
  24438084.360   128423010.953 7        42.450    24438083.640   100069885.61145
        37.850    24438084.420
 19  9 29 18  6  0.0000000  0 10G02G05G07G13G15G20G21G24G29G30
  23433396.920   123143321.653 8        46.000    23433390.660    95955812.84845
        36.200
  21747794.100   114285442.152 9        49.800    21747790.120    89053592.44047
        42.300    21747790.800
  26045344.100   136869209.351 3        31.050
                  26045342.320
  20490956.560   107680733.842 9        49.000    20490951.860    83907091.37748
        45.100
  20511459.880   107788505.949 9        50.550    20511455.780    83991047.49147
        44.500    20511456.500
  24345780.600   127937959.634 6        41.400    24345777.520    99691925.99344
        35.100
  23295221.780   122417239.086 8        45.050    23295216.840    95390027.01346
        40.600
  25605167.260   134556065.58014        35.900    25605166.420   104848876.23653
        31.550    25605167.420
  21358628.360   112240364.605 9        50.650    21358624.600    87460008.31047
        43.800    21358625.200
  24440303.860   128434674.357 6        41.900    24440303.160   100078973.96845
        36.700    24440303.940
 19  9 29 18  6 30.0000000  0  9G02G05G13G15G20G21G24G29G30
  23449477.600   123227825.716 7        43.350    23449471.200    96021660.13345
        38.550
  21760348.260   114351414.506 9        49.550    21760344.260    89104999.45946
        41.800    21760344.940
  20492746.800   107690141.578 8        48.800    20492742.120    83914422.07047
        44.550
  20500859.860   107732802.463 9        50.400    20500855.740    83947642.17347
        44.700    20500856.460
  24329486.740   127852334.693 6        40.350    24329483.580    99625205.27244
        35.850
  23280480.260   122339772.196 8        45.600    23280475.340    95329663.25246
        41.050
  25585909.900   134454870.366 4        32.900    25585909.840   104770022.80043
        31.200    25585910.960
  21369052.000   112295140.991 9        50.550    21369048.220    87502691.19347
        43.850    21369048.820
  24442624.240   128446868.078 7        42.200    24442623.560   100088475.53845
        37.600    24442624.340
 19  9 29 18  7  0.0000000  0  8G02G05G13G15G20G21G29G30
  23465604.240   123312571.527 6        40.750    23465597.780    96087695.79546
        39.900
  21772931.420   114417539.227 9        49.150    21772927.400    89156525.20146
        41.600    21772928.060
  20494650.680   107700146.519 9        49.350    20494645.980    83922218.12847
        44.950
  20490358.560   107677617.835 9        50.400    20490354.400    83904641.16848
        45.000    20490355.140
  24313201.100   127766753.284 6        40.650    24313197.900    99558518.47544
        35.900
  23265757.280   122262402.679 8        45.900    23265752.400    95269375.35446
        41.350
  21379575.540   112350442.367 9        50.500    21379571.760    87545783.15847
        44.200    21379572.320
  24445041.080   128459568.642 7        42.650    24445040.420   100098372.05345
        36.800    24445041.220
 19  9 29 18  7 30.0000000  0  9G02G05G13G15G20G21G24G29G30
  23481777.340   123397561.904 6        39.550    23481770.940    96153922.02446
        39.800
  21785544.080   114483818.971 8        48.450    21785540.000    89208171.74346
        41.550    21785540.700
  20496668.740   107710751.517 9        49.050    20496664.040    83930481.75648
        45.300
  20479956.900   107622956.769 9        50.400    20479952.680    83862048.14048
        45.350    20479953.440
  24296924.500   127681219.679 6        40.500    24296921.300    99491868.93945
        37.750
  23251053.900   122185135.920 8        46.650    23251049.040    95209167.51846
        40.800
  25547290.300   134251922.383 5        37.400    25547290.940   104611908.78244
        34.800    25547292.020
  21390199.280   112406270.308 9        50.150    21390195.520    87589285.44047
        44.000    21390196.060
  24447555.100   128472780.027 7        43.650    24447554.460   100108666.64345
        36.650    24447555.240
 19  9 29 18  8  0.0000000  0  9G02G05G13G15G20G21G24G29G30
  23497996.660   123482795.048 6        41.300    23497990.400    96220337.38145
        38.300
  21798185.920   114550252.218 8        48.200    21798181.840    89259937.88046
        41.000    21798182.540
  20498800.720   107721955.137 8        48.850    20498796.020    83939211.85447
        44.850
  20469654.900   107568819.483 9        50.350    20469650.640    83819863.25648
        45.850    20469651.400
  24280656.820   127595733.116 6        39.300    24280653.600    99425256.10645
        37.500
  23236370.280   122107972.878 8        46.950    23236365.420    95149040.47746
        39.800
  25527928.780   134150175.887 4        34.800    25527929.800   104532625.80843
        31.100    25527930.420
  21400922.660   112462621.914 9        50.350    21400918.940    87633195.75347
        43.850    21400919.440
  24450166.200   128486501.503 7        43.300    24450165.560   100119358.72444
        35.600    24450166.340
 19  9 29 18  8 30.0000000  0  9G02G05G13G15G20G21G24G29G30
  23514263.020   123568275.273 7        44.000    23514256.940    96286945.23445
        38.950
  21810857.900   114616844.082 8        48.050    21810853.840    89311827.62947
        42.300    21810854.560
  20501047.460   107733761.840 8        48.850    20501042.760    83948411.88147
        44.800
  20459453.900   107515212.829 9        50.400    20459449.640    83778091.85248
        46.150    20459450.400
  24264399.260   127510299.663 5        38.950    24264396.080    99358684.64845
        37.100
  23221707.740   122030920.514 8        46.750    23221702.840    95088999.67946
        39.250
  25508534.440   134048256.510 5        38.550    25508535.620   104453208.15345
        37.500    25508536.000
  21411746.360   112519500.586 9        50.650    21411742.640    87677516.76847
        43.300    21411743.140
  24452875.440   128500738.526 7        42.400    24452874.800   100130452.48244
        35.450    24452875.540
 19  9 29 18  9  0.0000000  0  9G02G05G13G15G20G21G24G29G30
  23530575.640   123653998.877 7        43.650    23530569.700    96353742.80446
        40.550
  21823559.280   114683590.400 8        48.750    21823555.240    89363837.72446
        41.800    21823555.960
  20503408.260   107746168.091 9        49.300    20503403.560    83958079.10347
        44.900
  20449353.540   107462135.095 9        50.650    20449349.300    83736732.58748
        45.750    20449350.060
  24248151.280   127424916.827 5        38.950    24248148.200    99292152.64445
        37.550
  23207066.080   121953977.792 8        46.400    23207061.100    95029044.30045
        37.500
  25489107.060   133946163.791 5        36.200    25489108.440   104373655.38544
        34.950    25489108.600
  21422669.380   112576901.368 9        50.400    21422665.680    87722244.62747
        43.350    21422666.160
  24455682.260   128515488.441 7        42.550    24455681.620   100141945.91845
        36.300    24455682.360
 19  9 29 18  9 30.0000000  0  9G02G05G13G15G20G21G24G29G30
  23546934.420   123739964.696 7        43.150    23546928.540    96420729.12445
        38.400
  21836289.920   114750490.525 9        49.200    21836285.900    89415967.67147
        42.000    21836286.660
  20505883.000   107759172.890 9        49.200    20505878.280    83968212.71147
        44.850
  20439354.020   107409587.263 9        50.650    20439349.800    83695786.23448
        45.350    20439350.520
  24231913.080   127339584.915 6        40.600    24231910.140    99225660.25945
        37.100
  23192445.480   121877145.808 8        45.900    23192440.400    94969175.21145
        38.500
  25469646.940   133843899.700 5        36.700    25469648.580   104293969.10344
        33.550    25469648.500
  21433691.360   112634822.011 9        50.400    21433687.600    87767377.58647
        43.500    21433688.100
  24458586.660   128530751.098 7        43.600    24458586.020   100153838.87344
        35.200    24458586.760
 19  9 29 18 10  0.0000000  0  9G02G05G13G15G20G21G24G29G30
  23563339.240   123826172.087 7        43.900    23563333.380    96487903.65546
        39.400
  21849049.660   114817543.509 9        49.200    21849045.620    89468216.73946
        41.850    21849046.400
  20508471.520   107772775.597 9        49.300    20508466.820    83978812.22047
        44.700
  20429455.600   107357570.838 9        50.550    20429451.380    83655253.98847
        44.950    20429452.100
  24215684.640   127254304.136 7        42.650    24215681.820    99159207.72945
        37.700
  23177846.320   121800426.752 8        46.250    23177841.160    94909394.15946
        40.300
  25450154.620   133741466.961 4        35.950    25450156.500   104214151.41744
        34.850    25450156.220
  21444811.840   112693260.407 9        50.550    21444808.040    87812913.98047
        43.050    21444808.560
  24461588.660   128546526.667 7        43.450    24461588.020   100166131.54345
        37.300    24461588.760
 19  9 29 18 10 30.0000000  0  9G02G05G13G15G20G21G24G29G30
  23579789.700   123912619.286 7        44.800    23579783.780    96555265.08845
        38.250
  21861838.380   114884748.710 9        49.600    21861834.300    89520584.42046
        41.900    21861835.100
  20511173.540   107786974.737 9        49.300    20511168.840    83989876.47948
        45.100
  20419658.400   107306086.333 9        50.650    20419654.200    83615136.19848
        45.200    20419654.920
  24199465.980   127169074.674 7        42.400    24199463.220    99092795.20844
        35.500
  23163268.860   121723821.906 8        46.700    23163263.700    94849702.10246
        41.050
  25430630.440   133638867.425 5        36.800    25430632.500   104134203.80144
        34.700    25430632.140
  21456030.340   112752213.852 9        50.100    21456026.500    87858851.70547
        43.000    21456027.040
  24464688.180   128562814.642 7        43.100    24464687.520   100178823.47144
        35.950    24464688.260
 19  9 29 18 11  0.0000000  0  9G02G05G13G15G20G21G24G29G30
  23596285.720   123999305.513 7        44.850    23596279.740    96622812.71645
        37.600
  21874655.900   114952105.085 9        49.150    21874651.780    89573069.88847
        42.700    21874652.600
  20513988.920   107801769.483 8        48.900    20513984.220    84001404.84848
        45.250
  20409962.660   107255134.902 9        50.600    20409958.440    83575433.79048
        45.200    20409959.160
  24183257.220   127083897.065 7        42.350    24183254.500    99026423.08445
        36.200
  23148713.460   121647332.828 8        47.300    23148708.300    94790100.24846
        40.300
  25411075.040   133536103.798 4        35.900    25411077.280   104054128.23344
        34.550    25411076.900
  21467346.460   112811680.409 9        49.550    21467342.580    87905189.26347
        43.550    21467343.140
  24467885.240   128579615.114 7        42.800    24467884.540   100191914.74245
        37.600    24467885.300
 19  9 29 18 11 30.0000000  0  9G02G05G13G15G20G21G24G29G30
  23612826.860   124086228.776 7        44.000    23612820.800    96690545.04945
        37.400
  21887501.940   115019611.231 9        49.100    21887497.760    89625672.05647
        42.550    21887498.620
  20516917.300   107817158.092 8        48.650    20516912.580    84013395.96648
        45.050
  20400368.420   107204716.881 9        50.550    20400364.140    83536147.03548
        45.050    20400364.880
  24167058.280   126998770.882 7        43.000    24167055.560    98960091.03445
        36.700
  23134180.300   121570960.504 8        47.200    23134175.140    94730589.36246
        41.150
  25391488.580   133433177.528 4        35.600    25391490.960   103973926.06144
        35.150    25391490.560
  21478759.580   112871656.867 9        49.950    21478755.700    87951924.15947
        42.800    21478756.260
  24471179.680   128596927.311 7        42.300    24471179.000   100205404.72846
        39.100    24471179.740
 19  9 29 18 12  0.0000000  0  9G02G05G13G15G20G21G24G29G30
  23629413.560   124173391.611 7        43.350    23629407.420    96758464.08045
        38.250
  21900376.980   115087269.626 8        48.550    21900372.740    89678392.85447
        42.350    21900373.620
  20519959.120   107833142.961 9        49.000    20519954.400    84025851.71547
        44.800
  20390876.520   107154836.599 9        50.600    20390872.200    83497279.29148
        45.350    20390872.960
  24150869.780   126913699.420 7        43.750    24150867.020    98893801.60845
        37.150
  23119670.300   121494709.848 8        46.850    23119665.140    94671173.27246
        39.350
  25371872.400   133330094.758 5        36.550    25371874.900   103893601.83544
        35.550    25371874.560
  21490269.900   112932143.996 9        50.250    21490266.000    87999056.96347
        42.300    21490266.580
  24474572.060   128614754.306 7        43.200    24474571.400   100219295.85945
        37.050    24474572.140
